[{"id":2400008,"lat":49.043,"lng":3.395,"addr":"13 Avenue Jules Lefèbvre","city":"Château-Thierry","cp":"02400","fuels":{"Gazole":{"p":1.929,"d":"2026-03-04"},"E10":{"p":1.979,"d":"2026-03-02"},"SP98":{"p":1.999,"d":"2026-03-02"}},"brand":"Avia"},{"id":2420001,"lat":49.96029,"lng":3.2316,"addr":"39 Rue de Picardie","city":"Bellicourt","cp":"02420","fuels":{"Gazole":{"p":1.89,"d":"2025-09-18"},"SP95":{"p":1.92,"d":"2025-09-18"}},"brand":"Total Contact"},{"id":2460003,"lat":49.184986815428,"lng":3.1213787735998997,"addr":"12 rue de villers","city":"La Ferté-Milon","cp":"02460","fuels":{"Gazole":{"p":1.999,"d":"2026-03-05"},"SP95":{"p":1.989,"d":"2026-03-05"},"E85":{"p":0.79,"d":"2025-10-23"},"SP98":{"p":2.05,"d":"2026-03-05"}},"brand":"Carrefour"},{"id":2100018,"lat":49.842,"lng":3.284,"addr":"25 Boulevard Victor Hugo","city":"SAINT-QUENTIN","cp":"02100","fuels":{"Gazole":{"p":1.969,"d":"2026-03-05"},"E10":{"p":1.76,"d":"2026-03-05"}},"brand":"D.M. Combustibles"},{"id":2480002,"lat":49.73353618049801,"lng":3.2450595752320996,"addr":"Rond point de la victoire","city":"Jussy","cp":"02480","fuels":{"Gazole":{"p":1.873,"d":"2026-03-05"},"E85":{"p":0.794,"d":"2026-02-27"},"E10":{"p":1.758,"d":"2026-03-05"},"SP98":{"p":1.845,"d":"2026-03-05"}},"brand":"Carrefour"},{"id":2200010,"lat":49.37046,"lng":3.32985,"addr":"43 Avenue de Château-Thierry","city":"Belleu","cp":"02200","fuels":{"Gazole":{"p":1.959,"d":"2026-03-05"},"E85":{"p":0.758,"d":"2026-03-04"},"E10":{"p":1.739,"d":"2026-03-05"},"SP98":{"p":1.819,"d":"2026-03-05"}},"brand":"Intermarché"},{"id":2230002,"lat":49.958,"lng":3.43,"addr":"1000 rue jean jaures","city":"Fresnoy-le-Grand","cp":"02230","fuels":{"Gazole":{"p":1.985,"d":"2026-03-05"},"SP95":{"p":1.85,"d":"2026-03-05"},"SP98":{"p":1.9,"d":"2026-03-05"}},"brand":"Carrefour"},{"id":2310001,"lat":48.976,"lng":3.28,"addr":"route de pavant","city":"CHARLY","cp":"02310","fuels":{"Gazole":{"p":1.859,"d":"2026-03-05"},"SP95":{"p":1.805,"d":"2026-03-05"},"E85":{"p":0.729,"d":"2026-03-05"},"SP98":{"p":1.877,"d":"2026-03-05"}},"brand":"Système U"},{"id":2450003,"lat":49.9772968,"lng":3.6768151000000002,"addr":"16 RUE DU 2 SEPTEMBRE 1944","city":"La Neuville-lès-Dorengt","cp":"02450","fuels":{"Gazole":{"p":1.898,"d":"2026-03-04"},"SP95":{"p":1.839,"d":"2026-03-04"},"SP98":{"p":1.913,"d":"2026-03-04"}},"brand":"Carrefour"},{"id":2190007,"lat":49.435036675202,"lng":3.9668949241097,"addr":"3 Rue Pierre Curtil","city":"Guignicourt","cp":"02190","fuels":{"Gazole":{"p":1.989,"d":"2026-03-05"},"SP95":{"p":1.879,"d":"2026-03-05"},"SP98":{"p":1.919,"d":"2026-03-05"}},"brand":"Carrefour"},{"id":2400007,"lat":49.055315837997,"lng":3.3991661028551,"addr":"ZC LA MOISERIE ROUTE DE SOISSONS","city":"Château-Thierry","cp":"02400","fuels":{"Gazole":{"p":1.859,"d":"2026-03-04"},"SP95":{"p":1.805,"d":"2026-03-04"},"E10":{"p":1.659,"d":"2025-05-20"},"SP98":{"p":1.869,"d":"2026-03-04"}},"brand":"Netto"},{"id":2300001,"lat":49.64287,"lng":3.2595,"addr":"RD 338","city":"Viry-Noureuil","cp":"02300","fuels":{"Gazole":{"p":1.885,"d":"2026-03-05"},"E85":{"p":0.759,"d":"2026-03-05"},"GPLc":{"p":0.953,"d":"2026-02-20"},"E10":{"p":1.736,"d":"2026-03-05"},"SP98":{"p":1.849,"d":"2026-03-05"}},"brand":"Auchan"},{"id":2130005,"lat":49.125859309723,"lng":3.536447669516,"addr":"autoroute A4 aire de tardenois sud","city":"Fresnes-en-Tardenois","cp":"02130","fuels":{"Gazole":{"p":2.019,"d":"2026-03-05"},"GPLc":{"p":1.095,"d":"2026-03-05"},"E10":{"p":1.939,"d":"2026-03-05"},"SP98":{"p":2.039,"d":"2026-03-05"}},"brand":"Avia"},{"id":2603001,"lat":49.24,"lng":3.098,"addr":"Avenue de la Ferté Milon","city":"VILLERS-COTTERêTS","cp":"02600","fuels":{"Gazole":{"p":1.97,"d":"2026-03-05"},"SP95":{"p":1.873,"d":"2026-03-05"},"E85":{"p":0.748,"d":"2026-03-05"},"E10":{"p":1.751,"d":"2026-03-05"},"SP98":{"p":1.794,"d":"2026-03-05"}},"brand":"Leclerc"},{"id":2470001,"lat":49.169,"lng":3.257,"addr":"2 RUE Jese RACINE","city":"Neuilly-Saint-Front","cp":"02470","fuels":{"Gazole":{"p":1.97,"d":"2026-03-05"},"E10":{"p":1.751,"d":"2026-03-05"},"SP98":{"p":1.794,"d":"2026-03-05"}},"brand":"Leclerc"},{"id":2120006,"lat":49.894,"lng":3.635,"addr":"1 RUE SADI CARNOT","city":"GUISE","cp":"02120","fuels":{"Gazole":{"p":1.895,"d":"2026-03-04"},"SP95":{"p":1.805,"d":"2026-03-03"},"SP98":{"p":1.885,"d":"2026-03-04"}},"brand":"Carrefour"},{"id":2130001,"lat":49.201,"lng":3.511,"addr":"Rue du Stade","city":"FèRE-EN-TARDENOIS","cp":"02130","fuels":{"Gazole":{"p":1.919,"d":"2026-03-05"},"SP95":{"p":1.853,"d":"2026-03-05"},"E85":{"p":0.699,"d":"2026-03-05"}},"brand":"Système U"},{"id":2300006,"lat":49.62645,"lng":3.21575,"addr":"Boulevard de l'Europe","city":"Chauny","cp":"02300","fuels":{"Gazole":{"p":1.859,"d":"2026-03-04"},"E85":{"p":0.759,"d":"2026-03-04"},"GPLc":{"p":0.953,"d":"2025-08-18"},"E10":{"p":1.719,"d":"2026-03-04"},"SP98":{"p":1.849,"d":"2026-03-04"}},"brand":"Intermarché"},{"id":2130006,"lat":49.12695433209,"lng":3.5374234517177996,"addr":"Autoroute de l'Est","city":"Fresnes-en-Tardenois","cp":"02130","fuels":{"Gazole":{"p":2.019,"d":"2026-03-05"},"GPLc":{"p":1.095,"d":"2026-03-05"},"E10":{"p":1.939,"d":"2026-03-05"},"SP98":{"p":2.039,"d":"2026-03-05"}},"brand":"Avia"},{"id":2000009,"lat":49.582570669759,"lng":3.6442513545677,"addr":"167 Avenue Pierre Mendès France","city":"Laon","cp":"02000","fuels":{"Gazole":{"p":1.952,"d":"2026-03-05"},"SP95":{"p":1.805,"d":"2026-03-05"},"E10":{"p":1.736,"d":"2026-03-05"},"SP98":{"p":1.845,"d":"2026-03-05"}},"brand":"Intermarché"},{"id":2100019,"lat":49.84785,"lng":3.30117,"addr":"153 Rue de Mulhouse","city":"SAINT-QUENTIN","cp":"02100","fuels":{"Gazole":{"p":1.887,"d":"2026-03-05"},"SP95":{"p":1.809,"d":"2026-03-03"},"E85":{"p":0.759,"d":"2026-03-04"},"SP98":{"p":1.829,"d":"2026-03-03"}},"brand":"Intermarché"},{"id":2600004,"lat":49.252,"lng":3.059,"addr":"RTE NATIONALE 2  CHEMIN DE LA NONNE","city":"VILLERS-COTTERêTS","cp":"02600","fuels":{"Gazole":{"p":2.02,"d":"2026-03-04"},"SP95":{"p":1.98,"d":"2026-03-04"},"E85":{"p":0.8,"d":"2026-03-04"},"SP98":{"p":2.03,"d":"2026-03-04"}},"brand":"Avia"},{"id":2620001,"lat":49.960603600000006,"lng":3.8238007,"addr":"12 Rue Nationale","city":"Buironfosse","cp":"02620","fuels":{"Gazole":{"p":1.899,"d":"2026-03-03"},"E10":{"p":1.929,"d":"2026-03-03"}},"brand":"Gulf"},{"id":2000005,"lat":49.569,"lng":3.646,"addr":"97 Avenue Charles de Gaulle","city":"Laon","cp":"02000","fuels":{"Gazole":{"p":1.971,"d":"2026-03-04"},"E10":{"p":1.809,"d":"2026-03-04"},"SP98":{"p":1.919,"d":"2026-03-04"}},"brand":"TotalEnergies"},{"id":2500001,"lat":49.911174181842,"lng":4.0900804252982,"addr":"AVENUE DE VERDUN","city":"HIRSON","cp":"02500","fuels":{"Gazole":{"p":1.899,"d":"2026-03-05"},"E85":{"p":0.759,"d":"2026-03-05"},"GPLc":{"p":0.999,"d":"2026-02-24"},"E10":{"p":1.744,"d":"2026-03-05"},"SP98":{"p":1.855,"d":"2026-03-05"}},"brand":"Auchan"},{"id":2100008,"lat":49.844,"lng":3.279,"addr":"46 Avenue Faidherbe","city":"Saint-Quentin","cp":"02100","fuels":{"Gazole":{"p":1.941,"d":"2026-03-04"},"E10":{"p":1.785,"d":"2026-03-04"},"SP98":{"p":1.861,"d":"2026-03-04"}},"brand":"Esso"},{"id":2340002,"lat":49.63,"lng":4.025,"addr":"89 Grand Rue","city":"Dizy-le-Gros","cp":"02340","fuels":{"Gazole":{"p":1.749,"d":"2026-03-02"},"E10":{"p":1.759,"d":"2026-02-26"}},"brand":"Gulf"},{"id":2310002,"lat":49.196,"lng":3.514,"addr":"47 Rue Jules Lefèbvre","city":"Fère-en-Tardenois","cp":"02130","fuels":{"Gazole":{"p":1.929,"d":"2026-03-05"},"SP95":{"p":1.979,"d":"2026-03-04"},"SP98":{"p":1.999,"d":"2026-03-04"}},"brand":"Avia"},{"id":2000007,"lat":49.57,"lng":3.621,"addr":"16 Boulevard Pierre Brossolette","city":"Laon","cp":"02000","fuels":{"Gazole":{"p":1.799,"d":"2026-03-03"},"E85":{"p":0.825,"d":"2026-03-03"},"E10":{"p":1.749,"d":"2026-03-03"},"SP98":{"p":1.829,"d":"2026-03-03"}},"brand":"Esso"},{"id":2000008,"lat":49.587,"lng":3.649,"addr":"rue Jean Jaures","city":"CHAMBRY","cp":"02000","fuels":{"Gazole":{"p":1.909,"d":"2026-03-05"},"E85":{"p":0.799,"d":"2026-02-25"},"GPLc":{"p":0.995,"d":"2026-01-21"},"E10":{"p":1.729,"d":"2026-03-04"},"SP98":{"p":1.829,"d":"2026-03-04"}},"brand":"Leclerc"},{"id":2250004,"lat":49.75,"lng":3.772,"addr":"18 route de Thiernu","city":"Marle","cp":"02250","fuels":{"Gazole":{"p":1.99,"d":"2026-03-05"},"E10":{"p":1.856,"d":"2026-03-05"},"SP98":{"p":1.966,"d":"2026-03-05"}},"brand":"TotalEnergies"},{"id":2200015,"lat":49.371,"lng":3.341,"addr":"9 ET 11 RUE DE VILLENEUVE","city":"SOISSONS","cp":"02200","fuels":{"Gazole":{"p":1.891,"d":"2026-03-05"},"E85":{"p":0.751,"d":"2026-03-05"},"GPLc":{"p":0.911,"d":"2026-03-05"},"E10":{"p":1.729,"d":"2026-03-05"},"SP98":{"p":1.849,"d":"2026-03-05"}},"brand":"TotalEnergies"},{"id":2200011,"lat":49.38127,"lng":3.30822,"addr":"Avenue de Compiègne","city":"MERCIN-ET-VAUX","cp":"02200","fuels":{"Gazole":{"p":1.673,"d":"2026-02-19"},"E10":{"p":1.682,"d":"2026-02-19"},"SP98":{"p":1.787,"d":"2026-02-19"}},"brand":"TotalEnergies"},{"id":2000003,"lat":49.5700531713,"lng":3.60820562241,"addr":"16 RUE FERNAND CHRIST","city":"LAON","cp":"02000","fuels":{"Gazole":{"p":1.891,"d":"2026-03-04"},"SP95":{"p":1.831,"d":"2026-03-04"},"SP98":{"p":1.905,"d":"2026-03-04"}},"brand":"Carrefour"},{"id":2800004,"lat":49.66023,"lng":3.37185,"addr":"1 Chemin de Danizy","city":"LA FèRE","cp":"02800","fuels":{"Gazole":{"p":1.951,"d":"2026-03-05"},"SP95":{"p":1.84,"d":"2026-03-05"},"SP98":{"p":1.915,"d":"2026-03-05"}},"brand":"Carrefour"},{"id":2200014,"lat":49.368,"lng":3.329,"addr":"50 BIS ROUTE DE CHATEAU THIERRY","city":"SOISSONS","cp":"02200","fuels":{"Gazole":{"p":1.99,"d":"2026-03-05"},"E85":{"p":0.764,"d":"2026-03-05"},"E10":{"p":1.829,"d":"2026-03-05"},"SP98":{"p":1.939,"d":"2026-03-05"}},"brand":"TotalEnergies"},{"id":2190003,"lat":49.44872,"lng":3.92652,"addr":"A26 - Aire du Champ Roland","city":"Guignicourt","cp":"02190","fuels":{"Gazole":{"p":2.019,"d":"2026-03-05"},"E85":{"p":0.999,"d":"2026-03-05"},"GPLc":{"p":1.068,"d":"2026-03-05"},"E10":{"p":1.989,"d":"2026-03-05"},"SP98":{"p":2.089,"d":"2026-03-05"}},"brand":"Avia"},{"id":2000002,"lat":49.548,"lng":3.616,"addr":"ZAC ILE DE FRANCE","city":"LAON","cp":"02000","fuels":{"Gazole":{"p":1.839,"d":"2026-03-04"},"E10":{"p":1.747,"d":"2026-03-04"},"SP98":{"p":1.846,"d":"2026-03-02"}},"brand":"Carrefour"},{"id":2200008,"lat":49.364,"lng":3.304,"addr":"183 ROUTE DE PARIS","city":"Vauxbuin","cp":"02200","fuels":{"Gazole":{"p":1.858,"d":"2026-03-04"},"E10":{"p":1.719,"d":"2026-03-04"},"SP98":{"p":1.813,"d":"2026-03-04"}},"brand":"Esso"},{"id":2320002,"lat":49.506,"lng":3.44,"addr":"Rue de Coucy","city":"ANIZY-LE-CHâTEAU","cp":"02320","fuels":{"Gazole":{"p":1.899,"d":"2026-03-05"},"SP95":{"p":1.789,"d":"2026-03-04"},"E10":{"p":1.729,"d":"2026-03-04"},"SP98":{"p":1.829,"d":"2026-03-04"}},"brand":"Intermarché"},{"id":2200007,"lat":49.386,"lng":3.333,"addr":"1 Place de Laon","city":"Soissons","cp":"02200","fuels":{"Gazole":{"p":1.849,"d":"2026-03-04"},"E10":{"p":1.719,"d":"2026-03-04"},"SP98":{"p":1.819,"d":"2026-03-04"}},"brand":"Esso"},{"id":2100013,"lat":49.8536640026,"lng":3.26295970618,"addr":"Rue Antoine Parmentier","city":"SAINT-QUENTIN","cp":"02100","fuels":{"Gazole":{"p":1.849,"d":"2026-03-04"},"E85":{"p":0.758,"d":"2026-03-04"},"GPLc":{"p":0.951,"d":"2026-02-23"},"E10":{"p":1.719,"d":"2026-03-04"},"SP98":{"p":1.815,"d":"2026-03-04"}},"brand":"Intermarché"},{"id":2220001,"lat":49.341,"lng":3.529,"addr":"34 BD DE MONTPELLIER","city":"BRAINE","cp":"02220","fuels":{"Gazole":{"p":1.849,"d":"2026-03-04"},"E85":{"p":0.789,"d":"2026-01-14"},"E10":{"p":1.799,"d":"2026-03-04"},"SP98":{"p":1.859,"d":"2026-03-04"}},"brand":"Carrefour"},{"id":2700001,"lat":49.65,"lng":3.28,"addr":"213 Boulevard Gambetta","city":"CONDREN","cp":"02700","fuels":{"Gazole":{"p":1.989,"d":"2026-03-05"},"E10":{"p":1.835,"d":"2026-03-05"},"SP98":{"p":1.945,"d":"2026-03-05"}},"brand":"TotalEnergies"},{"id":2200013,"lat":49.381,"lng":3.302,"addr":"AV.DE COMPIEGNE - RN.31","city":"Mercin-et-Vaux","cp":"02200","fuels":{"Gazole":{"p":1.99,"d":"2026-03-05"},"E85":{"p":0.769,"d":"2026-03-05"},"SP98":{"p":1.959,"d":"2026-03-05"}},"brand":"TotalEnergies"},{"id":2270001,"lat":49.689,"lng":3.622,"addr":"2 AVENUE DE LA LIBERATION","city":"Crécy-sur-Serre","cp":"02270","fuels":{"Gazole":{"p":1.899,"d":"2026-03-04"},"E85":{"p":0.799,"d":"2026-02-11"},"E10":{"p":1.799,"d":"2026-03-04"},"SP98":{"p":1.899,"d":"2026-03-04"}},"brand":"Carrefour"},{"id":2100021,"lat":49.824379060000005,"lng":3.3107543699999997,"addr":"rue de la Fère","city":"Neuville-Saint-Amand","cp":"02100","fuels":{"Gazole":{"p":1.969,"d":"2026-03-05"},"E85":{"p":0.707,"d":"2026-02-23"},"E10":{"p":1.749,"d":"2026-03-05"},"SP98":{"p":1.859,"d":"2026-03-05"}}},{"id":2370005,"lat":49.405636006255996,"lng":3.5149754981475,"addr":"20 AVENUE JEAN JAURES","city":"VAILLY SUR AISNE","cp":"02370","fuels":{"Gazole":{"p":1.769,"d":"2026-03-03"},"SP95":{"p":1.789,"d":"2026-03-03"},"SP98":{"p":1.849,"d":"2026-03-03"}},"brand":"Carrefour"},{"id":2100012,"lat":49.865,"lng":3.291,"addr":"Route de BOHAIN","city":"Saint-Quentin","cp":"02100","fuels":{"Gazole":{"p":1.918,"d":"2026-03-05"},"GPLc":{"p":0.951,"d":"2025-09-06"},"E10":{"p":1.72,"d":"2026-03-05"},"SP98":{"p":1.843,"d":"2026-03-05"}},"brand":"Carrefour"},{"id":2390002,"lat":49.837,"lng":3.494,"addr":"Rue du Thil","city":"ORIGNY-SAINTE-BENOITE","cp":"02390","fuels":{"Gazole":{"p":1.729,"d":"2026-02-26"},"SP95":{"p":1.789,"d":"2026-02-26"},"SP98":{"p":1.819,"d":"2026-02-26"}}},{"id":2200012,"lat":49.362237748902004,"lng":3.4035793389285,"addr":"2 Rue d'Acy","city":"Venizel","cp":"02200","fuels":{"Gazole":{"p":1.799,"d":"2026-03-04"},"SP95":{"p":1.799,"d":"2026-03-04"},"SP98":{"p":1.849,"d":"2026-03-03"}},"brand":"Carrefour"},{"id":2250001,"lat":49.743,"lng":3.773,"addr":"Rue Saint Nicolas","city":"MARLE","cp":"02250","fuels":{"Gazole":{"p":1.989,"d":"2026-03-05"},"SP95":{"p":1.879,"d":"2026-03-05"},"E85":{"p":0.809,"d":"2026-03-05"}},"brand":"Carrefour"},{"id":2430001,"lat":49.82606,"lng":3.2792,"addr":"Rue Auguste Delaune","city":"GAUCHY","cp":"02430","fuels":{"Gazole":{"p":1.969,"d":"2026-03-05"},"E85":{"p":0.759,"d":"2026-03-05"},"GPLc":{"p":0.974,"d":"2026-02-27"},"E10":{"p":1.749,"d":"2026-03-05"},"SP98":{"p":1.859,"d":"2026-03-05"}},"brand":"Intermarché"},{"id":2000011,"lat":49.571,"lng":3.655,"addr":"ZAC DU CHAMP DU ROY","city":"Laon","cp":"02000","fuels":{"Gazole":{"p":1.891,"d":"2026-03-05"},"E85":{"p":0.804,"d":"2026-03-05"},"E10":{"p":1.729,"d":"2026-03-05"},"SP98":{"p":1.843,"d":"2026-03-05"}},"brand":"TotalEnergies"},{"id":2500004,"lat":49.921,"lng":4.084,"addr":"102 RUE CHARLES DE GAULLE","city":"HIRSON","cp":"02500","fuels":{"Gazole":{"p":1.899,"d":"2026-03-05"},"E10":{"p":1.744,"d":"2026-03-05"},"SP98":{"p":1.855,"d":"2026-03-05"}},"brand":"TotalEnergies"},{"id":2170001,"lat":50.013,"lng":3.781,"addr":"RUE DES VERRIERS","city":"LE NOUVION-EN-THIéRACHE","cp":"02170","fuels":{"Gazole":{"p":1.879,"d":"2026-03-04"},"SP95":{"p":1.819,"d":"2026-03-04"},"SP98":{"p":1.889,"d":"2026-03-03"}},"brand":"Carrefour"},{"id":2320001,"lat":49.499,"lng":3.451,"addr":"34 bis rue du 7ème Bca","city":"PINON","cp":"02320","fuels":{"Gazole":{"p":1.849,"d":"2026-03-04"},"E85":{"p":0.799,"d":"2026-03-03"},"E10":{"p":1.729,"d":"2026-03-04"}},"brand":"Carrefour"},{"id":2360001,"lat":49.704,"lng":4.112,"addr":"Lieu dit du grand hôtel","city":"Rozoy-sur-Serre","cp":"02360","fuels":{"Gazole":{"p":1.959,"d":"2026-03-05"},"E85":{"p":0.759,"d":"2026-03-04"},"E10":{"p":1.738,"d":"2026-03-05"},"SP98":{"p":1.823,"d":"2026-03-04"}},"brand":"Intermarché"},{"id":2300002,"lat":49.591,"lng":3.234,"addr":"CHEMIN DEPARTEMENTAL 937","city":"AUTREVILLE","cp":"02300","fuels":{"Gazole":{"p":1.901,"d":"2026-03-04"},"SP95":{"p":1.84,"d":"2026-03-04"},"E10":{"p":1.7,"d":"2026-01-17"},"SP98":{"p":1.914,"d":"2026-03-04"}},"brand":"Carrefour"},{"id":2870001,"lat":49.609284191712995,"lng":3.5052696871806,"addr":"1B Rue de Couvron","city":"Crépy","cp":"02870","fuels":{"Gazole":{"p":1.889,"d":"2026-03-05"},"E10":{"p":1.829,"d":"2026-03-05"}},"brand":"Gulf"},{"id":2580002,"lat":49.9035443,"lng":3.9139988,"addr":"14 RUE DU MONVINAGE","city":"ETREAUPONT","cp":"02580","fuels":{"Gazole":{"p":1.899,"d":"2026-03-03"},"E10":{"p":1.929,"d":"2026-03-03"}}},{"id":2880001,"lat":49.398,"lng":3.356,"addr":"Rue du Stade","city":"Crouy","cp":"02880","fuels":{"Gazole":{"p":1.849,"d":"2026-03-04"},"SP95":{"p":1.799,"d":"2026-03-04"},"GPLc":{"p":0.939,"d":"2026-02-02"},"E10":{"p":1.719,"d":"2026-03-04"},"SP98":{"p":1.819,"d":"2026-03-04"}},"brand":"Groupement des Mousquetaires"},{"id":2690002,"lat":49.785474082598,"lng":3.3342734139346,"addr":"AUTOROUTE A26 - AIRE D'URVILLERS","city":"Essigny-le-Grand","cp":"02690","fuels":{"Gazole":{"p":1.99,"d":"2026-03-05"},"E85":{"p":0.999,"d":"2026-03-05"},"GPLc":{"p":0.999,"d":"2026-03-05"},"E10":{"p":1.874,"d":"2026-03-05"},"SP98":{"p":1.99,"d":"2026-03-05"}},"brand":"TotalEnergies"},{"id":2300009,"lat":49.5197529,"lng":3.1492908,"addr":"24 rue du point du jour","city":"Blérancourt","cp":"02300","fuels":{"Gazole":{"p":1.738,"d":"2026-03-02"},"SP95":{"p":1.767,"d":"2026-03-02"},"SP98":{"p":1.839,"d":"2026-03-02"}},"brand":"Carrefour"},{"id":2200001,"lat":49.37,"lng":3.315,"addr":"3 Avenue Raymonde Fiolet","city":"Soissons","cp":"02200","fuels":{"Gazole":{"p":1.959,"d":"2026-03-05"},"E85":{"p":0.758,"d":"2026-03-05"},"GPLc":{"p":0.911,"d":"2026-03-05"},"E10":{"p":1.739,"d":"2026-03-05"},"SP98":{"p":1.819,"d":"2026-03-05"}},"brand":"Carrefour"},{"id":2500003,"lat":49.916,"lng":4.077,"addr":"Avenue du General Debeney","city":"HIRSON","cp":"02500","fuels":{"Gazole":{"p":1.897,"d":"2026-03-05"},"E10":{"p":1.742,"d":"2026-03-05"},"SP98":{"p":1.853,"d":"2026-03-05"}},"brand":"Leclerc"},{"id":2600005,"lat":49.246,"lng":3.096,"addr":"36 ROUTE DE LA FERTE MILON","city":"VILLERS-COTTERÊTS","cp":"02600","fuels":{"Gazole":{"p":1.99,"d":"2026-03-04"},"SP95":{"p":1.883,"d":"2026-03-05"},"SP98":{"p":1.99,"d":"2026-03-04"}},"brand":"TotalEnergies"},{"id":2340001,"lat":49.689,"lng":4.022,"addr":"14 ROUTE DE MONTCORNET","city":"LISLET","cp":"02340","fuels":{"Gazole":{"p":2.05,"d":"2026-03-05"},"E10":{"p":1.865,"d":"2026-03-05"},"SP98":{"p":1.982,"d":"2026-03-05"}},"brand":"Carrefour"},{"id":2140003,"lat":49.838777788156,"lng":3.9167879440021003,"addr":"ZI de la Briquetterie","city":"Vervins","cp":"02140","fuels":{"Gazole":{"p":1.866,"d":"2026-03-04"},"E85":{"p":0.759,"d":"2026-03-04"},"E10":{"p":1.763,"d":"2026-03-04"},"SP98":{"p":1.871,"d":"2026-03-04"}},"brand":"Intermarché"},{"id":2280001,"lat":49.531,"lng":3.856,"addr":"CD 24, route de liesse","city":"SAINT-ERME-OUTRE-ET-RAMECOURT","cp":"02820","fuels":{"Gazole":{"p":1.891,"d":"2026-03-05"},"E85":{"p":0.759,"d":"2026-03-03"},"E10":{"p":1.729,"d":"2026-03-04"},"SP98":{"p":1.829,"d":"2026-03-04"}},"brand":"Intermarché"},{"id":2120004,"lat":49.90249,"lng":3.63841,"addr":"Rue des Docteurs Devillers","city":"GUISE","cp":"02120","fuels":{"Gazole":{"p":1.995,"d":"2026-03-05"},"GPLc":{"p":0.999,"d":"2026-02-18"},"E10":{"p":1.789,"d":"2026-03-05"},"SP98":{"p":1.899,"d":"2026-03-05"}},"brand":"Intermarché"},{"id":2400001,"lat":49.04,"lng":3.387,"addr":"37 Avenue d'Essômes","city":"CHâTEAU-THIERRY","cp":"02400","fuels":{"Gazole":{"p":1.872,"d":"2026-03-04"},"SP95":{"p":1.806,"d":"2026-03-04"},"E10":{"p":1.767,"d":"2026-03-04"},"SP98":{"p":1.878,"d":"2026-03-04"}},"brand":"Carrefour"},{"id":2400004,"lat":49.037,"lng":3.39,"addr":"Z.I rue de la Plaine","city":"CHÂTEAU-THIERRY","cp":"02400","fuels":{"Gazole":{"p":1.859,"d":"2026-03-05"},"E10":{"p":1.759,"d":"2026-03-05"}},"brand":"Leclerc"},{"id":2600006,"lat":49.256,"lng":3.08,"addr":"231rd rue du general leclerc","city":"Villers-Cotterêts","cp":"02600","fuels":{"Gazole":{"p":1.952,"d":"2026-03-05"},"SP95":{"p":1.836,"d":"2026-03-04"},"E85":{"p":0.79,"d":"2026-03-04"},"SP98":{"p":1.909,"d":"2026-03-04"}},"brand":"Carrefour"},{"id":2380002,"lat":49.489,"lng":3.336,"addr":"D1 - LIEU DIT LE PRE MONTRE","city":"Crécy-au-Mont","cp":"02380","fuels":{"Gazole":{"p":1.894,"d":"2026-03-05"},"E85":{"p":0.749,"d":"2026-03-05"},"E10":{"p":1.749,"d":"2026-03-05"},"SP98":{"p":1.861,"d":"2026-03-05"}},"brand":"TotalEnergies"},{"id":2110002,"lat":49.981,"lng":3.451,"addr":"rue de Saint-Quentin","city":"BOHAIN-EN-VERMANDOIS","cp":"02110","fuels":{"Gazole":{"p":1.985,"d":"2026-03-05"},"E85":{"p":0.758,"d":"2026-03-05"},"E10":{"p":1.775,"d":"2026-03-05"},"SP98":{"p":1.88,"d":"2026-03-05"}}},{"id":2120005,"lat":49.896,"lng":3.626,"addr":"56, rue du jeu de Paume","city":"Guise","cp":"02120","fuels":{"Gazole":{"p":1.99,"d":"2026-03-05"},"E85":{"p":0.769,"d":"2026-03-05"},"E10":{"p":1.859,"d":"2026-03-05"},"SP98":{"p":1.969,"d":"2026-03-05"}},"brand":"TotalEnergies"},{"id":2100011,"lat":49.848,"lng":3.272,"addr":"98 rue Alexandre Dumas","city":"SAINT-QUENTIN","cp":"02100","fuels":{"Gazole":{"p":1.901,"d":"2026-03-05"},"E85":{"p":0.743,"d":"2026-03-04"},"E10":{"p":1.745,"d":"2026-03-05"},"SP98":{"p":1.851,"d":"2026-03-05"}},"brand":"TotalEnergies"},{"id":2860001,"lat":49.532,"lng":3.653,"addr":"89 RUE PORTE DE LAON","city":"Bruyères-et-Montbérault","cp":"02860","fuels":{"Gazole":{"p":1.99,"d":"2026-03-04"},"E10":{"p":1.852,"d":"2026-03-04"},"SP98":{"p":1.962,"d":"2026-03-04"}},"brand":"TotalEnergies"},{"id":2240001,"lat":49.80095,"lng":3.46696,"addr":"74 Rue Blondel","city":"RIBEMONT","cp":"02240","fuels":{"Gazole":{"p":1.849,"d":"2026-03-04"},"E85":{"p":0.729,"d":"2026-02-23"},"E10":{"p":1.719,"d":"2026-03-04"}},"brand":"Intermarché"},{"id":2000013,"lat":49.561343,"lng":3.6409990000000003,"addr":"RUE DU DOCTEUR MENU","city":"LAON","cp":"02000","fuels":{"Gazole":{"p":1.987,"d":"2026-03-05"},"SP95":{"p":1.84,"d":"2026-03-05"},"E85":{"p":0.798,"d":"2026-03-03"}},"brand":"Carrefour"},{"id":2290002,"lat":49.396807142795,"lng":3.1156294899994,"addr":"AVENUE DE LA GARE","city":"Ressons-le-Long","cp":"02290","fuels":{"Gazole":{"p":1.959,"d":"2026-03-05"},"E85":{"p":0.759,"d":"2026-03-03"},"E10":{"p":1.739,"d":"2026-03-05"},"SP98":{"p":1.844,"d":"2026-03-05"}},"brand":"Intermarché"},{"id":2100009,"lat":49.843,"lng":3.323,"addr":"Route de Guise","city":"HARLY","cp":"02100","fuels":{"Gazole":{"p":1.969,"d":"2026-03-05"},"E85":{"p":0.707,"d":"2026-02-23"},"GPLc":{"p":0.95,"d":"2025-10-03"},"E10":{"p":1.749,"d":"2026-03-05"},"SP98":{"p":1.859,"d":"2026-03-05"}},"brand":"Leclerc"},{"id":2100001,"lat":49.858,"lng":3.253,"addr":"route d'Amiens","city":"St Quentin","cp":"02100","fuels":{"Gazole":{"p":1.889,"d":"2026-03-04"},"E85":{"p":0.739,"d":"2026-02-24"},"GPLc":{"p":0.949,"d":"2025-08-28"},"E10":{"p":1.739,"d":"2026-03-04"},"SP98":{"p":1.829,"d":"2026-03-04"}},"brand":"Auchan"},{"id":2800003,"lat":49.66,"lng":3.346,"addr":"Le Chemin Blanc","city":"BEAUTOR","cp":"02800","fuels":{"Gazole":{"p":1.961,"d":"2026-03-05"},"E85":{"p":0.726,"d":"2026-03-05"},"GPLc":{"p":0.951,"d":"2026-03-05"},"E10":{"p":1.721,"d":"2026-03-05"},"SP98":{"p":1.82,"d":"2026-03-05"}},"brand":"Leclerc"},{"id":2260001,"lat":49.973,"lng":3.918,"addr":"rue de l'armistice","city":"LA CAPELLE","cp":"02260","fuels":{"Gazole":{"p":1.799,"d":"2026-03-03"},"SP95":{"p":1.819,"d":"2026-03-03"},"SP98":{"p":1.889,"d":"2026-03-03"}},"brand":"Carrefour"},{"id":2100020,"lat":49.834,"lng":3.3,"addr":"BLD CAMILLE GUERIN","city":"Saint-Quentin","cp":"02100","fuels":{"Gazole":{"p":1.899,"d":"2026-03-05"},"E85":{"p":0.735,"d":"2026-03-05"},"E10":{"p":1.735,"d":"2026-03-05"},"SP98":{"p":1.852,"d":"2026-03-05"}},"brand":"TotalEnergies"},{"id":2190005,"lat":49.445084070022006,"lng":3.9276187076699,"addr":"AUT A 26- AIRE DU MONT NIZY","city":"Juvincourt-et-Damary","cp":"02190","fuels":{"Gazole":{"p":2.019,"d":"2026-03-05"},"E85":{"p":0.999,"d":"2026-03-05"},"GPLc":{"p":0.799,"d":"2026-03-05"},"E10":{"p":1.989,"d":"2026-03-05"},"SP98":{"p":2.089,"d":"2026-03-05"}},"brand":"Shell"}]