[{"id":11100010,"lat":43.161,"lng":2.988,"addr":"AVENUE CROIX SUD","city":"Narbonne","cp":"11100","fuels":{"Gazole":{"p":1.885,"d":"2026-03-04"},"E10":{"p":1.769,"d":"2026-03-04"},"SP98":{"p":1.816,"d":"2026-03-04"}}},{"id":11150001,"lat":43.241,"lng":2.101,"addr":"zae avenue de la preuilhe","city":"BRAM","cp":"11150","fuels":{"Gazole":{"p":1.899,"d":"2026-03-04"},"SP95":{"p":1.899,"d":"2026-03-04"},"SP98":{"p":1.959,"d":"2026-03-04"}}},{"id":11160003,"lat":43.284583541238,"lng":2.5747807541329997,"addr":"Avenue Ernest Ferroul","city":"Peyriac-Minervois","cp":"11160","fuels":{"Gazole":{"p":1.845,"d":"2026-03-04"},"SP95":{"p":1.801,"d":"2026-03-04"},"SP98":{"p":1.873,"d":"2026-03-04"}}},{"id":11300003,"lat":43.059,"lng":2.214,"addr":"23 AVENUE CAMILLE BOUCHE","city":"Limoux","cp":"11300","fuels":{"Gazole":{"p":1.827,"d":"2026-03-04"},"E85":{"p":0.878,"d":"2026-03-04"},"E10":{"p":1.752,"d":"2026-03-04"},"SP98":{"p":1.864,"d":"2026-03-04"}}},{"id":11800002,"lat":43.203,"lng":2.443,"addr":"RN 113","city":"TRèBES","cp":"11800","fuels":{"Gazole":{"p":1.819,"d":"2026-03-03"},"E85":{"p":0.75,"d":"2026-03-03"},"E10":{"p":1.759,"d":"2026-03-03"},"SP98":{"p":1.869,"d":"2026-03-03"}}},{"id":11200007,"lat":43.265,"lng":2.718,"addr":"ROUTE DEPARTEMENTALE 610","city":"HOMPS","cp":"11200","fuels":{"Gazole":{"p":1.849,"d":"2026-03-04"},"E85":{"p":0.729,"d":"2026-03-02"},"E10":{"p":1.749,"d":"2026-03-03"},"SP98":{"p":1.849,"d":"2026-03-03"}}},{"id":11400002,"lat":43.313,"lng":1.965,"addr":"88 Avenue Monseigneur de Langle","city":"Castelnaudary","cp":"11400","fuels":{"Gazole":{"p":1.799,"d":"2026-03-03"},"E85":{"p":0.779,"d":"2026-03-03"},"E10":{"p":1.839,"d":"2026-03-03"},"SP98":{"p":1.919,"d":"2026-03-03"}}},{"id":11800003,"lat":43.210397690288,"lng":2.4542709242121,"addr":"Boulevard du Minervois","city":"Trèbes","cp":"11800","fuels":{"Gazole":{"p":1.839,"d":"2026-03-04"},"E10":{"p":1.759,"d":"2026-03-03"}}},{"id":11700001,"lat":43.18546,"lng":2.5573,"addr":"RN113","city":"CAPENDU","cp":"11700","fuels":{"Gazole":{"p":1.789,"d":"2026-03-03"},"E10":{"p":1.789,"d":"2026-03-03"},"SP98":{"p":1.909,"d":"2026-03-03"}}},{"id":11600005,"lat":43.282,"lng":2.437,"addr":"RD 620 Lieu dit la pièce","city":"VILLEGLY","cp":"11600","fuels":{"Gazole":{"p":1.859,"d":"2026-03-03"},"E10":{"p":1.799,"d":"2026-03-03"}}},{"id":11700009,"lat":43.188075466812,"lng":2.5643900511237,"addr":"LIEU DIT \"ROC DEL DIE\"","city":"Capendu","cp":"11700","fuels":{"Gazole":{"p":1.739,"d":"2026-03-03"},"E85":{"p":0.728,"d":"2026-03-03"},"E10":{"p":1.759,"d":"2026-03-03"},"SP98":{"p":1.819,"d":"2026-03-03"}}},{"id":11160002,"lat":43.314,"lng":2.47,"addr":"ZA les Terres Rouges - avenue du Minervois","city":"Villeneuve-Minervois","cp":"11160","fuels":{"Gazole":{"p":1.734,"d":"2026-02-11"},"SP95":{"p":1.806,"d":"2026-02-11"},"SP98":{"p":1.854,"d":"2026-02-11"}}},{"id":11620001,"lat":43.252,"lng":2.361,"addr":"Lieu dit La Viala","city":"VILLEMOUSTAUSSOU","cp":"11620","fuels":{"Gazole":{"p":1.859,"d":"2026-03-03"},"SP95":{"p":1.719,"d":"2025-12-22"},"E85":{"p":0.749,"d":"2026-03-03"},"GPLc":{"p":1.029,"d":"2026-03-03"},"E10":{"p":1.799,"d":"2026-03-03"},"SP98":{"p":1.919,"d":"2026-03-03"}}},{"id":11210002,"lat":43.015,"lng":3.05,"addr":"928, Boulevard Général de Gaulle","city":"PORT-LA-NOUVELLE","cp":"11210","fuels":{"Gazole":{"p":1.819,"d":"2026-03-04"},"E85":{"p":0.719,"d":"2026-02-07"},"E10":{"p":1.759,"d":"2026-03-04"},"SP98":{"p":1.859,"d":"2026-03-04"}}},{"id":11000013,"lat":43.18205593397,"lng":3.0153544914882002,"addr":"10 Av. Maréchal Juin","city":"Narbonne","cp":"11100","fuels":{"Gazole":{"p":1.834,"d":"2026-03-04"},"E85":{"p":0.729,"d":"2026-02-21"},"E10":{"p":1.764,"d":"2026-03-04"},"SP98":{"p":1.814,"d":"2026-03-03"}}},{"id":11000007,"lat":43.225,"lng":2.329,"addr":"Route de Toulouse","city":"Carcassonne","cp":"11000","fuels":{"Gazole":{"p":1.829,"d":"2026-03-04"},"SP95":{"p":1.809,"d":"2026-03-04"},"E10":{"p":1.719,"d":"2026-03-04"},"SP98":{"p":1.869,"d":"2026-03-04"}}},{"id":11480009,"lat":42.951,"lng":2.97,"addr":"Aire de service de La Palme Ouest - Sens France Espagne","city":"La Palme","cp":"11480","fuels":{"Gazole":{"p":1.825,"d":"2026-03-03"},"E85":{"p":0.999,"d":"2026-03-03"},"GPLc":{"p":1.054,"d":"2026-03-03"},"E10":{"p":1.848,"d":"2026-03-03"},"SP98":{"p":1.983,"d":"2026-03-03"}}},{"id":11200001,"lat":43.189,"lng":2.753,"addr":"AVENUE DES CORBIERES","city":"LéZIGNAN-CORBIèRES","cp":"11200","fuels":{"Gazole":{"p":1.849,"d":"2026-03-04"},"SP95":{"p":1.799,"d":"2026-03-04"},"E10":{"p":1.759,"d":"2026-03-04"},"SP98":{"p":1.869,"d":"2026-03-04"}}},{"id":11110008,"lat":43.214,"lng":3.09,"addr":"AIRE DE NARBONNE VINASSAN NORD - A9","city":"SALLES D'AUDE","cp":"11110","fuels":{"Gazole":{"p":1.96,"d":"2026-03-04"},"E85":{"p":0.999,"d":"2026-01-19"},"GPLc":{"p":1.054,"d":"2026-01-19"},"E10":{"p":1.848,"d":"2026-03-03"},"SP98":{"p":1.983,"d":"2026-03-04"}}},{"id":11500005,"lat":42.893,"lng":2.194,"addr":"ZA LA PLAGE SUD","city":"QUILLAN","cp":"11500","fuels":{"Gazole":{"p":1.889,"d":"2026-03-04"},"SP95":{"p":1.859,"d":"2026-03-04"},"E85":{"p":0.899,"d":"2026-03-04"}}},{"id":11430001,"lat":43.108,"lng":3.091,"addr":"Avenue de Narbonne","city":"GRUISSAN","cp":"11430","fuels":{"Gazole":{"p":1.819,"d":"2026-03-03"},"E85":{"p":0.739,"d":"2026-03-03"},"GPLc":{"p":1.029,"d":"2026-03-03"},"E10":{"p":1.899,"d":"2026-03-03"},"SP98":{"p":1.929,"d":"2026-03-03"}}},{"id":11150002,"lat":43.279337149999996,"lng":2.0937715565,"addr":"ld croix de l'ourmet  RN 113","city":"VILLEPINTE","cp":"11150","fuels":{"Gazole":{"p":1.999,"d":"2026-03-04"},"SP95":{"p":1.979,"d":"2026-03-04"},"SP98":{"p":1.999,"d":"2026-03-04"}}},{"id":11260001,"lat":42.937962357116,"lng":2.2357543638609,"addr":"Route de Quillan","city":"Espéraza","cp":"11260","fuels":{"Gazole":{"p":1.85,"d":"2026-03-04"},"GPLc":{"p":0.999,"d":"2026-02-03"},"E10":{"p":1.819,"d":"2026-03-04"}}},{"id":11700007,"lat":43.185294500000005,"lng":2.5611771,"addr":"Aire des corbières SUD A61","city":"Capendu","cp":"11700","fuels":{"Gazole":{"p":1.869,"d":"2026-03-03"},"E85":{"p":0.929,"d":"2026-02-23"},"E10":{"p":1.879,"d":"2026-03-03"},"SP98":{"p":1.979,"d":"2026-03-03"}}},{"id":11000014,"lat":43.215,"lng":2.345,"addr":"69 Allée d'Iéna","city":"CARCASSONNE","cp":"11000","fuels":{"Gazole":{"p":1.859,"d":"2026-03-03"},"E85":{"p":0.749,"d":"2026-03-03"},"E10":{"p":1.799,"d":"2026-03-03"},"SP98":{"p":1.919,"d":"2026-03-03"}}},{"id":11000012,"lat":43.216,"lng":2.355,"addr":"42 Boulevard Jean Jaurès","city":"Carcassonne","cp":"11000","fuels":{"Gazole":{"p":1.87,"d":"2026-03-03"},"SP95":{"p":1.89,"d":"2026-03-03"},"E85":{"p":0.95,"d":"2026-03-03"},"SP98":{"p":1.95,"d":"2026-03-03"}}},{"id":11100004,"lat":43.180417745049,"lng":2.9612291713135,"addr":"Cap de la Pla - RN113","city":"NARBONNE","cp":"11100","fuels":{"Gazole":{"p":1.899,"d":"2026-03-03"},"E85":{"p":0.789,"d":"2026-03-03"},"E10":{"p":1.839,"d":"2026-03-03"}}},{"id":11700005,"lat":43.252,"lng":2.652,"addr":"4 Avenue du Minervois","city":"LA REDORTE","cp":"11700","fuels":{"Gazole":{"p":1.839,"d":"2026-03-04"},"E85":{"p":0.759,"d":"2026-03-04"},"E10":{"p":1.749,"d":"2026-03-04"},"SP98":{"p":1.849,"d":"2026-03-04"}}},{"id":11220001,"lat":43.087,"lng":2.703,"addr":"69, avenue de Narbonne","city":"SAINT-LAURENT-DE-LA-CABRERISSE","cp":"11220","fuels":{"Gazole":{"p":1.651,"d":"2025-12-20"},"SP95":{"p":1.806,"d":"2025-12-20"},"SP98":{"p":1.801,"d":"2025-12-20"}}},{"id":11110005,"lat":43.2148856472,"lng":3.0923671173400002,"addr":"AUTOROUTE A9 - AIRE DE NARBONNE VINASSAN SUD","city":"Salles-d'Aude","cp":"11110","fuels":{"Gazole":{"p":1.99,"d":"2026-03-04"},"E85":{"p":0.999,"d":"2026-03-04"},"GPLc":{"p":0.999,"d":"2026-03-04"},"E10":{"p":1.99,"d":"2026-03-04"},"SP98":{"p":1.99,"d":"2026-03-04"}}},{"id":11120003,"lat":43.253700010604,"lng":2.9130546119169,"addr":"2 ZONE ARTISANALE LA GARRIGUE","city":"Argeliers","cp":"11120","fuels":{"Gazole":{"p":1.879,"d":"2026-03-04"},"E10":{"p":1.775,"d":"2026-03-04"},"SP98":{"p":1.895,"d":"2026-03-04"}}},{"id":11100015,"lat":43.182977973551,"lng":2.9359216901315,"addr":"7 rue du pont rouge","city":"Montredon-des-Corbières","cp":"11100","fuels":{"Gazole":{"p":1.899,"d":"2026-03-04"},"E85":{"p":0.749,"d":"2026-03-04"},"E10":{"p":1.799,"d":"2026-03-04"},"SP98":{"p":1.899,"d":"2026-03-04"}}},{"id":11200008,"lat":43.2,"lng":2.75,"addr":"RN 113 - 2 AVENUE DU MARECHAL F","city":"LEZIGNAN CORBIERES","cp":"11200","fuels":{"Gazole":{"p":1.882,"d":"2026-03-03"},"E10":{"p":1.759,"d":"2026-03-03"},"SP98":{"p":1.879,"d":"2026-03-03"}}},{"id":11110001,"lat":43.23,"lng":3.051,"addr":"Avenue de Toulouse","city":"COURSAN","cp":"11110","fuels":{"Gazole":{"p":1.854,"d":"2026-03-04"},"SP95":{"p":1.859,"d":"2026-03-04"},"E85":{"p":0.729,"d":"2026-03-04"},"E10":{"p":1.765,"d":"2026-03-04"}}},{"id":11400008,"lat":43.315,"lng":1.96,"addr":"129 AVENUE MONSEIGNEUR DELANGLE","city":"Castelnaudary","cp":"11400","fuels":{"Gazole":{"p":1.719,"d":"2026-03-03"},"SP95":{"p":1.789,"d":"2026-03-03"},"GPLc":{"p":1.017,"d":"2025-12-21"},"E10":{"p":1.739,"d":"2026-03-03"}}},{"id":11000005,"lat":43.211,"lng":2.345,"addr":"13 Allée d'Iéna","city":"Carcassonne","cp":"11000","fuels":{"Gazole":{"p":1.739,"d":"2026-03-03"},"E10":{"p":1.759,"d":"2026-03-03"},"SP98":{"p":1.849,"d":"2026-03-03"}}},{"id":11000015,"lat":43.19723,"lng":2.3233,"addr":"ROUTE DE LIMOUX RN 118","city":"CARCASSONNE","cp":"11000","fuels":{"Gazole":{"p":1.919,"d":"2026-03-03"},"E85":{"p":0.769,"d":"2026-03-03"},"GPLc":{"p":0.939,"d":"2026-03-03"},"E10":{"p":1.785,"d":"2026-03-03"},"SP98":{"p":1.885,"d":"2026-03-03"}}},{"id":11100003,"lat":43.182,"lng":2.981,"addr":"108 Avenue de Bordeaux","city":"NARBONNE","cp":"11100","fuels":{"Gazole":{"p":1.899,"d":"2026-03-03"},"E85":{"p":0.789,"d":"2026-03-03"},"E10":{"p":1.839,"d":"2026-03-03"},"SP98":{"p":1.909,"d":"2026-03-03"}}},{"id":11100009,"lat":43.187,"lng":3.004,"addr":"40 Boulevard Frédéric Mistral","city":"Narbonne","cp":"11100","fuels":{"Gazole":{"p":1.885,"d":"2026-03-04"},"E85":{"p":0.855,"d":"2026-03-04"},"E10":{"p":1.769,"d":"2026-03-04"},"SP98":{"p":1.816,"d":"2026-03-04"}}},{"id":11100008,"lat":43.163,"lng":2.989,"addr":"Avenue de la Croix Sud - PL uniquement","city":"Narbonne","cp":"11100","fuels":{"Gazole":{"p":1.885,"d":"2026-03-04"}}},{"id":11200002,"lat":43.204,"lng":2.782,"addr":"RD6113","city":"LéZIGNAN-CORBIèRES","cp":"11200","fuels":{"Gazole":{"p":1.769,"d":"2026-03-03"},"E85":{"p":0.719,"d":"2026-03-03"},"GPLc":{"p":1.029,"d":"2026-03-03"},"E10":{"p":1.809,"d":"2026-03-03"}}},{"id":11300004,"lat":43.073,"lng":2.223,"addr":"1, rue Georges Guynemer","city":"Limoux","cp":"11300","fuels":{"Gazole":{"p":1.815,"d":"2026-03-04"},"E85":{"p":0.765,"d":"2026-03-04"},"GPLc":{"p":0.952,"d":"2026-03-04"},"E10":{"p":1.752,"d":"2026-03-04"},"SP98":{"p":1.859,"d":"2026-03-04"}}},{"id":11540001,"lat":42.992,"lng":2.971,"addr":"ROUTE NATIONALE 9","city":"ROQUEFORT-DES-CORBIèRES","cp":"11540","fuels":{"Gazole":{"p":1.985,"d":"2026-03-03"},"E85":{"p":0.789,"d":"2026-03-03"},"GPLc":{"p":0.959,"d":"2026-03-03"},"E10":{"p":1.861,"d":"2026-03-03"},"SP98":{"p":1.971,"d":"2026-03-03"}}},{"id":11370004,"lat":42.854,"lng":3.035,"addr":"LIEUDIT CAP DE FRONTAVENUE DES ROSEAUX","city":"PORT LEUCATE","cp":"11370","fuels":{"Gazole":{"p":1.898,"d":"2026-03-04"},"E10":{"p":1.786,"d":"2026-03-04"},"SP98":{"p":1.897,"d":"2026-03-04"}}},{"id":11290001,"lat":43.221,"lng":2.206,"addr":"A61 Aire d'Arzens Sud","city":"ARZENS","cp":"11290","fuels":{"Gazole":{"p":1.811,"d":"2026-03-03"},"E85":{"p":0.89,"d":"2026-03-03"},"GPLc":{"p":1.089,"d":"2026-03-03"},"E10":{"p":1.818,"d":"2026-03-03"},"SP98":{"p":1.928,"d":"2026-03-03"}}},{"id":11300006,"lat":43.045,"lng":2.224,"addr":"59 avenue de Catalogne","city":"LIMOUX","cp":"11300","fuels":{"Gazole":{"p":1.809,"d":"2026-03-03"},"SP95":{"p":1.829,"d":"2026-03-03"},"SP98":{"p":1.859,"d":"2026-03-03"}}},{"id":11370001,"lat":42.9064295874,"lng":3.03680630734,"addr":"route de Leucate plage","city":"LEUCATE","cp":"11370","fuels":{"Gazole":{"p":1.889,"d":"2026-03-04"},"E10":{"p":1.819,"d":"2026-03-04"},"SP98":{"p":1.956,"d":"2026-03-04"}}},{"id":11400006,"lat":43.324,"lng":1.937,"addr":"1033 Avenue Martin dauch","city":"CASTELNAUDARY","cp":"11400","fuels":{"Gazole":{"p":1.557,"d":"2026-01-02"},"SP95":{"p":1.694,"d":"2026-01-02"}}},{"id":11110004,"lat":43.239,"lng":3.112,"addr":"Route de Coursan","city":"Salles-d'Aude","cp":"11110","fuels":{"Gazole":{"p":1.839,"d":"2026-03-04"},"E85":{"p":0.759,"d":"2026-03-04"},"E10":{"p":1.799,"d":"2026-03-04"},"SP98":{"p":1.849,"d":"2026-03-04"}}},{"id":11480008,"lat":42.94543586,"lng":2.9890048,"addr":"route départementale 6009","city":"La Palme","cp":"11480","fuels":{"Gazole":{"p":1.765,"d":"2026-03-03"},"E85":{"p":0.749,"d":"2026-03-03"},"GPLc":{"p":0.959,"d":"2026-03-03"},"E10":{"p":1.789,"d":"2026-03-03"},"SP98":{"p":1.899,"d":"2026-03-03"}}},{"id":11700008,"lat":43.178455886132,"lng":2.5432653081987997,"addr":"A61 Aire des Corbières Nord","city":"Capendu","cp":"11700","fuels":{"Gazole":{"p":1.794,"d":"2026-02-24"},"E85":{"p":0.909,"d":"2025-10-22"},"E10":{"p":1.825,"d":"2026-02-24"},"SP98":{"p":1.955,"d":"2026-02-24"}}},{"id":11300001,"lat":43.06103,"lng":2.21442,"addr":"16, avenue Camille Bouché","city":"Limoux","cp":"11300","fuels":{"Gazole":{"p":1.799,"d":"2026-02-28"},"SP95":{"p":1.9,"d":"2026-02-28"},"E85":{"p":0.98,"d":"2026-02-28"}}},{"id":11290002,"lat":43.221,"lng":2.202,"addr":"A61 Aire d'Arzens Nord","city":"ARZENS","cp":"11290","fuels":{"Gazole":{"p":1.811,"d":"2026-03-03"},"E85":{"p":0.89,"d":"2026-03-03"},"GPLc":{"p":1.089,"d":"2026-03-03"},"E10":{"p":1.818,"d":"2026-03-03"},"SP98":{"p":1.928,"d":"2026-03-03"}}},{"id":11290005,"lat":43.184973456197994,"lng":2.2604546015442,"addr":"Lieu dit Le GOUTAL - Route d'ALAIRAC - D211","city":"LAVALETTE","cp":"11290","fuels":{"Gazole":{"p":1.719,"d":"2026-03-04"},"E10":{"p":1.739,"d":"2026-03-04"},"SP98":{"p":1.719,"d":"2026-03-04"}}},{"id":11400005,"lat":43.30462,"lng":1.95867,"addr":"211 ROUTE DE VILLASAVARY","city":"CASTELNAUDARY","cp":"11400","fuels":{"Gazole":{"p":1.799,"d":"2026-03-04"},"E85":{"p":0.759,"d":"2026-03-04"},"E10":{"p":1.779,"d":"2026-03-04"}}},{"id":11310001,"lat":43.362978379985,"lng":2.1613941268092,"addr":"698 rue Bernard Marty lot las fountetos","city":"Saissac","cp":"11310","fuels":{"Gazole":{"p":1.79,"d":"2026-03-03"},"SP95":{"p":1.81,"d":"2026-03-03"},"SP98":{"p":1.89,"d":"2026-03-03"}}},{"id":11120001,"lat":43.25362,"lng":2.91366,"addr":"Avenue de Saint-Pons","city":"Saint-Marcel-sur-Aude","cp":"11120","fuels":{"Gazole":{"p":1.879,"d":"2026-03-04"},"SP95":{"p":1.849,"d":"2026-03-04"},"E10":{"p":1.775,"d":"2026-03-04"},"SP98":{"p":1.895,"d":"2026-03-04"}}},{"id":11290003,"lat":43.2,"lng":2.139,"addr":"28 AVENUE DU LAURAGAIS","city":"MONTREAL","cp":"11290","fuels":{"Gazole":{"p":1.99,"d":"2026-03-03"},"E10":{"p":1.876,"d":"2026-03-03"},"SP98":{"p":1.986,"d":"2026-03-03"}}},{"id":11500004,"lat":42.878,"lng":2.186,"addr":"6 Avenue F.Mitterrand","city":"QUILLAN","cp":"11500","fuels":{"Gazole":{"p":1.86,"d":"2026-03-04"},"E10":{"p":1.84,"d":"2026-03-04"},"SP98":{"p":1.93,"d":"2026-03-04"}}},{"id":11170002,"lat":43.255,"lng":2.168,"addr":"AVENUE DE TOULOUSE","city":"ALZONNE","cp":"11170","fuels":{"Gazole":{"p":1.869,"d":"2026-03-04"},"E85":{"p":0.728,"d":"2026-03-04"},"E10":{"p":1.769,"d":"2026-03-04"},"SP98":{"p":1.889,"d":"2026-03-04"}}},{"id":11120002,"lat":43.2036793,"lng":2.7649696999999995,"addr":"RN 113 AVENUE MARECHAL GALLIENI","city":"Lézignan-Corbières","cp":"11200","fuels":{"Gazole":{"p":1.709,"d":"2026-03-03"},"E10":{"p":1.739,"d":"2026-03-03"},"SP98":{"p":1.829,"d":"2026-03-03"}}},{"id":11480007,"lat":42.97984,"lng":2.98637,"addr":"AIRE DE LAPALME EST","city":"La Palme","cp":"11480","fuels":{"Gazole":{"p":1.939,"d":"2026-03-03"},"GPLc":{"p":1.095,"d":"2026-02-26"},"E10":{"p":1.959,"d":"2026-02-26"},"SP98":{"p":2.059,"d":"2026-02-26"}}},{"id":11140001,"lat":42.8041025698,"lng":2.23146003573,"addr":"Lieu Dit La Condomine","city":"AXAT","cp":"11140","fuels":{"Gazole":{"p":1.81,"d":"2026-03-03"},"E10":{"p":1.84,"d":"2026-03-03"}}},{"id":11106001,"lat":43.180778,"lng":2.969683,"addr":"199 avenue de Bordeaux","city":"NARBONNE","cp":"11100","fuels":{"Gazole":{"p":1.835,"d":"2026-03-04"},"E10":{"p":1.765,"d":"2026-03-04"},"SP98":{"p":1.815,"d":"2026-03-03"}}},{"id":11000009,"lat":43.212,"lng":2.325,"addr":"Rue Claude Chappe","city":"Carcassonne","cp":"11000","fuels":{"Gazole":{"p":1.869,"d":"2026-03-04"},"E10":{"p":1.769,"d":"2026-03-04"},"SP98":{"p":1.869,"d":"2026-03-04"}}},{"id":11590002,"lat":43.25654,"lng":2.94731,"addr":"Place du Portail","city":"Sallèles-d'Aude","cp":"11590","fuels":{"Gazole":{"p":1.69,"d":"2026-02-25"},"SP95":{"p":1.78,"d":"2025-11-07"},"SP98":{"p":1.8,"d":"2025-11-07"}}},{"id":11200006,"lat":43.187,"lng":2.751,"addr":"Rue de L'Estagnol","city":"LéZIGNAN-CORBIèRES","cp":"11200","fuels":{"Gazole":{"p":1.779,"d":"2026-03-04"},"SP95":{"p":1.829,"d":"2026-03-04"},"E85":{"p":0.758,"d":"2026-03-04"},"E10":{"p":1.759,"d":"2026-03-04"}}},{"id":11400004,"lat":43.311,"lng":1.971,"addr":"ROUTE DE CARCASSONNE","city":"Castelnaudary","cp":"11400","fuels":{"Gazole":{"p":1.99,"d":"2026-03-04"},"E85":{"p":0.797,"d":"2026-03-04"},"E10":{"p":1.873,"d":"2026-03-04"},"SP98":{"p":1.983,"d":"2026-03-04"}}},{"id":11590004,"lat":43.26593478874901,"lng":2.9489985947624002,"addr":"Route d'Ouveillan","city":"Sallèles-d'Aude","cp":"11590","fuels":{"Gazole":{"p":1.878,"d":"2026-03-04"},"E10":{"p":1.774,"d":"2026-03-04"},"SP98":{"p":1.894,"d":"2026-03-04"}}},{"id":11000018,"lat":43.208,"lng":2.311,"addr":"Centre Commercial Salvaza ZI la Bouriette","city":"Carcassonne","cp":"11000","fuels":{"Gazole":{"p":1.769,"d":"2026-03-04"},"SP95":{"p":1.779,"d":"2026-03-04"},"GPLc":{"p":0.939,"d":"2026-02-06"},"E10":{"p":1.719,"d":"2026-03-04"}}},{"id":11390001,"lat":42.96,"lng":2.529,"addr":"1, impasse des Corbières","city":"MOUTHOUMET","cp":"11330","fuels":{"Gazole":{"p":1.782,"d":"2026-02-25"},"SP95":{"p":1.835,"d":"2026-02-17"},"E85":{"p":0.918,"d":"2026-01-07"}}},{"id":11130001,"lat":43.031,"lng":2.965,"addr":"29 ZAE du Peyrou","city":"SIGEAN","cp":"11130","fuels":{"Gazole":{"p":1.819,"d":"2026-03-04"},"E85":{"p":0.728,"d":"2026-02-27"},"E10":{"p":1.729,"d":"2026-03-04"},"SP98":{"p":1.819,"d":"2026-03-03"}}},{"id":11430002,"lat":43.118,"lng":3.104,"addr":"ZA DE MATEILLE","city":"GRUISSAN","cp":"11430","fuels":{"Gazole":{"p":1.8,"d":"2026-03-03"},"E85":{"p":0.728,"d":"2026-02-11"},"E10":{"p":1.77,"d":"2026-03-03"},"SP98":{"p":1.882,"d":"2026-03-03"}}},{"id":11130002,"lat":43.027,"lng":2.995,"addr":"Rue François Arago","city":"Sigean","cp":"11130","fuels":{"Gazole":{"p":1.825,"d":"2026-03-04"},"E85":{"p":0.719,"d":"2026-03-02"},"E10":{"p":1.769,"d":"2026-03-04"},"SP98":{"p":1.865,"d":"2026-03-04"}}},{"id":11000016,"lat":43.236,"lng":2.369,"addr":"ZI PONT ROUGE","city":"CARCASSONNE","cp":"11000","fuels":{"Gazole":{"p":1.845,"d":"2026-03-04"},"E85":{"p":0.754,"d":"2026-02-10"},"E10":{"p":1.775,"d":"2026-03-04"},"SP98":{"p":1.886,"d":"2026-03-04"}}},{"id":11500002,"lat":42.878,"lng":2.183,"addr":"STATION PIERRE LYS","city":"Quillan","cp":"11500","fuels":{"Gazole":{"p":1.789,"d":"2026-02-26"},"E10":{"p":1.844,"d":"2026-03-04"}}},{"id":11100017,"lat":43.196,"lng":3.012,"addr":"82 AVENUE CARNOT","city":"Narbonne","cp":"11100","fuels":{"Gazole":{"p":1.865,"d":"2026-03-03"},"SP95":{"p":1.917,"d":"2026-03-03"}}},{"id":11000019,"lat":43.207,"lng":2.393,"addr":"1 rue Joséphine Baker","city":"Carcassonne","cp":"11000","fuels":{"Gazole":{"p":1.769,"d":"2026-03-03"},"E85":{"p":0.75,"d":"2026-02-21"},"E10":{"p":1.712,"d":"2026-03-03"},"SP98":{"p":1.829,"d":"2026-03-03"}}},{"id":11000003,"lat":43.207,"lng":2.386,"addr":"AVENUE DU 3ème RPIMA","city":"Carcassonne","cp":"11000","fuels":{"Gazole":{"p":1.99,"d":"2026-03-04"},"E10":{"p":1.865,"d":"2026-03-04"},"SP98":{"p":1.975,"d":"2026-03-04"}}},{"id":11100013,"lat":43.174,"lng":2.992,"addr":"60AVENUE DU GENERAL LECLERC","city":"NARBONNE","cp":"11100","fuels":{"Gazole":{"p":1.885,"d":"2026-03-03"},"E85":{"p":0.764,"d":"2026-03-03"},"GPLc":{"p":0.909,"d":"2026-03-03"},"E10":{"p":1.769,"d":"2026-03-03"}}},{"id":11250001,"lat":43.124,"lng":2.294,"addr":"100 chemin de la plaine, station service total","city":"Rouffiac d'Aude","cp":"11250","fuels":{"Gazole":{"p":1.99,"d":"2026-03-03"},"SP95":{"p":1.99,"d":"2026-03-03"}}},{"id":11100002,"lat":43.191,"lng":3.007,"addr":"14 Avenue Carnot","city":"NARBONNE","cp":"11100","fuels":{"Gazole":{"p":1.899,"d":"2026-03-03"},"E85":{"p":0.789,"d":"2026-03-03"},"E10":{"p":1.839,"d":"2026-03-03"}}},{"id":11360002,"lat":42.997218294324,"lng":2.8193464003296,"addr":"22 AVENUE DE NARBONNE","city":"DURBAN-CORBIERES","cp":"11360","fuels":{"Gazole":{"p":1.729,"d":"2026-03-03"},"E10":{"p":1.709,"d":"2026-03-03"},"SP98":{"p":1.799,"d":"2026-03-03"}}},{"id":11101001,"lat":43.179,"lng":3.029,"addr":"AVENUE HUBERT MOULY","city":"NARBONNE","cp":"11100","fuels":{"Gazole":{"p":1.839,"d":"2026-03-04"},"E10":{"p":1.799,"d":"2026-03-03"},"SP98":{"p":1.849,"d":"2026-03-04"}}}]