[{"id":22250001,"lat":48.315,"lng":-2.25,"addr":"Rue du Pilaga","city":"BROONS","cp":"22250","fuels":{"Gazole":{"p":1.949,"d":"2026-03-05"},"SP95":{"p":1.799,"d":"2026-03-05"},"SP98":{"p":1.849,"d":"2026-03-05"}}},{"id":22120005,"lat":48.422,"lng":-2.656,"addr":"Rue de l'Argentaie","city":"Quessoy","cp":"22120","fuels":{"Gazole":{"p":1.949,"d":"2026-03-05"},"E10":{"p":1.735,"d":"2026-03-05"},"SP98":{"p":1.835,"d":"2026-03-05"}}},{"id":22500003,"lat":48.771071642219,"lng":-3.0400148040401,"addr":"Rue Raymond Pellier Route De Lanvollon, D7","city":"Paimpol","cp":"22500","fuels":{"Gazole":{"p":1.894,"d":"2026-03-05"},"E10":{"p":1.735,"d":"2026-03-05"},"SP98":{"p":1.855,"d":"2026-03-05"}}},{"id":22130001,"lat":48.525,"lng":-2.241,"addr":"Rue du Connétable de Clisson","city":"PLANCOET","cp":"22130","fuels":{"Gazole":{"p":1.879,"d":"2026-03-05"},"E85":{"p":0.728,"d":"2026-01-28"},"E10":{"p":1.733,"d":"2026-03-04"},"SP98":{"p":1.836,"d":"2026-03-04"}}},{"id":22500001,"lat":48.773,"lng":-3.039,"addr":"RUE RAYMOND PELLIER","city":"PAIMPOL","cp":"22500","fuels":{"Gazole":{"p":1.999,"d":"2026-03-05"},"E10":{"p":1.808,"d":"2026-03-05"},"SP98":{"p":1.924,"d":"2026-03-05"}}},{"id":22440002,"lat":48.52276,"lng":-2.85671,"addr":"Rue de Brest","city":"TRéMUSON","cp":"22440","fuels":{"Gazole":{"p":1.879,"d":"2026-03-05"},"E10":{"p":1.719,"d":"2026-03-05"}}},{"id":22260001,"lat":48.69621,"lng":-3.16593,"addr":"33 Rue de l'Éperonnerie","city":"Pontrieux","cp":"22260","fuels":{"Gazole":{"p":1.798,"d":"2026-03-04"},"SP95":{"p":1.758,"d":"2026-03-04"},"E10":{"p":1.735,"d":"2026-03-04"}}},{"id":22210001,"lat":48.17281,"lng":-2.5987,"addr":"RUE DE LA LIBERTE","city":"Plémet","cp":"22210","fuels":{"Gazole":{"p":1.94,"d":"2026-03-05"},"E10":{"p":1.714,"d":"2026-03-03"},"SP98":{"p":1.85,"d":"2026-03-03"}}},{"id":22960001,"lat":48.445538320000004,"lng":-2.7512954499999998,"addr":"2, RUE DU CHALLONGE","city":"PLEDRAN","cp":"22960","fuels":{"Gazole":{"p":1.979,"d":"2026-03-05"},"E10":{"p":1.819,"d":"2026-03-05"},"SP98":{"p":1.939,"d":"2026-03-05"}}},{"id":22240001,"lat":48.627,"lng":-2.405,"addr":"LA NOE","city":"Plurien","cp":"22240","fuels":{"Gazole":{"p":1.964,"d":"2026-03-04"},"E10":{"p":1.803,"d":"2026-03-04"},"SP98":{"p":1.913,"d":"2026-03-04"}}},{"id":22400005,"lat":48.462,"lng":-2.504,"addr":"25 avenue Georges Clemenceau","city":"LAMBALLE","cp":"22400","fuels":{"Gazole":{"p":1.869,"d":"2026-03-05"},"E85":{"p":0.759,"d":"2026-03-05"},"E10":{"p":1.669,"d":"2026-03-05"},"SP98":{"p":1.776,"d":"2026-03-05"}}},{"id":22300003,"lat":48.75,"lng":-3.458,"addr":"Route de Perros","city":"Lannion","cp":"22300","fuels":{"Gazole":{"p":1.979,"d":"2026-03-05"},"SP95":{"p":1.789,"d":"2026-03-05"},"E85":{"p":0.729,"d":"2026-01-29"},"GPLc":{"p":0.989,"d":"2026-01-20"},"E10":{"p":1.719,"d":"2026-03-05"},"SP98":{"p":1.829,"d":"2026-03-05"}}},{"id":22500004,"lat":48.778,"lng":-3.057,"addr":"Route de Lézardrieux","city":"Paimpol","cp":"22500","fuels":{"Gazole":{"p":1.988,"d":"2026-03-05"},"SP95":{"p":1.798,"d":"2026-03-05"},"E10":{"p":1.728,"d":"2026-03-05"},"SP98":{"p":1.828,"d":"2026-03-05"}}},{"id":22140002,"lat":48.623,"lng":-3.296,"addr":"Rue de Guingamp","city":"Bégard","cp":"22140","fuels":{"SP98":{"p":1.799,"d":"2026-03-05"}}},{"id":22200006,"lat":48.557,"lng":-3.129,"addr":"ROUTE NATIONALE 12 - ROUTE DE SAINT BRIEUC","city":"PLOUMAGOAR","cp":"22970","fuels":{"Gazole":{"p":1.884,"d":"2026-03-05"},"E85":{"p":0.759,"d":"2026-03-05"},"E10":{"p":1.729,"d":"2026-03-05"},"SP98":{"p":1.835,"d":"2026-03-05"}}},{"id":22650001,"lat":48.577,"lng":-2.152,"addr":"ROUTE DE ST JACUT","city":"PLOUBALAY","cp":"22650","fuels":{"Gazole":{"p":1.986,"d":"2026-03-05"},"E10":{"p":1.809,"d":"2026-03-05"},"SP98":{"p":1.919,"d":"2026-03-05"}}},{"id":22240003,"lat":48.628,"lng":-2.362,"addr":"4 rue de la Pièce Monsieur","city":"FREHEL","cp":"22240","fuels":{"Gazole":{"p":1.799,"d":"2026-03-05"},"SP95":{"p":1.759,"d":"2026-03-05"}}},{"id":22350006,"lat":48.27402585,"lng":-2.1864875602089,"addr":"KERGOUET","city":"SAINT JOUAN DE L'ISLE","cp":"22350","fuels":{"Gazole":{"p":1.839,"d":"2026-03-04"},"E10":{"p":1.749,"d":"2026-03-04"},"SP98":{"p":1.799,"d":"2026-03-04"}}},{"id":22390001,"lat":48.478,"lng":-3.186,"addr":"BOULEVARD D ARMOR","city":"Bourbriac","cp":"22390","fuels":{"Gazole":{"p":1.981,"d":"2026-03-05"},"SP95":{"p":1.869,"d":"2026-03-05"},"SP98":{"p":1.939,"d":"2026-03-05"}}},{"id":22810002,"lat":48.54944,"lng":-3.45286,"addr":"RN 12","city":"PLOUNEVEZ MOEDEC","cp":"22810","fuels":{"Gazole":{"p":1.974,"d":"2026-03-05"},"E85":{"p":0.769,"d":"2026-03-05"},"E10":{"p":1.814,"d":"2026-03-05"},"SP98":{"p":1.924,"d":"2026-03-05"}}},{"id":22230003,"lat":48.19538,"lng":-2.41743,"addr":"Rue Chanoine le Texier","city":"MERDRIGNAC","cp":"22230","fuels":{"Gazole":{"p":1.888,"d":"2026-03-04"},"SP95":{"p":1.727,"d":"2026-03-02"},"E10":{"p":1.715,"d":"2026-03-04"},"SP98":{"p":1.85,"d":"2026-03-04"}}},{"id":22270001,"lat":48.409,"lng":-2.324,"addr":"21 ter, rue de Penthièvre","city":"Jugon-les-Lacs","cp":"22270","fuels":{"Gazole":{"p":1.914,"d":"2026-03-04"},"SP95":{"p":1.743,"d":"2026-02-23"},"SP98":{"p":1.781,"d":"2026-02-26"}}},{"id":22300002,"lat":48.72639682,"lng":-3.4460882,"addr":"Route de Guingamp","city":"LANNION","cp":"22300","fuels":{"Gazole":{"p":1.979,"d":"2026-03-05"},"E10":{"p":1.719,"d":"2026-03-05"},"SP98":{"p":1.829,"d":"2026-03-05"}}},{"id":22200005,"lat":48.558,"lng":-3.141,"addr":"22 Boulevard de la Marne","city":"GUINGAMP","cp":"22200","fuels":{"Gazole":{"p":1.89,"d":"2026-03-03"},"E10":{"p":1.79,"d":"2026-03-03"},"SP98":{"p":1.88,"d":"2026-03-03"}}},{"id":22580001,"lat":48.691,"lng":-2.933,"addr":"Le Chene Vert","city":"PLOUHA","cp":"22580","fuels":{"Gazole":{"p":1.856,"d":"2026-03-04"},"SP95":{"p":1.799,"d":"2026-03-02"},"SP98":{"p":1.815,"d":"2026-03-02"}}},{"id":22560001,"lat":48.77,"lng":-3.571,"addr":"Rue des Plages","city":"TRéBEURDEN","cp":"22560","fuels":{"E85":{"p":0.759,"d":"2026-03-05"}}},{"id":22190001,"lat":48.534,"lng":-2.76,"addr":"Zac du Plateau","city":"PLERIN","cp":"22190","fuels":{"Gazole":{"p":1.929,"d":"2026-03-05"},"E85":{"p":0.738,"d":"2026-03-05"},"E10":{"p":1.709,"d":"2026-03-05"},"SP98":{"p":1.799,"d":"2026-03-05"}}},{"id":22220001,"lat":48.778,"lng":-3.232,"addr":"BL JEAN GUEHENNO","city":"TREGUIER","cp":"22220","fuels":{"Gazole":{"p":1.859,"d":"2026-03-04"},"SP95":{"p":1.775,"d":"2026-03-04"},"E85":{"p":0.698,"d":"2026-01-30"},"SP98":{"p":1.815,"d":"2026-03-04"}}},{"id":22610001,"lat":48.844,"lng":-3.137,"addr":"24 Rue de l'Armor","city":"PLEUBIAN","cp":"22610","fuels":{"Gazole":{"p":1.798,"d":"2026-03-03"},"SP95":{"p":1.768,"d":"2026-03-03"},"SP98":{"p":1.788,"d":"2026-03-03"}}},{"id":22120001,"lat":48.481,"lng":-2.67378,"addr":"C. C. DE LA BAIE","city":"Yffiniac","cp":"22120","fuels":{"Gazole":{"p":1.879,"d":"2026-03-04"},"E85":{"p":0.749,"d":"2026-01-24"},"GPLc":{"p":0.939,"d":"2026-01-30"},"E10":{"p":1.709,"d":"2026-03-04"},"SP98":{"p":1.806,"d":"2026-03-04"}}},{"id":22530001,"lat":48.198,"lng":-2.987,"addr":"5 ROUTE DE PONTIVY","city":"Mûr-de-Bretagne","cp":"22530","fuels":{"Gazole":{"p":1.971,"d":"2026-03-05"},"E10":{"p":1.75,"d":"2026-03-05"},"SP98":{"p":1.873,"d":"2026-03-05"}}},{"id":22800003,"lat":48.40807360198001,"lng":-2.9186782083897,"addr":"le vivier rond point du volozen","city":"Quintin","cp":"22800","fuels":{"Gazole":{"p":1.89,"d":"2026-03-04"},"E10":{"p":1.709,"d":"2026-03-04"},"SP98":{"p":1.825,"d":"2026-03-04"}}},{"id":22200004,"lat":48.562,"lng":-3.153,"addr":"32 avenue du Goëlo","city":"SAINT-AGATHON","cp":"22200","fuels":{"Gazole":{"p":1.937,"d":"2026-03-05"},"E10":{"p":1.717,"d":"2026-03-05"},"SP98":{"p":1.82,"d":"2026-03-05"}}},{"id":22120003,"lat":48.482,"lng":-2.646,"addr":"RUE JEAN MONNET","city":"YFFINIAC","cp":"22120","fuels":{"Gazole":{"p":1.985,"d":"2026-03-04"},"SP95":{"p":2.09,"d":"2026-03-03"},"SP98":{"p":2.16,"d":"2026-03-03"}}},{"id":22104001,"lat":48.445,"lng":-2.069,"addr":"La Coulebart","city":"DINAN","cp":"22100","fuels":{"Gazole":{"p":1.925,"d":"2026-03-05"},"SP95":{"p":1.804,"d":"2026-03-05"},"SP98":{"p":1.855,"d":"2026-03-05"}}},{"id":22600008,"lat":48.178,"lng":-2.76,"addr":"21 Boulevard de la Gare","city":"LOUDEAC","cp":"22600","fuels":{"Gazole":{"p":1.849,"d":"2026-03-04"},"E10":{"p":1.709,"d":"2026-03-04"},"SP98":{"p":1.839,"d":"2026-03-04"}}},{"id":22640003,"lat":48.367861879108,"lng":-2.3949106208503,"addr":"13 Rue de la République","city":"Plénée-Jugon","cp":"22640","fuels":{"Gazole":{"p":1.949,"d":"2026-03-05"},"E10":{"p":1.739,"d":"2026-03-05"},"SP98":{"p":1.835,"d":"2026-03-05"}}},{"id":22100010,"lat":48.454,"lng":-2.026,"addr":"RUE DU GENERAL DE GAULLE","city":"Lanvallay","cp":"22100","fuels":{"Gazole":{"p":1.839,"d":"2026-03-03"},"SP95":{"p":1.806,"d":"2026-03-03"},"SP98":{"p":1.853,"d":"2026-03-03"}}},{"id":22400011,"lat":48.559,"lng":-2.544,"addr":"11 Rue des Croix Roses","city":"St Alban","cp":"22400","fuels":{"Gazole":{"p":1.974,"d":"2026-03-05"},"E10":{"p":1.814,"d":"2026-03-05"},"SP98":{"p":1.924,"d":"2026-03-05"}}},{"id":22100001,"lat":48.464,"lng":-2.087,"addr":"C CIAL LE CHENE","city":"QUEVERT","cp":"22100","fuels":{"Gazole":{"p":1.999,"d":"2026-03-05"},"SP95":{"p":1.841,"d":"2026-03-05"},"E10":{"p":1.821,"d":"2026-03-05"},"SP98":{"p":1.855,"d":"2026-03-05"}}},{"id":22170005,"lat":48.537405899999996,"lng":-2.9949214,"addr":"34 rue de saint brieuc","city":"Plouagat","cp":"22170","fuels":{"Gazole":{"p":1.929,"d":"2026-03-05"},"SP95":{"p":1.799,"d":"2026-03-05"},"SP98":{"p":1.799,"d":"2026-03-03"}}},{"id":22100009,"lat":48.453,"lng":-2.057,"addr":"52 RUE DE BREST","city":"DINAN","cp":"22100","fuels":{"Gazole":{"p":1.981,"d":"2026-03-05"},"E85":{"p":0.749,"d":"2026-03-05"},"E10":{"p":1.829,"d":"2026-03-05"},"SP98":{"p":1.939,"d":"2026-03-05"}}},{"id":22440001,"lat":48.5,"lng":-2.777,"addr":"SA BRIODIS Centre Commercial du Carpont","city":"Ploufragan","cp":"22440","fuels":{"Gazole":{"p":1.985,"d":"2026-03-05"},"E85":{"p":0.729,"d":"2026-03-05"},"E10":{"p":1.729,"d":"2026-03-05"},"SP98":{"p":1.849,"d":"2026-03-05"}}},{"id":22290001,"lat":48.633,"lng":-2.979,"addr":"35 RUE DES FONTAINES","city":"LANVOLLON","cp":"22290","fuels":{"Gazole":{"p":1.974,"d":"2026-03-04"},"SP95":{"p":1.787,"d":"2026-03-04"},"E10":{"p":1.709,"d":"2026-03-04"},"SP98":{"p":1.823,"d":"2026-03-04"}}},{"id":22170004,"lat":48.525,"lng":-2.889,"addr":"RN12 - LA MARE MELEE","city":"PLERNEUF","cp":"22170","fuels":{"Gazole":{"p":1.882,"d":"2026-03-05"},"GPLc":{"p":0.926,"d":"2026-03-05"},"E10":{"p":1.733,"d":"2026-03-05"},"SP98":{"p":1.845,"d":"2026-03-05"}}},{"id":22220003,"lat":48.7793,"lng":-3.24469,"addr":"ZA DE KERFOLIC","city":"Minihy-Tréguier","cp":"22220","fuels":{"Gazole":{"p":1.798,"d":"2026-03-03"},"E10":{"p":1.735,"d":"2026-03-03"},"SP98":{"p":1.788,"d":"2026-03-03"}}},{"id":22520001,"lat":48.61177,"lng":-2.83098,"addr":"CC LES PRES CALANS","city":"BINIC","cp":"22520","fuels":{"Gazole":{"p":1.936,"d":"2026-03-05"},"E85":{"p":0.749,"d":"2026-03-04"},"GPLc":{"p":0.939,"d":"2025-12-17"},"E10":{"p":1.729,"d":"2026-03-05"},"SP98":{"p":1.769,"d":"2026-03-04"}}},{"id":22430001,"lat":48.622,"lng":-2.439,"addr":"LES JEANNETTES","city":"ERQUY","cp":"22430","fuels":{"Gazole":{"p":1.849,"d":"2026-03-05"},"E85":{"p":0.739,"d":"2026-02-14"},"E10":{"p":1.719,"d":"2026-03-05"},"SP98":{"p":1.819,"d":"2026-03-05"}}},{"id":22540002,"lat":48.57,"lng":-3.339,"addr":"Chemin de l'Oratoire","city":"LOUARGAT","cp":"22540","fuels":{"Gazole":{"p":1.999,"d":"2026-03-05"},"E10":{"p":1.799,"d":"2026-03-05"},"SP98":{"p":1.899,"d":"2026-03-03"}}},{"id":22000010,"lat":48.50836,"lng":-2.76785,"addr":"44, BOULEVARD CHARNER","city":"Saint-Brieuc","cp":"22000","fuels":{"Gazole":{"p":1.981,"d":"2026-03-05"},"E85":{"p":0.765,"d":"2026-03-05"},"E10":{"p":1.819,"d":"2026-03-05"},"SP98":{"p":1.929,"d":"2026-03-05"}}},{"id":22000011,"lat":48.49806,"lng":-2.74533,"addr":"RUE GUILLAUME APOLLINAIRE","city":"Saint-Brieuc","cp":"22000","fuels":{"E85":{"p":0.751,"d":"2026-03-05"},"GPLc":{"p":0.934,"d":"2026-03-05"},"E10":{"p":1.729,"d":"2026-03-05"}}},{"id":22480001,"lat":48.3066976252,"lng":-3.16397737542,"addr":"CROAS DOM HERRY","city":"SAINT-NICOLAS-DU-PéLEM","cp":"22480","fuels":{"Gazole":{"p":1.939,"d":"2026-03-05"},"SP95":{"p":1.799,"d":"2026-03-05"},"SP98":{"p":1.839,"d":"2026-03-05"}}},{"id":22300007,"lat":48.745,"lng":-3.477,"addr":"RUE JEAN PAUL SARTRE","city":"LANNION","cp":"22300","fuels":{"Gazole":{"p":1.869,"d":"2026-03-04"},"E10":{"p":1.699,"d":"2026-03-04"},"SP98":{"p":1.809,"d":"2026-03-04"}}},{"id":22300006,"lat":48.714,"lng":-3.454,"addr":"Rue Paul SalaunParc Activités Izellan","city":"PLOUBEZRE","cp":"22300","fuels":{"Gazole":{"p":1.979,"d":"2026-03-05"},"E85":{"p":0.754,"d":"2026-01-24"},"E10":{"p":1.719,"d":"2026-03-05"}}},{"id":22110003,"lat":48.23682,"lng":-3.31209,"addr":"LE CAP VERT","city":"Rostrenen","cp":"22110","fuels":{"Gazole":{"p":1.919,"d":"2026-03-05"},"GPLc":{"p":0.939,"d":"2026-02-23"},"E10":{"p":1.739,"d":"2026-03-05"},"SP98":{"p":1.839,"d":"2026-03-05"}}},{"id":22000002,"lat":48.522,"lng":-2.732,"addr":"3 Rue Champlain","city":"SAINT-BRIEUC","cp":"22000","fuels":{"Gazole":{"p":1.853,"d":"2026-03-04"},"SP95":{"p":1.809,"d":"2026-03-04"},"E10":{"p":1.729,"d":"2026-03-04"},"SP98":{"p":1.845,"d":"2026-03-04"}}},{"id":22150005,"lat":48.35079047,"lng":-2.76064927,"addr":"35 RUE DE MONTIFAULT","city":"Pl&#339;uc-L'Hermitage","cp":"22150","fuels":{"Gazole":{"p":1.87,"d":"2026-03-05"},"E10":{"p":1.759,"d":"2026-03-05"},"SP98":{"p":1.865,"d":"2026-03-05"}}},{"id":22650002,"lat":48.58,"lng":-2.136,"addr":"Route de Plancoet","city":"Ploubalay","cp":"22650","fuels":{"Gazole":{"p":1.85,"d":"2026-03-05"},"SP95":{"p":1.82,"d":"2026-03-05"},"SP98":{"p":1.86,"d":"2026-03-05"}}},{"id":22950003,"lat":48.49104,"lng":-2.76346,"addr":"Rue Jean Monnet","city":"TRéGUEUX","cp":"22950","fuels":{"Gazole":{"p":1.98,"d":"2026-03-05"},"SP95":{"p":1.845,"d":"2026-03-05"},"E10":{"p":1.75,"d":"2026-03-05"}}},{"id":22830001,"lat":48.299,"lng":-2.003,"addr":"Rue Bertrand Duguesclin","city":"Plouasne","cp":"22830","fuels":{"Gazole":{"p":2.055,"d":"2026-03-04"},"SP95":{"p":1.908,"d":"2026-03-04"}}},{"id":22490001,"lat":48.5322674691,"lng":-2.00716761564,"addr":"Z.A Les Landes","city":"PLOUëR-SUR-RANCE","cp":"22490","fuels":{"Gazole":{"p":1.915,"d":"2026-03-05"},"SP95":{"p":1.809,"d":"2026-03-05"},"E85":{"p":0.729,"d":"2026-02-11"},"SP98":{"p":1.829,"d":"2026-03-05"}}},{"id":22350004,"lat":48.291,"lng":-2.152,"addr":"Rue du 19 Mars 1962","city":"CAULNES","cp":"22350","fuels":{"Gazole":{"p":1.839,"d":"2026-03-05"},"E10":{"p":1.699,"d":"2026-03-05"},"SP98":{"p":1.805,"d":"2026-03-05"}}},{"id":22570001,"lat":48.227,"lng":-3.176,"addr":"7 rue du Blavet","city":"Laniscat","cp":"22570","fuels":{"Gazole":{"p":1.969,"d":"2026-03-04"},"E10":{"p":1.864,"d":"2026-03-04"},"SP98":{"p":1.944,"d":"2026-03-04"}}},{"id":22980002,"lat":48.432,"lng":-2.217,"addr":"8 Rue des Rouairies","city":"Plélan-le-Petit","cp":"22980","fuels":{"Gazole":{"p":1.949,"d":"2026-03-05"},"E85":{"p":0.728,"d":"2026-02-20"},"E10":{"p":1.759,"d":"2026-03-05"},"SP98":{"p":1.859,"d":"2026-03-05"}}},{"id":22940002,"lat":48.415,"lng":-2.822,"addr":"849 Rue de la Ville Gourelle","city":"Plaintel","cp":"22940","fuels":{"Gazole":{"p":1.87,"d":"2026-03-04"},"E85":{"p":0.758,"d":"2026-03-04"},"E10":{"p":1.723,"d":"2026-03-04"},"SP98":{"p":1.835,"d":"2026-03-04"}}},{"id":22400010,"lat":48.53188139814301,"lng":-2.5777083107307996,"addr":"708 rue du Verger","city":"Lamballe Amor Planguenoual","cp":"22400","fuels":{"Gazole":{"p":1.67,"d":"2026-02-20"},"E10":{"p":1.668,"d":"2026-02-20"},"SP98":{"p":1.772,"d":"2026-02-20"}}},{"id":22400007,"lat":48.477,"lng":-2.586,"addr":"BEL AIR - RN 12","city":"COETMIEUX","cp":"22400","fuels":{"Gazole":{"p":1.878,"d":"2026-03-05"},"E10":{"p":1.724,"d":"2026-03-05"}}},{"id":22710001,"lat":48.80248,"lng":-3.30911,"addr":"31 Rue de Lannion","city":"Penvénan","cp":"22710","fuels":{"Gazole":{"p":1.869,"d":"2026-03-04"},"SP95":{"p":1.799,"d":"2026-03-04"},"SP98":{"p":1.859,"d":"2026-03-04"}}},{"id":22630002,"lat":48.376,"lng":-1.975,"addr":"Rue de l'hôpital","city":"Évran","cp":"22630","fuels":{"Gazole":{"p":1.839,"d":"2026-03-04"},"SP95":{"p":1.809,"d":"2026-03-04"}}},{"id":22700001,"lat":48.8,"lng":-3.443,"addr":"34 Rue Ernest Renan","city":"Perros-Guirec","cp":"22700","fuels":{"Gazole":{"p":1.709,"d":"2025-10-29"},"SP95":{"p":1.789,"d":"2025-10-29"},"SP98":{"p":1.843,"d":"2025-10-29"}}},{"id":22200007,"lat":48.551,"lng":-3.158,"addr":"9 route de Sainte-Croix Z I DE GRACES","city":"Guingamp-GRACES","cp":"22200","fuels":{"Gazole":{"p":1.99,"d":"2026-03-05"},"E85":{"p":0.97,"d":"2026-03-02"},"E10":{"p":1.82,"d":"2026-03-02"}}},{"id":22700002,"lat":48.787,"lng":-3.448,"addr":"Rue de l'Église","city":"SAINT-QUAY-PERROS","cp":"22700","fuels":{"Gazole":{"p":1.959,"d":"2026-03-05"},"E10":{"p":1.739,"d":"2026-03-05"},"SP98":{"p":1.839,"d":"2026-03-05"}}},{"id":22300005,"lat":48.721,"lng":-3.482,"addr":"Zone Commerciale BEL AIR / Axe Lannion-Morlaix D786","city":"PLOULEC'H-LANNION","cp":"22300","fuels":{"Gazole":{"p":1.979,"d":"2026-03-05"},"E85":{"p":0.759,"d":"2026-03-05"},"E10":{"p":1.719,"d":"2026-03-05"},"SP98":{"p":1.829,"d":"2026-03-05"}}},{"id":22460005,"lat":48.287,"lng":-2.827,"addr":"Z.A DE BERLOUZE","city":"UZEL","cp":"22460","fuels":{"Gazole":{"p":1.99,"d":"2026-03-03"},"E10":{"p":1.859,"d":"2026-03-04"},"SP98":{"p":1.969,"d":"2026-03-04"}}},{"id":22600006,"lat":48.19337648347,"lng":-2.7574038780979997,"addr":"PARC ACTIVITÉS DE KER D'HERVÉ","city":"Loudéac","cp":"22600","fuels":{"Gazole":{"p":1.94,"d":"2026-03-05"},"SP95":{"p":1.81,"d":"2026-03-05"},"E85":{"p":0.738,"d":"2026-03-05"},"GPLc":{"p":0.959,"d":"2026-03-05"},"E10":{"p":1.69,"d":"2026-03-05"}}},{"id":56270001,"lat":48.644,"lng":-2.837,"addr":"BD des islandais","city":"ÉTABLES-SUR-MER","cp":"22680","fuels":{"Gazole":{"p":1.942,"d":"2026-03-05"},"E85":{"p":0.869,"d":"2026-03-04"},"E10":{"p":1.799,"d":"2026-03-05"},"SP98":{"p":1.829,"d":"2026-03-05"}}},{"id":22600002,"lat":48.166,"lng":-2.751,"addr":"8 Boulevard des Peupliers","city":"LOUDéAC","cp":"22600","fuels":{"Gazole":{"p":1.815,"d":"2026-03-04"},"SP95":{"p":1.842,"d":"2026-03-05"}}},{"id":22310001,"lat":48.657,"lng":-3.633,"addr":"RUE DES CLOS","city":"PLESTIN-LES-GRèVES","cp":"22310","fuels":{"Gazole":{"p":1.855,"d":"2026-03-05"},"E85":{"p":0.698,"d":"2026-02-21"},"E10":{"p":1.689,"d":"2026-03-04"},"SP98":{"p":1.818,"d":"2026-03-05"}}},{"id":22230004,"lat":48.190626729638,"lng":-2.4041850794235,"addr":"2 Pont de L'Hyvet","city":"Merdrignac","cp":"22230","fuels":{"Gazole":{"p":1.959,"d":"2026-03-05"},"E10":{"p":1.792,"d":"2026-03-05"},"SP98":{"p":1.902,"d":"2026-03-05"}}},{"id":22370001,"lat":48.58111,"lng":-2.53447,"addr":"15, rue de Saint Alban","city":"PLéNEUF-VAL-ANDRé","cp":"22370","fuels":{"Gazole":{"p":1.699,"d":"2026-03-04"},"SP95":{"p":1.807,"d":"2026-03-05"},"E85":{"p":0.688,"d":"2026-02-21"},"E10":{"p":1.669,"d":"2026-03-04"}}},{"id":22640001,"lat":48.423,"lng":-2.445,"addr":"13 RUE DES 31 MARTYRS","city":"Plestan","cp":"22640","fuels":{"Gazole":{"p":1.975,"d":"2026-03-04"},"SP95":{"p":1.882,"d":"2026-03-04"}}},{"id":22590001,"lat":48.572,"lng":-2.822,"addr":"ZONE DE KERIBET","city":"Pordic","cp":"22590","fuels":{"Gazole":{"p":1.845,"d":"2026-03-05"},"E85":{"p":0.758,"d":"2026-03-05"},"E10":{"p":1.699,"d":"2026-03-05"},"SP98":{"p":1.799,"d":"2026-03-05"}}},{"id":22300004,"lat":48.73431822,"lng":-3.43779114,"addr":"Route de Tréguier / RD 767Centre commercial Le Lion de Saint-Marc","city":"LANNION","cp":"22300","fuels":{"Gazole":{"p":1.979,"d":"2026-03-05"},"E85":{"p":0.759,"d":"2026-03-04"},"E10":{"p":1.719,"d":"2026-03-05"},"SP98":{"p":1.829,"d":"2026-03-05"}}},{"id":22550001,"lat":48.6,"lng":-2.287,"addr":"Centre commercial des promenades","city":"MATIGNON","cp":"22550","fuels":{"Gazole":{"p":1.835,"d":"2026-03-05"},"E85":{"p":0.699,"d":"2025-12-15"},"E10":{"p":1.719,"d":"2026-03-05"},"SP98":{"p":1.839,"d":"2026-03-05"}}},{"id":22470001,"lat":48.746461270705,"lng":-2.9823067889024997,"addr":"19 Route de Saint Brieuc","city":"Plouézec","cp":"22470","fuels":{"Gazole":{"p":1.969,"d":"2026-03-05"},"E10":{"p":1.729,"d":"2026-03-04"},"SP98":{"p":1.829,"d":"2026-03-05"}}},{"id":22130002,"lat":48.525,"lng":-2.252,"addr":"Z.A. de La Millière II","city":"PLUDUNO","cp":"22130","fuels":{"Gazole":{"p":1.919,"d":"2026-03-05"},"GPLc":{"p":0.96,"d":"2026-01-02"},"E10":{"p":1.689,"d":"2026-03-05"},"SP98":{"p":1.806,"d":"2026-03-05"}}},{"id":22800002,"lat":48.4,"lng":-2.9,"addr":"La Ville Neuve","city":"Saint-Brandan","cp":"22800","fuels":{"Gazole":{"p":1.939,"d":"2026-03-05"},"E10":{"p":1.706,"d":"2026-03-05"},"SP98":{"p":1.797,"d":"2026-03-05"}}},{"id":22250002,"lat":48.324,"lng":-2.251,"addr":"ZA DU CHALET","city":"BROONS","cp":"22250","fuels":{"Gazole":{"p":1.949,"d":"2026-03-05"},"SP95":{"p":1.799,"d":"2026-03-05"},"E85":{"p":0.758,"d":"2026-03-04"},"SP98":{"p":1.849,"d":"2026-03-05"}}},{"id":22160003,"lat":48.407,"lng":-3.434,"addr":"Rue de Kerbuannec","city":"Callac","cp":"22160","fuels":{"Gazole":{"p":1.959,"d":"2026-03-05"},"E85":{"p":0.958,"d":"2026-03-05"},"GPLc":{"p":0.965,"d":"2026-02-21"},"E10":{"p":1.759,"d":"2026-03-05"},"SP98":{"p":1.859,"d":"2026-03-05"}}},{"id":22100004,"lat":48.47751486296401,"lng":-2.0429339388881997,"addr":"Le Pré des Landes","city":"Taden","cp":"22100","fuels":{"Gazole":{"p":1.924,"d":"2026-03-05"},"E85":{"p":0.758,"d":"2026-03-05"},"E10":{"p":1.749,"d":"2026-03-05"},"SP98":{"p":1.829,"d":"2026-03-05"}}},{"id":22400009,"lat":48.481751064981,"lng":-2.4981010304171,"addr":"3 RUE DES PRES JOUETTES - PA LANJOUAN 2","city":"LAMBALLE ARMOR","cp":"22400","fuels":{"Gazole":{"p":1.894,"d":"2026-03-04"},"E85":{"p":0.795,"d":"2026-03-04"},"E10":{"p":1.742,"d":"2026-03-04"},"SP98":{"p":1.839,"d":"2026-03-04"}}},{"id":22420003,"lat":48.609110234686,"lng":-3.4783272057,"addr":"408 RUE DU GENERAL DE GAULLE","city":"PLOUARET","cp":"22420","fuels":{"Gazole":{"p":1.889,"d":"2026-03-04"},"E85":{"p":0.799,"d":"2026-03-04"},"E10":{"p":1.775,"d":"2026-03-04"}}},{"id":22500006,"lat":48.769,"lng":-3.04,"addr":"32 rue Raymond Pelier","city":"Paimpol","cp":"22500","fuels":{"Gazole":{"p":1.914,"d":"2026-03-04"},"E85":{"p":0.909,"d":"2026-03-04"},"E10":{"p":1.793,"d":"2026-03-04"},"SP98":{"p":1.875,"d":"2026-03-04"}}},{"id":22740001,"lat":48.782765999999995,"lng":-3.1231790000000004,"addr":"12 ZA de Kerscavet","city":"Lezardrieux","cp":"22740","fuels":{"Gazole":{"p":1.914,"d":"2026-03-04"}}},{"id":22600004,"lat":48.191,"lng":-2.756,"addr":"73 Boulevard de Penthièvre","city":"LOUDEAC","cp":"22600","fuels":{"Gazole":{"p":1.94,"d":"2026-03-05"},"SP95":{"p":1.81,"d":"2026-03-05"},"E10":{"p":1.69,"d":"2026-03-05"}}},{"id":22302001,"lat":48.719,"lng":-3.416,"addr":"Route de Guingamp","city":"LANNION","cp":"22300","fuels":{"Gazole":{"p":1.885,"d":"2026-03-04"},"E10":{"p":1.714,"d":"2026-03-04"}}},{"id":22400001,"lat":48.4672198707,"lng":-2.5215226986999997,"addr":"20 RUE DU DOCTEUR LAVERGNE","city":"LAMBALLE","cp":"22400","fuels":{"Gazole":{"p":1.869,"d":"2026-03-05"},"SP95":{"p":1.699,"d":"2026-03-05"},"E10":{"p":1.669,"d":"2026-03-05"},"SP98":{"p":1.776,"d":"2026-03-05"}}},{"id":22200003,"lat":48.5625605107,"lng":-3.16559732183,"addr":"rond point kennedy","city":"Guingamp","cp":"22200","fuels":{"Gazole":{"p":1.879,"d":"2026-03-05"},"SP95":{"p":1.768,"d":"2026-03-05"},"GPLc":{"p":0.969,"d":"2026-03-05"},"E10":{"p":1.717,"d":"2026-03-05"},"SP98":{"p":1.795,"d":"2026-03-05"}}},{"id":22290003,"lat":48.61370743769999,"lng":-2.9640298312400004,"addr":"LA LANDE","city":"TRESSIGNAUX","cp":"22290","fuels":{"Gazole":{"p":1.97,"d":"2026-03-04"},"SP95":{"p":1.83,"d":"2026-03-02"},"SP98":{"p":1.88,"d":"2026-03-02"}}},{"id":22150004,"lat":48.281,"lng":-2.702,"addr":"Rue du Trébuchon","city":"Plouguenast","cp":"22150","fuels":{"Gazole":{"p":1.959,"d":"2026-03-05"},"SP95":{"p":1.809,"d":"2026-03-05"},"SP98":{"p":1.839,"d":"2026-03-04"}}},{"id":22140003,"lat":48.641428602430004,"lng":-3.1893220909409,"addr":"1 route de treguier","city":"Landebaëron","cp":"22140","fuels":{"Gazole":{"p":1.653,"d":"2025-06-17"},"SP95":{"p":1.788,"d":"2025-06-17"}}},{"id":22100007,"lat":48.453,"lng":-2.02,"addr":"Rue Charles de Gaulle","city":"LANVALLAY","cp":"22100","fuels":{"Gazole":{"p":1.925,"d":"2026-03-05"},"SP95":{"p":1.825,"d":"2026-03-05"},"SP98":{"p":1.855,"d":"2026-03-05"}}},{"id":22410001,"lat":48.65863007208,"lng":-2.8583947609237,"addr":"Rue Pierre Loti","city":"SAINT-QUAY-PORTRIEUX","cp":"22410","fuels":{"Gazole":{"p":1.829,"d":"2026-03-05"},"E10":{"p":1.729,"d":"2026-03-05"},"SP98":{"p":1.795,"d":"2026-03-05"}}},{"id":22730001,"lat":48.824,"lng":-3.498,"addr":"RUE POUL PALUD","city":"TRéGASTEL","cp":"22730","fuels":{"Gazole":{"p":1.959,"d":"2026-03-05"},"SP95":{"p":1.789,"d":"2026-03-05"},"E85":{"p":0.729,"d":"2026-02-05"},"SP98":{"p":1.822,"d":"2026-03-05"}}},{"id":22360001,"lat":48.496,"lng":-2.728,"addr":"Rue Jules Verne","city":"LANGUEUX","cp":"22360","fuels":{"Gazole":{"p":1.86,"d":"2026-03-04"},"SP95":{"p":1.785,"d":"2026-03-04"},"E85":{"p":0.75,"d":"2026-03-04"},"E10":{"p":1.75,"d":"2026-03-04"},"SP98":{"p":1.86,"d":"2026-03-04"}}},{"id":22120007,"lat":48.5145374,"lng":-2.6666760186126,"addr":"RN 12 LA VILLE CARIO","city":"HILLION","cp":"22120","fuels":{"Gazole":{"p":1.989,"d":"2026-03-05"},"E85":{"p":0.845,"d":"2026-03-05"},"GPLc":{"p":0.999,"d":"2026-03-05"},"E10":{"p":1.949,"d":"2026-03-05"},"SP98":{"p":1.979,"d":"2026-03-05"}}},{"id":22000013,"lat":48.497799787809996,"lng":-2.7453052884397997,"addr":"RUE GUILLAUME APOLLINAIRE. CC CROIX ST LAMBERT","city":"Saint-Brieuc","cp":"22000","fuels":{"Gazole":{"p":1.711,"d":"2026-01-18"},"E10":{"p":1.724,"d":"2026-01-18"}}},{"id":22700004,"lat":48.805195322655,"lng":-3.4597700543750003,"addr":"6 Rue de Kervilzic","city":"Perros-Guirec","cp":"22700","fuels":{"Gazole":{"p":1.959,"d":"2026-03-05"},"E85":{"p":0.759,"d":"2026-03-04"},"E10":{"p":1.739,"d":"2026-03-05"},"SP98":{"p":1.839,"d":"2026-03-05"}}},{"id":22400004,"lat":48.462,"lng":-2.515,"addr":"66 rue Mouëxigné","city":"LAMBALLE ARMOR","cp":"22400","fuels":{"Gazole":{"p":1.877,"d":"2026-03-05"},"GPLc":{"p":0.929,"d":"2026-01-20"},"E10":{"p":1.689,"d":"2026-03-05"},"SP98":{"p":1.806,"d":"2026-03-05"}}},{"id":22290002,"lat":48.705,"lng":-3.022,"addr":"RUE DE L'AVENIR","city":"PLéHéDEL","cp":"22290","fuels":{"Gazole":{"p":1.983,"d":"2026-03-05"},"GPLc":{"p":0.96,"d":"2026-02-28"},"E10":{"p":1.821,"d":"2026-03-05"},"SP98":{"p":1.931,"d":"2026-03-05"}}},{"id":22100011,"lat":48.460706633427,"lng":-2.0151670080546,"addr":"16 route de Normandie","city":"LANVALLAY","cp":"22100","fuels":{"Gazole":{"p":1.929,"d":"2026-03-04"},"E85":{"p":0.919,"d":"2026-03-04"},"GPLc":{"p":0.989,"d":"2026-03-04"},"E10":{"p":1.879,"d":"2026-03-04"},"SP98":{"p":1.929,"d":"2026-03-04"}}},{"id":22110002,"lat":48.242216194891,"lng":-3.296166474018,"addr":"KERLOUIS","city":"Plouguernevel","cp":"22110","fuels":{"Gazole":{"p":1.899,"d":"2026-03-05"},"E10":{"p":1.719,"d":"2026-03-05"},"SP98":{"p":1.829,"d":"2026-03-05"}}}]