[{"id":26400002,"lat":44.726405006,"lng":5.03002404804,"addr":"19 AVENUE ADRIEN FAYOLLE","city":"CREST","cp":"26400","fuels":{"Gazole":{"p":1.949,"d":"2026-03-03"},"GPLc":{"p":0.999,"d":"2026-03-03"},"E10":{"p":1.869,"d":"2026-03-03"},"SP98":{"p":1.969,"d":"2026-03-03"}}},{"id":26290008,"lat":44.436,"lng":4.717,"addr":"280 avenue Jean Moulin RN7","city":"DONZERE","cp":"26290","fuels":{"Gazole":{"p":1.839,"d":"2026-03-03"},"E85":{"p":0.729,"d":"2026-03-03"},"E10":{"p":1.778,"d":"2026-03-03"}}},{"id":26800007,"lat":44.864,"lng":4.866,"addr":"AUTOROUTE A7 - AIRE PORTE LES VALENCE EST","city":"Portes-lès-Valence","cp":"26800","fuels":{"Gazole":{"p":1.99,"d":"2026-03-04"},"E85":{"p":0.969,"d":"2026-03-04"},"GPLc":{"p":0.999,"d":"2026-03-04"},"E10":{"p":1.969,"d":"2026-03-04"},"SP98":{"p":1.99,"d":"2026-03-04"}}},{"id":26140003,"lat":45.274,"lng":4.897,"addr":"LES BUIS","city":"Anneyron","cp":"26140","fuels":{"Gazole":{"p":1.849,"d":"2026-03-03"},"E85":{"p":0.728,"d":"2026-03-02"},"E10":{"p":1.799,"d":"2026-03-03"},"SP98":{"p":1.889,"d":"2026-03-03"}}},{"id":26270009,"lat":44.720160117012,"lng":4.7870171386338,"addr":"AUTOROUTE A7, AIRE DE SAULCE","city":"Saulce-sur-Rhône","cp":"26270","fuels":{"Gazole":{"p":1.81,"d":"2026-03-03"},"E85":{"p":0.859,"d":"2026-03-03"},"GPLc":{"p":1.078,"d":"2026-03-03"},"E10":{"p":1.818,"d":"2026-03-03"},"SP98":{"p":1.927,"d":"2026-03-03"}}},{"id":26200008,"lat":44.55513686,"lng":4.73743342,"addr":"24 avenue John Fitzgerald Kennedy","city":"Montelimar","cp":"26200","fuels":{"Gazole":{"p":1.799,"d":"2026-03-04"},"E10":{"p":1.749,"d":"2026-03-04"},"SP98":{"p":1.819,"d":"2026-03-04"}}},{"id":26240006,"lat":45.1712342,"lng":4.813968,"addr":"INTERVAL - 1 CHEMIN DE LA BRASSIERE","city":"ST VALLIER","cp":"26240","fuels":{"Gazole":{"p":1.77,"d":"2026-03-04"},"E85":{"p":0.728,"d":"2026-03-04"},"E10":{"p":1.707,"d":"2026-03-04"},"SP98":{"p":1.787,"d":"2026-03-04"}}},{"id":26240008,"lat":45.193,"lng":4.815,"addr":"22 AVENUE DE QUEBEC","city":"Saint-Vallier","cp":"26240","fuels":{"Gazole":{"p":1.756,"d":"2026-03-03"},"E10":{"p":1.709,"d":"2026-03-03"},"SP98":{"p":1.775,"d":"2026-02-20"}}},{"id":26400007,"lat":44.7295482446,"lng":5.01713715307,"addr":"60 BD. DU 6 JUIN 1944","city":"CREST","cp":"26400","fuels":{"Gazole":{"p":1.99,"d":"2026-03-04"},"E10":{"p":1.879,"d":"2026-03-04"},"SP98":{"p":1.989,"d":"2026-03-04"}}},{"id":26600013,"lat":45.01933,"lng":4.87541,"addr":"AUTOROUTE A7 - AIRE DU PONT DE L'ISÈRE","city":"Pont-de-l'Isère","cp":"26600","fuels":{"Gazole":{"p":1.99,"d":"2026-03-04"},"E85":{"p":0.989,"d":"2026-03-04"},"GPLc":{"p":0.999,"d":"2026-03-04"},"E10":{"p":1.984,"d":"2026-03-04"},"SP98":{"p":1.99,"d":"2026-03-04"}}},{"id":26100001,"lat":45.046,"lng":5.061,"addr":"56 av gambetta","city":"romans sur isère","cp":"26100","fuels":{"Gazole":{"p":1.887,"d":"2026-03-04"},"SP95":{"p":1.871,"d":"2026-03-04"},"E10":{"p":1.769,"d":"2026-03-04"}}},{"id":26000018,"lat":44.836,"lng":4.969,"addr":"Quartier les Rollands","city":"MONTMEYRAN","cp":"26120","fuels":{"Gazole":{"p":1.899,"d":"2026-03-04"},"E10":{"p":1.899,"d":"2026-03-04"}}},{"id":26300008,"lat":44.976,"lng":5.028,"addr":"1, Av Dauphiné-Provence","city":"ALIXAN","cp":"26300","fuels":{"Gazole":{"p":1.93,"d":"2026-03-02"},"SP95":{"p":1.957,"d":"2026-03-04"}}},{"id":26760001,"lat":44.871,"lng":4.942,"addr":"Route de Valence","city":"Beaumont-lès-Valence","cp":"26760","fuels":{"Gazole":{"p":1.885,"d":"2026-03-04"},"SP95":{"p":1.829,"d":"2026-03-04"},"E85":{"p":0.729,"d":"2026-01-30"},"E10":{"p":1.769,"d":"2026-03-04"}}},{"id":26190001,"lat":45.033,"lng":5.309,"addr":"Route de Saint-Thomas","city":"Saint-Laurent-en-Royans","cp":"26190","fuels":{"Gazole":{"p":1.929,"d":"2026-03-04"},"SP95":{"p":1.995,"d":"2026-03-04"}}},{"id":26300010,"lat":45,"lng":5.089,"addr":"Route du Stade","city":"Chatuzange-le-Goubet","cp":"26300","fuels":{"Gazole":{"p":1.889,"d":"2026-03-04"},"SP95":{"p":1.869,"d":"2026-03-04"},"SP98":{"p":1.899,"d":"2026-03-04"}}},{"id":26000020,"lat":44.908,"lng":4.878,"addr":"QUARTIER DE CHANTECOURIOLAVENUE DE PROVENCE","city":"VALENCE","cp":"26000","fuels":{"Gazole":{"p":1.909,"d":"2026-03-04"},"E85":{"p":0.789,"d":"2026-03-04"},"GPLc":{"p":0.969,"d":"2026-03-04"},"E10":{"p":1.773,"d":"2026-03-04"},"SP98":{"p":1.893,"d":"2026-03-04"}}},{"id":26120005,"lat":44.90184201,"lng":5.010476522,"addr":"1 RUE MARIUS CHATTEAVENUE DE VALENCE","city":"CHABEUIL","cp":"26120","fuels":{"Gazole":{"p":1.705,"d":"2026-03-03"},"E85":{"p":0.728,"d":"2026-02-26"},"E10":{"p":1.701,"d":"2026-03-03"}}},{"id":26300015,"lat":45.034641386323,"lng":5.0535094655499995,"addr":"C/C ALPES DE PROVENCE","city":"Bourg-de-Péage","cp":"26300","fuels":{"Gazole":{"p":1.723,"d":"2026-03-03"},"E10":{"p":1.712,"d":"2026-03-03"},"SP98":{"p":1.823,"d":"2026-03-03"}}},{"id":26540001,"lat":45.069,"lng":5.051,"addr":"26 Avenue Dauphiné-Provence","city":"Mours-Saint-Eusèbe","cp":"26540","fuels":{"Gazole":{"p":1.899,"d":"2026-03-04"},"E10":{"p":1.899,"d":"2026-03-04"},"SP98":{"p":1.999,"d":"2026-03-04"}}},{"id":26140005,"lat":45.277,"lng":4.825,"addr":"Aire de Saint Rambert d'Albon","city":"Saint-Rambert-d'Albon","cp":"26140","fuels":{"Gazole":{"p":1.914,"d":"2026-03-03"},"GPLc":{"p":1.03,"d":"2026-02-16"},"E10":{"p":1.934,"d":"2026-03-03"},"SP98":{"p":1.984,"d":"2026-03-03"}}},{"id":26160001,"lat":44.541,"lng":4.934,"addr":"160 ROUTE D ALEYRAC","city":"La Bégude-de-Mazenc","cp":"26160","fuels":{"Gazole":{"p":1.919,"d":"2026-03-04"},"SP95":{"p":1.879,"d":"2026-03-04"},"SP98":{"p":1.909,"d":"2026-03-04"}}},{"id":26780009,"lat":44.513785999999996,"lng":4.782564,"addr":"AUTOROUTE A7 - AIRE DE MONTELIMAR VL","city":"Allan","cp":"26780","fuels":{"Gazole":{"p":2.292,"d":"2026-03-04"},"GPLc":{"p":1.108,"d":"2026-03-04"},"E10":{"p":2.192,"d":"2026-03-04"},"SP98":{"p":2.342,"d":"2026-03-04"}}},{"id":26130002,"lat":44.345543081149,"lng":4.7544194983918,"addr":"Rond-Point de l'Europe - Chem. de Gonsard","city":"Saint-Paul-Trois-Châteaux","cp":"26130","fuels":{"Gazole":{"p":1.859,"d":"2026-03-04"},"SP95":{"p":1.779,"d":"2026-03-04"},"E85":{"p":0.729,"d":"2026-02-24"},"E10":{"p":1.769,"d":"2026-03-04"}}},{"id":26380001,"lat":45.0858155334,"lng":5.047767045880001,"addr":"QUARTIER LES ESCOFFERS","city":"PEYRINS","cp":"26380","fuels":{"Gazole":{"p":1.859,"d":"2026-03-03"},"SP95":{"p":1.899,"d":"2026-03-03"},"SP98":{"p":1.929,"d":"2026-03-03"}}},{"id":26140006,"lat":45.242656951727,"lng":4.8206648537537005,"addr":"N7","city":"Albon","cp":"26140","fuels":{"Gazole":{"p":2.019,"d":"2026-03-04"},"E85":{"p":0.785,"d":"2026-03-04"},"E10":{"p":1.789,"d":"2026-03-04"}}},{"id":26300012,"lat":45,"lng":5.001,"addr":"60 RUE DES MARGUERITES","city":"ALIXAN","cp":"26300","fuels":{"Gazole":{"p":1.904,"d":"2026-03-04"},"E85":{"p":0.793,"d":"2026-03-04"},"E10":{"p":1.783,"d":"2026-03-04"},"SP98":{"p":1.894,"d":"2026-03-04"}}},{"id":26600002,"lat":45.072,"lng":4.834,"addr":"PLACE DU MARCHE AUX FRUITS","city":"Tain-l'Hermitage","cp":"26600","fuels":{"Gazole":{"p":1.774,"d":"2026-02-27"},"SP95":{"p":1.843,"d":"2026-02-27"}}},{"id":26000015,"lat":44.923712463147,"lng":4.9172712115033,"addr":"BD FRANKLIN ROOSEVELT","city":"VALENCE","cp":"26000","fuels":{"Gazole":{"p":1.906,"d":"2026-03-04"},"E85":{"p":0.759,"d":"2026-03-04"},"E10":{"p":1.789,"d":"2026-03-04"},"SP98":{"p":1.893,"d":"2026-03-04"}}},{"id":26800002,"lat":44.86708107,"lng":4.86473757,"addr":"A7 AIRE DE PORTES LES VALENCE","city":"PORTES-LES-VALENCE","cp":"26800","fuels":{"Gazole":{"p":2.019,"d":"2026-03-04"},"E85":{"p":0.999,"d":"2026-03-04"},"GPLc":{"p":1.095,"d":"2026-03-04"},"E10":{"p":1.989,"d":"2026-03-04"},"SP98":{"p":2.089,"d":"2026-03-04"}}},{"id":26400009,"lat":44.734345977585,"lng":4.925049866101,"addr":"2 montée du beffroi","city":"grane","cp":"26400","fuels":{"Gazole":{"p":1.83,"d":"2026-03-04"},"E85":{"p":0.74,"d":"2026-02-27"},"E10":{"p":1.705,"d":"2026-02-27"},"SP98":{"p":1.829,"d":"2026-02-27"}}},{"id":26290009,"lat":44.429,"lng":4.712,"addr":"RN-7","city":"DONZERE","cp":"26290","fuels":{"Gazole":{"p":1.895,"d":"2026-03-04"},"E85":{"p":0.754,"d":"2026-03-04"},"E10":{"p":1.799,"d":"2026-03-04"},"SP98":{"p":1.899,"d":"2026-03-04"}}},{"id":26110004,"lat":44.36,"lng":5.127,"addr":"31 Avenue de Venterol","city":"NYONS","cp":"26110","fuels":{"Gazole":{"p":1.859,"d":"2026-03-04"},"E85":{"p":0.729,"d":"2026-03-04"},"E10":{"p":1.789,"d":"2026-03-04"},"SP98":{"p":1.889,"d":"2026-03-04"}}},{"id":26110003,"lat":44.36,"lng":5.134,"addr":"Route d' Orange","city":"NYONS","cp":"26110","fuels":{"Gazole":{"p":1.859,"d":"2026-03-04"},"E85":{"p":0.729,"d":"2026-03-04"},"E10":{"p":1.789,"d":"2026-03-04"},"SP98":{"p":1.889,"d":"2026-03-04"}}},{"id":26503001,"lat":44.959,"lng":4.883,"addr":"Les Chabanneries","city":"Bourg-lès-Valence","cp":"26500","fuels":{"Gazole":{"p":1.83,"d":"2026-03-04"},"SP95":{"p":1.728,"d":"2026-03-04"},"GPLc":{"p":1.028,"d":"2026-03-04"},"E10":{"p":1.726,"d":"2026-03-04"},"SP98":{"p":1.788,"d":"2026-03-04"}}},{"id":26100002,"lat":45.043,"lng":5.029,"addr":"Route de Tain","city":"ROMANS-SUR-ISèRE","cp":"26100","fuels":{"Gazole":{"p":1.888,"d":"2026-03-04"},"SP95":{"p":1.872,"d":"2026-03-04"},"E85":{"p":0.748,"d":"2026-02-23"},"E10":{"p":1.761,"d":"2026-03-04"},"SP98":{"p":1.893,"d":"2026-03-04"}}},{"id":26260001,"lat":45.119,"lng":4.972,"addr":"Route de Valence","city":"SAINT-DONAT-SUR-L'HERBASSE","cp":"26260","fuels":{"Gazole":{"p":1.899,"d":"2026-03-04"},"E85":{"p":0.762,"d":"2026-03-03"},"E10":{"p":1.779,"d":"2026-03-03"},"SP98":{"p":1.885,"d":"2026-03-03"}}},{"id":26740005,"lat":44.548,"lng":4.807,"addr":"20 ROUTE DE MONTELIMAR","city":"Montboucher-sur-Jabron","cp":"26740","fuels":{"Gazole":{"p":1.898,"d":"2026-03-04"},"E10":{"p":1.939,"d":"2026-03-04"},"SP98":{"p":1.998,"d":"2026-03-04"}}},{"id":26270004,"lat":44.759,"lng":4.835,"addr":"Parc des Crozes","city":"LORIOL-SUR-DRôME","cp":"26270","fuels":{"Gazole":{"p":1.839,"d":"2026-03-04"},"SP95":{"p":1.839,"d":"2026-03-04"},"E85":{"p":0.728,"d":"2026-03-04"},"GPLc":{"p":0.999,"d":"2026-03-04"},"E10":{"p":1.759,"d":"2026-03-04"},"SP98":{"p":1.839,"d":"2026-03-04"}}},{"id":26270007,"lat":44.72,"lng":4.806,"addr":"1287 RN 7 - LES BLACHES","city":"Cliousclat","cp":"26270","fuels":{"Gazole":{"p":1.894,"d":"2026-03-04"},"E85":{"p":0.789,"d":"2026-02-19"},"E10":{"p":1.769,"d":"2026-03-04"},"SP98":{"p":1.865,"d":"2026-03-04"}}},{"id":26200004,"lat":44.567,"lng":4.759,"addr":"Avenue des Catalins","city":"MONTéLIMAR","cp":"26200","fuels":{"Gazole":{"p":1.895,"d":"2026-03-04"},"SP95":{"p":1.815,"d":"2026-03-04"},"E85":{"p":0.738,"d":"2026-03-04"},"SP98":{"p":1.829,"d":"2026-03-04"}}},{"id":26200001,"lat":44.550293935106,"lng":4.7750784205627,"addr":"Route de Dieulefit","city":"MONTéLIMAR","cp":"26200","fuels":{"Gazole":{"p":1.919,"d":"2026-03-04"},"SP95":{"p":1.815,"d":"2026-03-04"},"E85":{"p":0.738,"d":"2026-03-03"},"E10":{"p":1.785,"d":"2026-03-04"}}},{"id":26230002,"lat":44.42,"lng":4.934,"addr":"900 ROUTE DE MONTELIMAR","city":"GRIGNAN","cp":"26230","fuels":{"Gazole":{"p":1.784,"d":"2026-03-04"},"E85":{"p":0.728,"d":"2026-03-04"},"E10":{"p":1.749,"d":"2026-03-04"},"SP98":{"p":1.864,"d":"2026-03-04"}}},{"id":26400005,"lat":44.738,"lng":4.99,"addr":"Lieu-dit La Plaine","city":"Crest","cp":"26400","fuels":{"Gazole":{"p":1.704,"d":"2026-02-27"},"SP95":{"p":1.824,"d":"2026-02-27"}}},{"id":26000019,"lat":44.927,"lng":4.916,"addr":"300 AVENUE DE CHABEUIL","city":"Valence","cp":"26000","fuels":{"Gazole":{"p":1.899,"d":"2026-03-04"},"E85":{"p":0.799,"d":"2026-03-04"},"E10":{"p":1.879,"d":"2026-03-04"},"SP98":{"p":1.899,"d":"2026-03-04"}}},{"id":26800005,"lat":44.85,"lng":4.87,"addr":"Les Basseaux","city":"ÉTOILE-SUR-RHôNE","cp":"26800","fuels":{"Gazole":{"p":1.834,"d":"2026-03-04"},"E85":{"p":0.759,"d":"2026-03-04"},"E10":{"p":1.739,"d":"2026-03-04"},"SP98":{"p":1.834,"d":"2026-03-04"}}},{"id":26510002,"lat":44.37894577708501,"lng":5.4260145606024,"addr":"85 route d'orpierre","city":"verclause","cp":"26510","fuels":{"Gazole":{"p":1.769,"d":"2026-03-03"},"E85":{"p":0.749,"d":"2026-03-03"},"E10":{"p":1.728,"d":"2026-03-03"},"SP98":{"p":1.839,"d":"2026-03-03"}}},{"id":26730001,"lat":45.056,"lng":5.192,"addr":"4030 Les Fauries - RN 532","city":"Eymeux","cp":"26730","fuels":{"Gazole":{"p":1.784,"d":"2026-02-23"},"E10":{"p":1.784,"d":"2026-02-23"},"SP98":{"p":1.905,"d":"2026-02-23"}}},{"id":26600003,"lat":45.068,"lng":4.845,"addr":"20 Avenue du Président Roosevelt","city":"Tain-l'Hermitage","cp":"26600","fuels":{"Gazole":{"p":1.919,"d":"2026-03-03"},"SP95":{"p":2.009,"d":"2026-03-03"},"SP98":{"p":2.039,"d":"2026-03-03"}}},{"id":26450002,"lat":44.6263539,"lng":4.9677336,"addr":"ZA Route de Cléon d'Andran","city":"Puy-Saint-Martin","cp":"26450","fuels":{"Gazole":{"p":1.871,"d":"2026-03-03"},"E10":{"p":1.887,"d":"2026-03-03"},"SP98":{"p":1.899,"d":"2026-03-03"}}},{"id":26100008,"lat":45.049,"lng":5.075,"addr":"56 AV DU MAQUIS","city":"Romans-sur-Isère","cp":"26100","fuels":{"Gazole":{"p":1.919,"d":"2026-03-03"},"E85":{"p":0.998,"d":"2026-03-03"},"GPLc":{"p":1.029,"d":"2026-02-27"},"E10":{"p":1.969,"d":"2026-03-03"},"SP98":{"p":2.029,"d":"2026-03-03"}}},{"id":26240004,"lat":45.191,"lng":4.814,"addr":"16 AVENUE DU QUEBEC","city":"SAINT-VALLIER","cp":"26240","fuels":{"Gazole":{"p":1.899,"d":"2026-03-04"},"E85":{"p":0.749,"d":"2026-03-02"},"E10":{"p":1.859,"d":"2026-03-03"},"SP98":{"p":1.899,"d":"2026-03-03"}}},{"id":26200007,"lat":44.563,"lng":4.747,"addr":"25 RUE PAUL LOUBET","city":"MONTELIMAR","cp":"26200","fuels":{"Gazole":{"p":1.699,"d":"2026-02-23"},"E85":{"p":0.728,"d":"2026-02-23"},"E10":{"p":1.719,"d":"2026-02-23"},"SP98":{"p":1.829,"d":"2026-02-23"}}},{"id":26000008,"lat":44.927,"lng":4.915,"addr":"295 Avenue de Chabeuil","city":"Valence","cp":"26000","fuels":{"Gazole":{"p":1.91,"d":"2026-03-04"},"E10":{"p":1.788,"d":"2026-03-04"},"SP98":{"p":1.898,"d":"2026-03-04"}}},{"id":26200003,"lat":44.544,"lng":4.747,"addr":"RTE DE MARSEILLE","city":"Montélimar","cp":"26200","fuels":{"Gazole":{"p":1.899,"d":"2026-03-04"},"E10":{"p":1.769,"d":"2026-03-04"},"SP98":{"p":1.885,"d":"2026-03-04"}}},{"id":26000007,"lat":44.91,"lng":4.884,"addr":"396 Avenue Victor Hugo","city":"Valence","cp":"26000","fuels":{"Gazole":{"p":1.918,"d":"2026-03-04"},"E10":{"p":1.782,"d":"2026-03-04"},"SP98":{"p":1.902,"d":"2026-03-04"}}},{"id":26290003,"lat":44.42,"lng":4.712,"addr":"RN 7 - LES PEYRAUDS","city":"Donzère","cp":"26290","fuels":{"Gazole":{"p":1.885,"d":"2026-03-04"},"E10":{"p":1.808,"d":"2026-03-04"},"SP98":{"p":1.908,"d":"2026-03-04"}}},{"id":26300005,"lat":44.999,"lng":5.001,"addr":"ROUTE NATIONALE 532","city":"Alixan","cp":"26300","fuels":{"Gazole":{"p":1.891,"d":"2026-03-04"},"E85":{"p":0.855,"d":"2026-03-04"},"E10":{"p":1.788,"d":"2026-03-04"},"SP98":{"p":1.898,"d":"2026-03-04"}}},{"id":26730005,"lat":45.072,"lng":5.211,"addr":"Autoroute A49 - Aire Royans VercorsSens Valence - Grenoble","city":"LA BAUME D'HOSTUN","cp":"26730","fuels":{"Gazole":{"p":1.99,"d":"2026-03-03"},"GPLc":{"p":0.999,"d":"2026-03-03"},"E10":{"p":1.99,"d":"2026-03-03"},"SP98":{"p":2.1,"d":"2026-03-03"}}},{"id":26730006,"lat":45.076,"lng":5.211,"addr":"Autoroute A49 - Aire Porte de la DromeSens Grenoble - Valence","city":"LA BAUME D'HOSTUN","cp":"26730","fuels":{"Gazole":{"p":2,"d":"2026-03-03"},"E85":{"p":0.999,"d":"2026-03-03"},"E10":{"p":2,"d":"2026-03-03"},"SP98":{"p":2.11,"d":"2026-03-03"}}},{"id":26300011,"lat":45.03474,"lng":5.05271,"addr":"BLD DES ALPES DE PROVENCE","city":"Bourg-de-Péage","cp":"26300","fuels":{"Gazole":{"p":1.99,"d":"2026-03-04"},"GPLc":{"p":0.936,"d":"2026-03-04"},"E10":{"p":1.879,"d":"2026-03-04"},"SP98":{"p":1.989,"d":"2026-03-04"}}},{"id":26800008,"lat":44.878727999999995,"lng":4.878184,"addr":"15 AVE JEAN JAURES","city":"Portes-lès-valence","cp":"26800","fuels":{"Gazole":{"p":1.929,"d":"2026-03-03"},"E10":{"p":1.869,"d":"2026-03-03"},"SP98":{"p":1.969,"d":"2026-03-03"}}},{"id":26340000,"lat":44.692,"lng":5.19,"addr":"Lieu-dit La Tuilière","city":"Saillans","cp":"26340","fuels":{"Gazole":{"p":1.734,"d":"2026-02-27"},"SP95":{"p":1.844,"d":"2026-02-27"}}},{"id":26140002,"lat":45.275,"lng":4.829,"addr":"AUTOROUTE A7 AIRE DE SAINT RAMBERT DALBON","city":"Saint-Rambert-d'Albon","cp":"26140","fuels":{"Gazole":{"p":2.079,"d":"2026-03-03"},"GPLc":{"p":1.119,"d":"2026-03-03"},"E10":{"p":2.029,"d":"2026-03-03"},"SP98":{"p":2.149,"d":"2026-03-03"}}},{"id":26400004,"lat":44.723,"lng":5.037,"addr":"QUARTIER MIVOIE","city":"Aouste-sur-Sye","cp":"26400","fuels":{"Gazole":{"p":1.839,"d":"2026-03-04"},"SP95":{"p":1.819,"d":"2026-03-04"},"E85":{"p":0.754,"d":"2026-01-08"},"E10":{"p":1.749,"d":"2026-03-04"}}},{"id":26790006,"lat":44.290362632079,"lng":4.8520507813237,"addr":"87, Route De Bouchet","city":"Suze La Rousse","cp":"26790","fuels":{"Gazole":{"p":1.959,"d":"2026-03-04"},"SP95":{"p":1.979,"d":"2026-03-04"}}},{"id":26500004,"lat":44.959697445901,"lng":4.9069256592276,"addr":"PLACE DE L'ALLET","city":"Bourg-lès-Valence","cp":"26500","fuels":{"Gazole":{"p":1.784,"d":"2026-03-03"},"E10":{"p":1.731,"d":"2026-03-03"},"SP98":{"p":1.825,"d":"2026-03-03"}}},{"id":26390001,"lat":45.256,"lng":5.026,"addr":"6 route de Romans","city":"Hauterives","cp":"26390","fuels":{"Gazole":{"p":1.772,"d":"2026-03-03"},"E10":{"p":1.744,"d":"2026-03-03"},"SP98":{"p":1.859,"d":"2026-03-03"}}},{"id":26450003,"lat":44.611153997653,"lng":4.9367917471658,"addr":"690, Avenue Resistance de la Déportation","city":"Cleon D'Andran","cp":"26450","fuels":{"Gazole":{"p":1.959,"d":"2026-03-04"},"SP95":{"p":1.979,"d":"2026-03-04"}}},{"id":26500002,"lat":44.968,"lng":4.886,"addr":"LES JONQUETTES","city":"Bourg-lès-Valence","cp":"26500","fuels":{"Gazole":{"p":1.899,"d":"2026-03-04"},"E10":{"p":1.799,"d":"2026-03-04"},"SP98":{"p":1.899,"d":"2026-03-04"}}},{"id":26780006,"lat":44.489259760693,"lng":4.719861286003,"addr":"45 RUE DE LA SOURCE","city":"Châteauneuf-du-Rhône","cp":"26780","fuels":{"Gazole":{"p":1.899,"d":"2026-03-04"},"E10":{"p":1.779,"d":"2026-03-04"},"SP98":{"p":1.859,"d":"2026-03-04"}}},{"id":26210001,"lat":45.29073441572199,"lng":4.9531349732032,"addr":"265 avenue des pins","city":"Saint-Sorlin-en-Valloire","cp":"26210","fuels":{"Gazole":{"p":1.849,"d":"2026-03-03"},"E10":{"p":1.779,"d":"2026-03-03"}}},{"id":26740006,"lat":44.608315546374,"lng":4.8605173992222,"addr":"1075, Route de Crest","city":"La Laupie","cp":"26740","fuels":{"Gazole":{"p":1.959,"d":"2026-03-04"},"SP95":{"p":1.979,"d":"2026-03-04"}}},{"id":26620001,"lat":44.667,"lng":5.697,"addr":"655 ROUTE DE SISTERON RD 1075","city":"LUS-LA-CROIX-HAUTE","cp":"26620","fuels":{"Gazole":{"p":1.827,"d":"2026-03-02"},"GPLc":{"p":1.037,"d":"2026-03-02"},"E10":{"p":1.927,"d":"2026-03-02"},"SP98":{"p":1.997,"d":"2026-03-02"}}},{"id":26790005,"lat":44.28,"lng":4.922,"addr":"ZONE INTERMARCHE - ROUTE D ORANGE - LE PEYRON","city":"Tulette","cp":"26790","fuels":{"Gazole":{"p":1.849,"d":"2026-03-04"},"SP95":{"p":1.799,"d":"2026-03-04"},"E10":{"p":1.759,"d":"2026-03-04"},"SP98":{"p":1.869,"d":"2026-03-04"}}},{"id":26600011,"lat":45.020146848083,"lng":4.876368447721,"addr":"Autoroute A7","city":"Pont-de-l'Isère","cp":"26600","fuels":{"Gazole":{"p":2.019,"d":"2026-03-04"},"GPLc":{"p":1.095,"d":"2026-02-18"},"E10":{"p":1.969,"d":"2026-03-04"},"SP98":{"p":2.069,"d":"2026-03-04"}}},{"id":26208001,"lat":44.532,"lng":4.748,"addr":"Route de Marseille","city":"MONTéLIMAR","cp":"26200","fuels":{"Gazole":{"p":1.895,"d":"2026-03-04"},"E10":{"p":1.769,"d":"2026-03-04"},"SP98":{"p":1.829,"d":"2026-03-04"}}},{"id":26790003,"lat":44.287,"lng":4.943,"addr":"rte de nyons","city":"Tulette","cp":"26790","fuels":{"Gazole":{"p":1.723,"d":"2026-02-26"},"SP95":{"p":1.809,"d":"2026-02-26"},"SP98":{"p":1.852,"d":"2026-02-26"}}},{"id":26320002,"lat":44.964,"lng":4.946,"addr":"41 RUE DU VIVARAIS","city":"Saint-Marcel-lès-Valence","cp":"26320","fuels":{"Gazole":{"p":1.899,"d":"2026-03-04"},"E85":{"p":0.749,"d":"2026-03-02"},"E10":{"p":1.859,"d":"2026-03-03"}}},{"id":26170003,"lat":44.274,"lng":5.271,"addr":"avenue boissy d'anglas","city":"Buis-les-Baronnies","cp":"26170","fuels":{"Gazole":{"p":1.896,"d":"2026-03-04"},"E85":{"p":0.729,"d":"2026-01-31"},"E10":{"p":1.769,"d":"2026-03-04"},"SP98":{"p":1.878,"d":"2026-03-04"}}},{"id":26000016,"lat":44.94034,"lng":4.91049,"addr":"BOULEVARD GUSTAVE ANDRE","city":"VALENCE","cp":"26000","fuels":{"Gazole":{"p":1.901,"d":"2026-03-04"},"E85":{"p":0.759,"d":"2026-03-04"},"GPLc":{"p":0.979,"d":"2026-03-04"},"E10":{"p":1.779,"d":"2026-03-04"},"SP98":{"p":1.889,"d":"2026-03-04"}}},{"id":26190002,"lat":45.025,"lng":5.287,"addr":"Zone d'activité de la roue est","city":"Saint-Jean-en-Royans","cp":"26190","fuels":{"Gazole":{"p":1.869,"d":"2026-03-04"},"SP95":{"p":1.819,"d":"2026-03-04"},"E85":{"p":0.754,"d":"2026-01-02"},"SP98":{"p":1.849,"d":"2026-03-04"}}},{"id":26310000,"lat":44.59145,"lng":5.45003,"addr":"Lieu-dit Les Grangiers","city":"Luc-en-Diois","cp":"26310","fuels":{"Gazole":{"p":1.734,"d":"2026-02-27"},"SP95":{"p":1.844,"d":"2026-02-27"}}},{"id":26750001,"lat":45.057,"lng":5.099,"addr":"95 RUE CLAIR","city":"Saint-Paul-lès-Romans","cp":"26750","fuels":{"Gazole":{"p":1.887,"d":"2026-03-04"},"SP95":{"p":1.871,"d":"2026-03-04"},"E85":{"p":0.748,"d":"2026-02-21"},"GPLc":{"p":0.939,"d":"2026-02-21"},"E10":{"p":1.76,"d":"2026-03-04"},"SP98":{"p":1.892,"d":"2026-03-04"}}},{"id":26700001,"lat":44.37701,"lng":4.70128,"addr":"CC LA CROIX D'OR","city":"PIERRELATTE","cp":"26700","fuels":{"Gazole":{"p":1.859,"d":"2026-03-04"},"E85":{"p":0.729,"d":"2026-03-02"},"E10":{"p":1.789,"d":"2026-03-04"},"SP98":{"p":1.899,"d":"2026-03-04"}}},{"id":26240002,"lat":45.195,"lng":4.814,"addr":"31 avenue de quebec","city":"Saint-Vallier","cp":"26240","fuels":{"Gazole":{"p":1.99,"d":"2026-03-04"},"E85":{"p":0.779,"d":"2026-03-04"},"E10":{"p":1.852,"d":"2026-03-04"},"SP98":{"p":1.962,"d":"2026-03-04"}}},{"id":26220001,"lat":44.521,"lng":5.056,"addr":"181 Route de Montélimar","city":"Dieulefit","cp":"26220","fuels":{"Gazole":{"p":1.859,"d":"2026-03-03"},"SP95":{"p":1.869,"d":"2026-03-03"},"SP98":{"p":1.899,"d":"2026-03-03"}}},{"id":26150002,"lat":44.748,"lng":5.381,"addr":"135 route de gap","city":"Die","cp":"26150","fuels":{"Gazole":{"p":1.794,"d":"2026-03-03"},"SP95":{"p":1.904,"d":"2026-03-03"},"SP98":{"p":1.924,"d":"2026-03-03"}}},{"id":26000013,"lat":44.912,"lng":4.914,"addr":"362 rue Faventines","city":"VALENCE","cp":"26000","fuels":{"Gazole":{"p":1.898,"d":"2026-03-04"},"E85":{"p":0.729,"d":"2026-01-29"},"GPLc":{"p":1.049,"d":"2025-12-12"},"E10":{"p":1.769,"d":"2026-03-04"},"SP98":{"p":1.861,"d":"2026-03-04"}}},{"id":26400010,"lat":44.738147023824,"lng":5.0045973767269,"addr":"Zac de la Condamine - Rue Commandant Hélie Denoix de St Marc","city":"Crest","cp":"26400","fuels":{"Gazole":{"p":1.843,"d":"2026-03-04"},"E85":{"p":0.754,"d":"2026-01-06"},"E10":{"p":1.754,"d":"2026-03-04"},"SP98":{"p":1.854,"d":"2026-03-04"}}},{"id":26260002,"lat":45.12,"lng":4.985,"addr":"Avenue du Général de Gaulle","city":"SAINT-DONAT-SUR-L'HERBASSE","cp":"26260","fuels":{"Gazole":{"p":1.855,"d":"2026-03-03"},"E10":{"p":1.779,"d":"2026-03-03"},"SP98":{"p":1.885,"d":"2026-03-03"}}},{"id":26600007,"lat":45.068632052999995,"lng":4.86562184044,"addr":"route de Romans","city":"TAIN-L'HERMITAGE","cp":"26600","fuels":{"Gazole":{"p":1.775,"d":"2026-03-04"},"E85":{"p":0.728,"d":"2026-02-26"},"E10":{"p":1.73,"d":"2026-03-04"},"SP98":{"p":1.815,"d":"2026-03-04"}}},{"id":26250001,"lat":44.777,"lng":4.847,"addr":"113 AVENUE LEON AUBIN","city":"Livron-sur-Drôme","cp":"26250","fuels":{"Gazole":{"p":1.899,"d":"2026-03-04"},"E10":{"p":1.899,"d":"2026-03-04"},"SP98":{"p":1.949,"d":"2026-03-04"}}},{"id":26120004,"lat":44.929,"lng":5.022,"addr":"Les Champs","city":"Montélier","cp":"26120","fuels":{"Gazole":{"p":1.898,"d":"2026-03-04"},"SP95":{"p":1.854,"d":"2026-03-04"},"E85":{"p":0.758,"d":"2026-03-04"},"E10":{"p":1.769,"d":"2026-03-04"},"SP98":{"p":1.884,"d":"2026-03-04"}}},{"id":26600015,"lat":45.068,"lng":4.848,"addr":"49 AVENUE DU PRESIDENT ROOSEVELT","city":"Tain-l'Hermitage","cp":"26600","fuels":{"Gazole":{"p":1.779,"d":"2026-03-04"},"E85":{"p":0.728,"d":"2026-02-06"},"E10":{"p":1.735,"d":"2026-03-04"},"SP98":{"p":1.825,"d":"2026-03-04"}}},{"id":26250003,"lat":44.802,"lng":4.854,"addr":"2745 Route Nationale 7","city":"Livron-sur-Drôme","cp":"26250","fuels":{"Gazole":{"p":1.669,"d":"2025-11-27"},"E10":{"p":1.749,"d":"2025-12-02"},"SP98":{"p":1.839,"d":"2025-12-02"}}},{"id":26300016,"lat":45.035687372843995,"lng":5.080530996007,"addr":"8 rue Marcel Battelier  Pizancon","city":"Chatuzange-le-Goubet","cp":"26300","fuels":{"Gazole":{"p":1.899,"d":"2026-03-04"},"SP95":{"p":1.879,"d":"2026-03-04"},"E85":{"p":0.749,"d":"2026-03-04"},"E10":{"p":1.759,"d":"2026-03-04"},"SP98":{"p":1.899,"d":"2026-03-04"}}},{"id":26200009,"lat":44.575,"lng":4.744,"addr":"ZA Avenue du Meyrol","city":"Montélimar","cp":"26200","fuels":{"Gazole":{"p":1.929,"d":"2026-03-03"},"E10":{"p":1.979,"d":"2026-03-03"},"SP98":{"p":2.039,"d":"2026-03-03"}}},{"id":26100009,"lat":45.044243035506,"lng":5.0312536164688,"addr":"Avenue Louis Saillant - D532","city":"ROMANS SUR ISERE","cp":"26100","fuels":{"Gazole":{"p":1.869,"d":"2026-03-03"},"SP95":{"p":1.909,"d":"2026-03-03"},"E85":{"p":0.998,"d":"2026-03-03"},"E10":{"p":1.879,"d":"2026-03-03"}}},{"id":26270006,"lat":44.706,"lng":4.8,"addr":"AVENUE DU DAUPHINE","city":"Saulce-sur-Rhône","cp":"26270","fuels":{"Gazole":{"p":1.834,"d":"2026-03-04"},"SP95":{"p":1.839,"d":"2026-03-04"},"E85":{"p":0.728,"d":"2026-03-04"},"E10":{"p":1.754,"d":"2026-03-04"}}},{"id":26120001,"lat":44.902,"lng":5.008,"addr":"ZONE DES GOUVERNAUX","city":"CHABEUIL","cp":"26120","fuels":{"Gazole":{"p":1.904,"d":"2026-03-04"},"E85":{"p":0.755,"d":"2026-03-04"},"E10":{"p":1.769,"d":"2026-03-04"},"SP98":{"p":1.889,"d":"2026-03-04"}}},{"id":26300013,"lat":45.007,"lng":4.928,"addr":"rond point du gymnase - quartier les peches","city":"Châteauneuf-sur-Isère","cp":"26300","fuels":{"Gazole":{"p":1.748,"d":"2026-03-04"},"E85":{"p":0.775,"d":"2026-01-20"},"E10":{"p":1.75,"d":"2026-03-02"},"SP98":{"p":1.86,"d":"2026-02-23"}}},{"id":26700002,"lat":44.403905,"lng":4.689508,"addr":"21 route de St Paul","city":"PIERRELATTE","cp":"26700","fuels":{"Gazole":{"p":1.707,"d":"2026-03-03"},"E85":{"p":0.759,"d":"2026-03-03"},"E10":{"p":1.662,"d":"2026-03-03"},"SP98":{"p":1.766,"d":"2026-03-03"}}},{"id":26780007,"lat":44.519182196207,"lng":4.7453022156893,"addr":"RN 7","city":"Châteauneuf-du-Rhône","cp":"26780","fuels":{"Gazole":{"p":1.899,"d":"2026-03-04"},"E85":{"p":0.759,"d":"2026-03-04"},"GPLc":{"p":0.935,"d":"2026-03-04"},"E10":{"p":1.769,"d":"2026-03-04"},"SP98":{"p":1.885,"d":"2026-03-04"}}},{"id":26740003,"lat":44.667,"lng":4.793,"addr":"RN 7","city":"LES TOURRETTES","cp":"26740","fuels":{"Gazole":{"p":1.99,"d":"2026-03-04"},"E10":{"p":1.859,"d":"2026-03-04"},"SP98":{"p":1.969,"d":"2026-03-04"}}},{"id":26000005,"lat":44.907,"lng":4.886,"addr":"114 Avenue de la Libération","city":"VALENCE","cp":"26000","fuels":{"Gazole":{"p":1.99,"d":"2026-03-04"},"SP95":{"p":1.923,"d":"2026-03-04"}}},{"id":26800009,"lat":44.875,"lng":4.879,"addr":"PLACE DU 8 MAI 1945","city":"PORTES LES VALENCES","cp":"26800","fuels":{"Gazole":{"p":1.755,"d":"2026-03-04"},"E85":{"p":0.728,"d":"2026-02-26"},"E10":{"p":1.715,"d":"2026-03-04"}}},{"id":26140004,"lat":45.287,"lng":4.815,"addr":"ZA LA TULANDIERE 26 route de la Maison Blanche","city":"Saint-Rambert-d'Albon","cp":"26140","fuels":{"Gazole":{"p":1.771,"d":"2026-03-04"},"E85":{"p":0.728,"d":"2026-03-04"},"E10":{"p":1.715,"d":"2026-03-04"},"SP98":{"p":1.838,"d":"2026-03-04"}}},{"id":26300003,"lat":45.037,"lng":5.07,"addr":"1005 AV. CHARLES DE GAULLE","city":"Chatuzange-le-Goubet","cp":"26300","fuels":{"Gazole":{"p":1.99,"d":"2026-03-04"},"E10":{"p":1.879,"d":"2026-03-04"},"SP98":{"p":1.989,"d":"2026-03-04"}}},{"id":26600014,"lat":45.008,"lng":4.87,"addr":"RN7","city":"Pont-de-l'Isère","cp":"26600","fuels":{"Gazole":{"p":1.896,"d":"2026-03-04"},"E85":{"p":0.769,"d":"2026-03-04"},"E10":{"p":1.762,"d":"2026-03-04"},"SP98":{"p":1.885,"d":"2026-03-04"}}},{"id":26170002,"lat":44.271,"lng":5.267,"addr":"245 AVENUE DU GENERAL DE GAULLE","city":"BUIS-LES-BARONNIES","cp":"26170","fuels":{"Gazole":{"p":1.799,"d":"2026-03-04"},"E10":{"p":1.769,"d":"2026-03-04"},"SP98":{"p":1.859,"d":"2026-03-04"}}},{"id":26000014,"lat":44.919,"lng":4.878,"addr":"162 AVENUE DE PROVENCE","city":"VALENCE","cp":"26000","fuels":{"Gazole":{"p":1.909,"d":"2026-03-04"},"E85":{"p":0.789,"d":"2026-03-04"},"GPLc":{"p":0.969,"d":"2026-03-04"},"E10":{"p":1.773,"d":"2026-03-04"},"SP98":{"p":1.893,"d":"2026-03-04"}}},{"id":26780008,"lat":44.516,"lng":4.78,"addr":"A 7 - AIRE DE MONTELIMAR OUEST","city":"ALLAN","cp":"26780","fuels":{"Gazole":{"p":2.292,"d":"2026-03-04"},"GPLc":{"p":1.108,"d":"2026-03-04"},"E10":{"p":2.192,"d":"2026-03-04"},"SP98":{"p":2.342,"d":"2026-03-04"}}},{"id":26150001,"lat":44.76076,"lng":5.35682,"addr":"Route de la résistance Conches et Chamarges","city":"Die","cp":"26150","fuels":{"Gazole":{"p":1.731,"d":"2026-03-04"},"SP95":{"p":1.811,"d":"2026-03-04"},"E85":{"p":0.729,"d":"2026-01-20"},"E10":{"p":1.731,"d":"2026-03-04"},"SP98":{"p":1.821,"d":"2026-03-04"}}},{"id":26740004,"lat":44.548,"lng":4.802,"addr":"410 ROUTE DE MONTELIMAR","city":"MONTBOUCHER SUR JABRON","cp":"26740","fuels":{"Gazole":{"p":1.899,"d":"2026-03-04"},"E85":{"p":0.749,"d":"2026-02-26"},"E10":{"p":1.899,"d":"2026-03-04"},"SP98":{"p":1.999,"d":"2026-03-04"}}}]