[{"id":30100013,"lat":44.138,"lng":4.104,"addr":"ZI AV. DE CROUPILLAC","city":"ALES","cp":"30100","fuels":{"Gazole":{"p":1.875,"d":"2026-03-05"},"E85":{"p":0.766,"d":"2026-03-05"}},"brand":"TotalEnergies"},{"id":30160002,"lat":44.287,"lng":4.11,"addr":"Sauvegarde","city":"BESSEGES","cp":"30160","fuels":{"Gazole":{"p":1.758,"d":"2026-02-25"},"SP95":{"p":1.812,"d":"2026-02-25"},"SP98":{"p":1.848,"d":"2026-02-25"}}},{"id":30000016,"lat":43.816,"lng":4.37,"addr":"120 Chemin du Mas Fléchier","city":"NîMES","cp":"30900","fuels":{"Gazole":{"p":1.925,"d":"2026-03-05"},"SP95":{"p":1.799,"d":"2026-03-05"},"E10":{"p":1.759,"d":"2026-03-05"}},"brand":"Leclerc"},{"id":30420002,"lat":43.7831211,"lng":4.2036004,"addr":"2, rue du Levant","city":"Calvisson","cp":"30420","fuels":{"Gazole":{"p":1.89,"d":"2026-03-05"},"E10":{"p":1.769,"d":"2026-03-05"},"SP98":{"p":1.819,"d":"2026-03-05"}},"brand":"Système U"},{"id":30500003,"lat":44.255,"lng":4.203,"addr":"Route d'Uzès","city":"Saint-Ambroix","cp":"30500","fuels":{"Gazole":{"p":1.99,"d":"2026-03-05"},"E85":{"p":0.728,"d":"2026-02-27"},"E10":{"p":1.815,"d":"2026-03-05"},"SP98":{"p":2.02,"d":"2026-03-05"}},"brand":"Intermarché"},{"id":30300008,"lat":43.812,"lng":4.63,"addr":"36 AVENUE DE FARCIENNES","city":"BEAUCAIRE","cp":"30300","fuels":{"Gazole":{"p":1.746,"d":"2025-12-05"},"SP95":{"p":1.87,"d":"2025-05-23"}},"brand":"Esso"},{"id":30300006,"lat":43.691,"lng":4.605,"addr":"RN 113","city":"FOURQUES","cp":"30300","fuels":{"Gazole":{"p":1.99,"d":"2026-03-04"},"E10":{"p":1.851,"d":"2026-03-05"},"SP98":{"p":1.961,"d":"2026-03-05"}},"brand":"TotalEnergies"},{"id":30100012,"lat":44.14,"lng":4.091,"addr":"198 Avenue des Frères Lumière","city":"Alès","cp":"30100","fuels":{"Gazole":{"p":1.878,"d":"2026-03-04"},"E10":{"p":1.738,"d":"2026-03-04"},"SP98":{"p":1.858,"d":"2026-03-04"}},"brand":"Groupement des Mousquetaires"},{"id":30300005,"lat":43.789,"lng":4.645,"addr":"ZI DOMITIA SUD Avenue jean Monnet","city":"Beaucaire","cp":"30300","fuels":{"Gazole":{"p":1.929,"d":"2026-03-05"},"E85":{"p":0.849,"d":"2026-03-05"},"E10":{"p":1.849,"d":"2026-03-05"}},"brand":"Eni"},{"id":30140002,"lat":44.05184,"lng":3.98507,"addr":"24 Avenue du Pasteur Rollin","city":"Anduze","cp":"30140","fuels":{"Gazole":{"p":1.929,"d":"2026-03-05"},"SP98":{"p":1.908,"d":"2026-03-05"}},"brand":"Avia"},{"id":30900017,"lat":43.81,"lng":4.329,"addr":"2705 RTE DE MONTPELLIER","city":"NIMES","cp":"30900","fuels":{"Gazole":{"p":1.879,"d":"2026-03-05"},"E85":{"p":0.749,"d":"2026-03-05"},"GPLc":{"p":0.939,"d":"2026-03-05"},"E10":{"p":1.726,"d":"2026-03-05"},"SP98":{"p":1.849,"d":"2026-03-05"}},"brand":"TotalEnergies"},{"id":30700006,"lat":44.011,"lng":4.408,"addr":"AVENUE DE LA GARE","city":"UZES","cp":"30700","fuels":{"Gazole":{"p":1.799,"d":"2026-03-04"},"E10":{"p":1.759,"d":"2026-03-04"},"SP98":{"p":1.849,"d":"2026-03-04"}},"brand":"Dyneff"},{"id":30380002,"lat":44.073,"lng":4.081,"addr":"1296 AVENUE JEAN MOULIN","city":"Saint-Christol-lez-Alès","cp":"30380","fuels":{"Gazole":{"p":1.979,"d":"2026-03-05"},"E85":{"p":0.799,"d":"2026-03-02"},"E10":{"p":1.779,"d":"2026-03-05"}}},{"id":30980002,"lat":43.808186038803,"lng":4.2322961056652,"addr":"LIEU DIT CAMPASTIER - ROUTE DE SOMMIERES - RD 40","city":"SAINT DIONISY","cp":"30980","fuels":{"Gazole":{"p":1.678,"d":"2026-02-26"},"E10":{"p":1.689,"d":"2026-02-26"}},"brand":"Netto"},{"id":30750001,"lat":44.13128,"lng":3.38283,"addr":"Le Gardiol","city":"LANUéJOLS","cp":"30750","fuels":{"Gazole":{"p":1.71,"d":"2026-03-04"},"E10":{"p":1.74,"d":"2026-03-04"}},"brand":"Dyneff"},{"id":30150002,"lat":44.045,"lng":4.787,"addr":"ROUTE D'AVIGNON","city":"ROQUEMAURE","cp":"30150","fuels":{"Gazole":{"p":1.999,"d":"2026-03-03"},"E85":{"p":0.999,"d":"2026-02-12"},"E10":{"p":1.949,"d":"2026-03-03"},"SP98":{"p":1.999,"d":"2026-03-03"}},"brand":"Intermarché"},{"id":30320007,"lat":43.868,"lng":4.422,"addr":"Autoroute A9 - AIRE DE NIMES MARGUERITTES SUD","city":"MARGUERITTES","cp":"30320","fuels":{"Gazole":{"p":2.019,"d":"2026-03-05"},"GPLc":{"p":1.095,"d":"2026-03-05"},"E10":{"p":2.019,"d":"2026-03-05"},"SP98":{"p":2.119,"d":"2026-03-05"}},"brand":"Avia"},{"id":30130004,"lat":44.255,"lng":4.646,"addr":"Avenue Gaston Doumergue","city":"Pont-Saint-Esprit","cp":"30130","fuels":{"Gazole":{"p":1.999,"d":"2026-03-05"},"SP95":{"p":1.889,"d":"2026-03-05"},"E85":{"p":0.759,"d":"2026-03-05"},"SP98":{"p":1.899,"d":"2026-03-05"}},"brand":"Intermarché"},{"id":30300010,"lat":43.482,"lng":-1.543,"addr":"16, AVENUE DE FARCIENNES","city":"BEAUCAIRE","cp":"30300","fuels":{"Gazole":{"p":1.889,"d":"2026-03-05"},"E85":{"p":0.769,"d":"2026-03-05"},"E10":{"p":1.771,"d":"2026-03-05"},"SP98":{"p":1.871,"d":"2026-03-05"}},"brand":"TotalEnergies"},{"id":30210008,"lat":43.94,"lng":4.6,"addr":"Route nationale 100","city":"Fournès","cp":"30210","fuels":{"Gazole":{"p":1.959,"d":"2026-03-02"},"E10":{"p":1.979,"d":"2026-03-02"},"SP98":{"p":2.04,"d":"2026-03-02"}}},{"id":30000020,"lat":43.841,"lng":4.372,"addr":"89 RUE PIERRE SEMARD","city":"NIMES","cp":"30000","fuels":{"Gazole":{"p":1.999,"d":"2026-03-05"},"E85":{"p":0.999,"d":"2026-03-05"},"E10":{"p":1.959,"d":"2026-03-05"},"SP98":{"p":2.129,"d":"2026-03-05"}},"brand":"BP"},{"id":30310001,"lat":43.742,"lng":4.221,"addr":"Route de Codognan","city":"VERGEZE","cp":"30310","fuels":{"Gazole":{"p":1.965,"d":"2026-03-05"},"SP95":{"p":1.809,"d":"2026-03-04"},"E85":{"p":0.729,"d":"2026-03-03"},"E10":{"p":1.879,"d":"2026-03-05"},"SP98":{"p":1.869,"d":"2026-03-05"}},"brand":"Système U"},{"id":30140003,"lat":44.065,"lng":3.971,"addr":"1600 Route de Saint-Jean-du-Gard","city":"ANDUZE","cp":"30140","fuels":{"Gazole":{"p":1.959,"d":"2026-03-05"},"SP95":{"p":1.869,"d":"2026-03-05"},"E10":{"p":1.799,"d":"2026-03-05"}},"brand":"Intermarché"},{"id":30300003,"lat":43.817,"lng":4.616,"addr":"Route de Nimes","city":"BEAUCAIRE","cp":"30300","fuels":{"Gazole":{"p":1.947,"d":"2026-03-05"},"E85":{"p":0.769,"d":"2026-02-25"},"E10":{"p":1.771,"d":"2026-03-05"},"SP98":{"p":1.871,"d":"2026-03-05"}},"brand":"Carrefour"},{"id":30230002,"lat":43.800404,"lng":4.4186247,"addr":"55 route de nimes","city":"Bouillargues","cp":"30230","fuels":{"Gazole":{"p":1.875,"d":"2026-03-04"},"SP95":{"p":1.827,"d":"2026-03-04"},"E10":{"p":1.787,"d":"2026-03-04"}},"brand":"Carrefour"},{"id":30800002,"lat":43.677,"lng":4.432,"addr":"ROUTE D'ARLES","city":"Saint-Gilles","cp":"30800","fuels":{"Gazole":{"p":1.859,"d":"2026-03-04"},"E85":{"p":0.758,"d":"2026-03-04"},"E10":{"p":1.749,"d":"2026-03-04"},"SP98":{"p":1.829,"d":"2026-03-03"}},"brand":"Intermarché"},{"id":30220002,"lat":43.574,"lng":4.196,"addr":"1121 Route de Nîmes","city":"AIGUES-MORTES","cp":"30220","fuels":{"Gazole":{"p":1.899,"d":"2026-03-05"},"E85":{"p":0.759,"d":"2026-03-04"},"GPLc":{"p":0.979,"d":"2026-01-23"},"E10":{"p":1.772,"d":"2026-03-05"},"SP98":{"p":1.874,"d":"2026-03-05"}},"brand":"Intermarché"},{"id":30000010,"lat":43.847489529364,"lng":4.3465058716558005,"addr":"78 route d'Alès","city":"NîMES","cp":"30000","fuels":{"Gazole":{"p":1.839,"d":"2026-03-04"},"SP95":{"p":1.825,"d":"2026-03-04"},"SP98":{"p":1.85,"d":"2026-03-04"}},"brand":"Campus"},{"id":30900021,"lat":43.826,"lng":4.353,"addr":"40 AV MARECHAL JUIN","city":"NIMES","cp":"30900","fuels":{"Gazole":{"p":1.999,"d":"2026-03-05"},"E85":{"p":0.999,"d":"2026-03-05"},"E10":{"p":1.959,"d":"2026-03-05"},"SP98":{"p":2.129,"d":"2026-03-05"}},"brand":"Esso"},{"id":30340006,"lat":44.1,"lng":4.138,"addr":"RTE D'UZES","city":"MEJANNES LES ALES","cp":"30340","fuels":{"Gazole":{"p":1.97,"d":"2026-03-04"},"E85":{"p":0.9,"d":"2026-03-04"},"GPLc":{"p":0.99,"d":"2026-03-04"},"E10":{"p":1.89,"d":"2026-03-04"}}},{"id":30220001,"lat":43.577,"lng":4.199,"addr":"940, route de Nîmes","city":"AIGUES-MORTES","cp":"30220","fuels":{"Gazole":{"p":1.899,"d":"2026-03-05"},"SP95":{"p":1.829,"d":"2026-03-04"},"E10":{"p":1.772,"d":"2026-03-05"},"SP98":{"p":1.874,"d":"2026-03-05"}},"brand":"Système U"},{"id":30190003,"lat":43.92419,"lng":4.2639,"addr":"Avenue Charles de Gaulle","city":"LA CALMETTE","cp":"30190","fuels":{"Gazole":{"p":1.959,"d":"2026-03-05"},"E85":{"p":0.792,"d":"2026-03-05"},"E10":{"p":1.799,"d":"2026-03-05"},"SP98":{"p":1.899,"d":"2026-03-05"}},"brand":"Casino"},{"id":30700001,"lat":43.99,"lng":4.429,"addr":"PONT DES CHARETTES","city":"UZèS","cp":"30700","fuels":{"Gazole":{"p":1.951,"d":"2026-03-05"},"SP95":{"p":1.84,"d":"2026-03-05"},"E10":{"p":1.799,"d":"2026-03-05"},"SP98":{"p":1.919,"d":"2026-03-05"}},"brand":"Carrefour"},{"id":30600004,"lat":43.689586008599996,"lng":4.2732579259363,"addr":"206 avenue de la condamine","city":"vauvert","cp":"30600","fuels":{"Gazole":{"p":1.89,"d":"2026-03-05"},"SP95":{"p":1.849,"d":"2026-03-04"},"E85":{"p":0.748,"d":"2026-02-11"},"E10":{"p":1.799,"d":"2026-03-05"},"SP98":{"p":1.909,"d":"2026-03-05"}},"brand":"Carrefour"},{"id":30250002,"lat":43.79,"lng":4.122,"addr":"Le Grand Jardin","city":"AUJARGUES","cp":"30250","fuels":{"Gazole":{"p":1.899,"d":"2026-03-05"},"E85":{"p":0.759,"d":"2026-03-05"},"E10":{"p":1.789,"d":"2026-03-05"}},"brand":"Intermarché"},{"id":30100019,"lat":44.132283602066,"lng":4.07407374177,"addr":"541 Quai de Bilina","city":"ALES","cp":"30100","fuels":{"Gazole":{"p":1.878,"d":"2026-03-04"},"E85":{"p":0.728,"d":"2026-02-21"},"E10":{"p":1.738,"d":"2026-03-04"},"SP98":{"p":1.858,"d":"2026-03-04"}},"brand":"Netto"},{"id":30000021,"lat":43.851,"lng":4.401,"addr":"314 route d'Avignon","city":"Nimes","cp":"30000","fuels":{"Gazole":{"p":1.982,"d":"2026-03-04"},"E85":{"p":0.779,"d":"2026-03-04"},"GPLc":{"p":0.949,"d":"2026-03-04"},"E10":{"p":1.826,"d":"2026-03-04"},"SP98":{"p":1.936,"d":"2026-03-04"}},"brand":"TotalEnergies"},{"id":30129002,"lat":43.821,"lng":4.469,"addr":"DE LA REPUBLIQUE","city":"Manduel","cp":"30129","fuels":{"Gazole":{"p":1.899,"d":"2026-03-04"},"SP95":{"p":1.849,"d":"2026-03-04"},"SP98":{"p":1.899,"d":"2026-03-04"}},"brand":"Intermarché"},{"id":30250003,"lat":43.791,"lng":4.091,"addr":"Lotissement de la Tuilerie","city":"Villevieille","cp":"30250","fuels":{"Gazole":{"p":1.711,"d":"2026-02-27"},"SP95":{"p":1.754,"d":"2026-02-27"},"E85":{"p":0.729,"d":"2026-02-27"},"SP98":{"p":1.826,"d":"2026-02-27"}},"brand":"Carrefour"},{"id":30400004,"lat":43.958,"lng":4.779,"addr":"128, Avenue Général Leclerc","city":"Villeneuve-lès-Avignon","cp":"30400","fuels":{"Gazole":{"p":1.998,"d":"2026-03-04"},"E10":{"p":1.869,"d":"2026-03-04"},"SP98":{"p":1.989,"d":"2026-03-04"}},"brand":"Agip"},{"id":30127001,"lat":43.7572408919,"lng":4.51195169942,"addr":"4 avenue des arenes","city":"BELLEGARDE","cp":"30127","fuels":{"Gazole":{"p":1.715,"d":"2026-03-02"},"SP95":{"p":1.763,"d":"2026-03-02"},"SP98":{"p":1.836,"d":"2026-03-02"}},"brand":"Carrefour"},{"id":30160001,"lat":44.29233,"lng":4.0934,"addr":"Rue du Docteur Paul Vermale","city":"BESSEGES","cp":"30160","fuels":{"Gazole":{"p":1.749,"d":"2026-02-27"},"SP95":{"p":1.809,"d":"2026-02-25"},"SP98":{"p":1.839,"d":"2026-02-27"}},"brand":"Carrefour"},{"id":30620001,"lat":43.767,"lng":4.282,"addr":"Chemin de Calvisson","city":"Bernis","cp":"30620","fuels":{"Gazole":{"p":1.869,"d":"2026-03-05"},"E10":{"p":1.799,"d":"2026-03-05"},"SP98":{"p":1.899,"d":"2026-03-05"}}},{"id":30350002,"lat":43.985,"lng":4.106,"addr":"153 Route de Montpellier","city":"LEDIGNAN","cp":"30350","fuels":{"Gazole":{"p":1.99,"d":"2026-03-03"},"E85":{"p":0.789,"d":"2026-02-02"},"E10":{"p":1.841,"d":"2026-03-04"},"SP98":{"p":1.951,"d":"2026-03-04"}},"brand":"Gonzalez Jean Marc SARL"},{"id":30330003,"lat":44.076,"lng":4.586,"addr":"RD 310","city":"Gaujac","cp":"30330","fuels":{"Gazole":{"p":1.825,"d":"2026-03-05"},"E10":{"p":1.769,"d":"2026-03-05"},"SP98":{"p":1.895,"d":"2026-03-05"}},"brand":"Intermarché"},{"id":30320008,"lat":43.883624031929,"lng":4.4921964622743005,"addr":"185 ROUTE D'AVIGNON","city":"BEZOUCE","cp":"30320","fuels":{"Gazole":{"p":1.939,"d":"2026-03-04"},"SP95":{"p":1.969,"d":"2026-03-04"},"SP98":{"p":1.999,"d":"2026-03-04"}},"brand":"TotalEnergies"},{"id":30100014,"lat":44.121,"lng":4.087,"addr":"44 AV CARNOT","city":"ALES","cp":"30100","fuels":{"Gazole":{"p":1.979,"d":"2026-03-04"},"E10":{"p":1.834,"d":"2026-03-04"},"SP98":{"p":1.944,"d":"2026-03-04"}},"brand":"TotalEnergies"},{"id":30760001,"lat":44.293968,"lng":4.567869,"addr":"75 chemin dechetterie","city":"st julien de peyrolas","cp":"30760","fuels":{"Gazole":{"p":2.005,"d":"2026-03-05"},"E85":{"p":0.759,"d":"2026-03-05"},"E10":{"p":1.799,"d":"2026-03-05"},"SP98":{"p":1.869,"d":"2026-03-05"}}},{"id":30330001,"lat":44.157,"lng":4.623,"addr":"AVENUE DE LA MAYRE","city":"BAGNOLS-SUR-CèZE","cp":"30200","fuels":{"Gazole":{"p":1.777,"d":"2026-03-04"},"E85":{"p":0.729,"d":"2026-02-28"},"E10":{"p":1.769,"d":"2026-03-04"},"SP98":{"p":1.845,"d":"2026-03-04"}},"brand":"Carrefour"},{"id":30200004,"lat":44.155,"lng":4.612,"addr":"Route de Tresques","city":"BAGNOLS-SUR-CèZE","cp":"30200","fuels":{"Gazole":{"p":1.999,"d":"2026-03-05"},"E85":{"p":0.729,"d":"2026-02-27"},"E10":{"p":1.814,"d":"2026-03-05"},"SP98":{"p":1.885,"d":"2026-03-05"}},"brand":"Groupement des Mousquetaires"},{"id":30290002,"lat":44.062,"lng":4.639,"addr":"chemin des lonnes, route des vignerons","city":"saint-victor-la-coste","cp":"30290","fuels":{"Gazole":{"p":1.899,"d":"2026-03-04"},"E85":{"p":0.729,"d":"2026-02-07"},"E10":{"p":1.769,"d":"2026-03-03"},"SP98":{"p":1.845,"d":"2026-03-03"}}},{"id":30110003,"lat":44.211,"lng":4.032,"addr":"1 Rue des Tuileries","city":"LA GRAND-COMBE","cp":"30110","fuels":{"Gazole":{"p":1.879,"d":"2026-03-04"},"E85":{"p":0.759,"d":"2026-03-04"},"E10":{"p":1.755,"d":"2026-03-04"},"SP98":{"p":1.865,"d":"2026-03-04"}},"brand":"Intermarché"},{"id":30540001,"lat":43.786,"lng":4.304,"addr":"37 Rue de l'Aubepin","city":"MILHAUD","cp":"30540","fuels":{"Gazole":{"p":1.869,"d":"2026-03-05"},"E85":{"p":0.759,"d":"2026-03-05"},"E10":{"p":1.799,"d":"2026-03-05"},"SP98":{"p":1.899,"d":"2026-03-05"}},"brand":"Intermarché"},{"id":30900002,"lat":43.81719,"lng":4.34044,"addr":"405 Chemin Bas de Montpellier","city":"NîMES","cp":"30900","fuels":{"Gazole":{"p":1.985,"d":"2026-03-05"},"GPLc":{"p":0.938,"d":"2026-03-05"},"E10":{"p":1.805,"d":"2026-03-05"}},"brand":"Carrefour"},{"id":30360001,"lat":44.219,"lng":4.484,"addr":"ROUTE DE BARJAC","city":"Cornillon","cp":"30630","fuels":{"Gazole":{"p":1.975,"d":"2026-03-05"},"SP95":{"p":1.879,"d":"2026-03-05"}},"brand":"Intermarché"},{"id":30400005,"lat":43.958,"lng":4.778,"addr":"97 AVENUE GÉNÉRAL LECLERC","city":"Villeneuve-lès-Avignon","cp":"30400","fuels":{"Gazole":{"p":1.905,"d":"2026-03-05"},"E85":{"p":0.759,"d":"2026-03-05"},"E10":{"p":1.754,"d":"2026-03-05"},"SP98":{"p":1.873,"d":"2026-03-05"}},"brand":"TotalEnergies"},{"id":30800001,"lat":43.665,"lng":4.401,"addr":"1 Rue de Cambon","city":"SAINT-GILLES","cp":"30800","fuels":{"Gazole":{"p":1.859,"d":"2026-03-04"},"SP95":{"p":1.819,"d":"2026-03-04"},"E85":{"p":0.758,"d":"2026-03-04"},"GPLc":{"p":0.939,"d":"2026-03-04"},"E10":{"p":1.749,"d":"2026-03-04"}},"brand":"Intermarché"},{"id":30200003,"lat":44.172,"lng":4.62,"addr":"22 Avenue F Mitterrand","city":"BAGNOLS-SUR-CEZE","cp":"30200","fuels":{"Gazole":{"p":1.99,"d":"2026-03-04"},"E10":{"p":1.889,"d":"2026-03-04"},"SP98":{"p":1.99,"d":"2026-03-04"}},"brand":"TotalEnergies"},{"id":30190002,"lat":43.976087047953,"lng":4.2034940976462005,"addr":"RN106","city":"Brignon","cp":"30190","fuels":{"Gazole":{"p":1.99,"d":"2026-03-04"},"SP95":{"p":1.999,"d":"2026-02-26"},"E10":{"p":1.989,"d":"2026-03-04"}},"brand":"Berbon Sarl"},{"id":30430003,"lat":44.305971513512006,"lng":4.3426764305023,"addr":"80 rue Pierre Andre Benoit, quartier la Reboulasse","city":"BARJAC","cp":"30430","fuels":{"Gazole":{"p":1.889,"d":"2026-03-05"},"SP95":{"p":1.929,"d":"2026-03-05"},"E85":{"p":0.788,"d":"2026-03-05"}}},{"id":30133001,"lat":43.96,"lng":4.75,"addr":"1 Avenue de Tavel","city":"Les Angles","cp":"30133","fuels":{"Gazole":{"p":1.995,"d":"2026-03-05"},"E10":{"p":1.816,"d":"2026-03-05"}},"brand":"Leclerc"},{"id":30700007,"lat":44.009,"lng":4.419,"addr":"6/8 AVENUE MARECHAL FOCH","city":"UZES","cp":"30700","fuels":{"Gazole":{"p":1.886,"d":"2026-03-05"},"E85":{"p":0.754,"d":"2026-03-05"},"E10":{"p":1.746,"d":"2026-03-05"},"SP98":{"p":1.865,"d":"2026-03-05"}},"brand":"TotalEnergies"},{"id":30126008,"lat":43.99899198079999,"lng":4.6990798723954,"addr":"AIRE DE TAVEL SUD","city":"Tavel","cp":"30126","fuels":{"Gazole":{"p":2.144,"d":"2026-03-05"},"GPLc":{"p":1.064,"d":"2026-03-05"},"E10":{"p":2.094,"d":"2026-03-05"},"SP98":{"p":2.164,"d":"2026-03-05"}},"brand":"Eni"},{"id":30130010,"lat":44.258,"lng":4.649,"addr":"PLACE DU PLAN","city":"Pont-Saint-Esprit","cp":"30130","fuels":{"Gazole":{"p":1.99,"d":"2026-03-05"},"E10":{"p":1.885,"d":"2026-03-05"},"SP98":{"p":1.99,"d":"2026-03-05"}},"brand":"TotalEnergies"},{"id":30150001,"lat":44.05271,"lng":4.77918,"addr":"Boulevard National","city":"Roquemaure","cp":"30150","fuels":{"Gazole":{"p":1.889,"d":"2026-03-05"},"E10":{"p":1.895,"d":"2026-03-05"},"SP98":{"p":1.995,"d":"2026-03-05"}}},{"id":30430002,"lat":44.305983685312,"lng":4.3426901021774,"addr":"Quartier Reboulasse","city":"Barjac","cp":"30430","fuels":{"Gazole":{"p":1.889,"d":"2026-03-04"},"SP95":{"p":1.929,"d":"2026-03-04"},"E85":{"p":0.788,"d":"2026-03-04"}},"brand":"Carrefour"},{"id":30900004,"lat":43.821,"lng":4.337,"addr":"15 RUE DES POETES","city":"Nîmes","cp":"30900","fuels":{"Gazole":{"p":1.879,"d":"2026-03-05"},"E10":{"p":1.742,"d":"2026-03-05"},"SP98":{"p":1.822,"d":"2026-03-05"}},"brand":"Esso"},{"id":30900015,"lat":43.81305,"lng":4.33267,"addr":"2290 ROUTE DE MONTPELLIER","city":"NIMES","cp":"30900","fuels":{"Gazole":{"p":1.966,"d":"2026-03-05"},"E10":{"p":1.826,"d":"2026-03-05"}},"brand":"TotalEnergies"},{"id":30340004,"lat":44.13,"lng":4.124,"addr":"RTE DE BAGNOLS","city":"Saint-Privat-des-Vieux","cp":"30340","fuels":{"Gazole":{"p":1.97,"d":"2026-03-05"},"E85":{"p":0.9,"d":"2026-03-05"},"E10":{"p":1.89,"d":"2026-03-05"},"SP98":{"p":1.96,"d":"2026-03-05"}},"brand":"Agip"},{"id":30650001,"lat":43.975,"lng":4.684,"addr":"597 AVENUE DE SIGNARGUES","city":"Rochefort-du-Gard","cp":"30650","fuels":{"Gazole":{"p":2.02,"d":"2026-03-04"},"E10":{"p":1.96,"d":"2026-03-04"},"SP98":{"p":2.038,"d":"2026-03-04"}},"brand":"Georges Pruvost GPF"},{"id":30580001,"lat":44.151,"lng":4.362,"addr":"Lieu-dit Mas Neuf","city":"Lussan","cp":"30580","fuels":{"Gazole":{"p":1.92,"d":"2026-03-03"},"SP95":{"p":1.9,"d":"2026-03-03"},"SP98":{"p":1.95,"d":"2026-03-03"}},"brand":"Bonnaure Badine et Marion"},{"id":30000012,"lat":43.845,"lng":4.308,"addr":"RUE DON SAUVEUR PAGANELLI","city":"NIMES. VACQUEROLLES","cp":"30900","fuels":{"Gazole":{"p":1.949,"d":"2026-03-05"},"E85":{"p":0.758,"d":"2026-03-04"},"E10":{"p":1.799,"d":"2026-03-05"},"SP98":{"p":1.899,"d":"2026-03-05"}},"brand":"Intermarché"},{"id":30240002,"lat":43.49,"lng":4.186,"addr":"CHEMIN DE TERRE NEUVE","city":"Le Grau-du-Roi","cp":"30240","fuels":{"Gazole":{"p":1.72,"d":"2026-02-26"},"E10":{"p":1.76,"d":"2026-02-26"},"SP98":{"p":1.82,"d":"2026-02-26"}}},{"id":30220003,"lat":43.628,"lng":4.192,"addr":"180 AVENUE DU GENERAL TROUCHAUD","city":"Saint-Laurent-d'Aigouze","cp":"30220","fuels":{"Gazole":{"p":1.999,"d":"2026-03-05"},"SP95":{"p":1.879,"d":"2026-03-05"},"E10":{"p":1.849,"d":"2026-03-05"},"SP98":{"p":1.919,"d":"2026-03-05"}},"brand":"Système U"},{"id":30021001,"lat":43.817,"lng":4.392,"addr":"1755 avenue Pierre MENDES FRANCE","city":"NîMES","cp":"30021","fuels":{"Gazole":{"p":1.839,"d":"2026-03-04"},"SP95":{"p":1.769,"d":"2026-03-04"},"E10":{"p":1.716,"d":"2026-03-04"},"SP98":{"p":1.827,"d":"2026-03-04"}},"brand":"Carrefour"},{"id":30490002,"lat":43.873,"lng":4.596,"addr":"13 Avenue du Général de Gaulle","city":"MONTFRIN","cp":"30490","fuels":{"Gazole":{"p":1.959,"d":"2026-03-05"},"SP95":{"p":1.849,"d":"2026-03-05"},"E85":{"p":0.758,"d":"2026-03-05"},"SP98":{"p":1.899,"d":"2026-03-05"}},"brand":"Intermarché"},{"id":30240001,"lat":43.522,"lng":4.139,"addr":"ZA du Port de Pêche","city":"Le Grau-du-Roi","cp":"30240","fuels":{"Gazole":{"p":1.829,"d":"2026-03-03"},"SP95":{"p":1.829,"d":"2026-03-03"},"E10":{"p":1.759,"d":"2026-03-03"}},"brand":"Système U"},{"id":30320006,"lat":43.875,"lng":4.45,"addr":"AUTOROUTE A9 - AIRE DE MARGUERITES NORD","city":"MARGUERITTES","cp":"30320","fuels":{"Gazole":{"p":1.99,"d":"2026-03-05"},"E85":{"p":0.999,"d":"2026-03-05"},"GPLc":{"p":0.999,"d":"2026-03-05"},"E10":{"p":1.99,"d":"2026-03-05"},"SP98":{"p":1.99,"d":"2026-03-05"}},"brand":"TotalEnergies"},{"id":30900018,"lat":43.812248122249,"lng":4.3394555963873005,"addr":"35 RUE RUDOLPHE DIESEL","city":"NIMES","cp":"30900","fuels":{"Gazole":{"p":1.879,"d":"2026-03-05"},"E10":{"p":1.749,"d":"2026-03-05"},"SP98":{"p":1.856,"d":"2026-03-05"}},"brand":"TotalEnergies"},{"id":30200006,"lat":44.131,"lng":4.675,"addr":"ROUTE D'AVIGNON - RN 580","city":"ORSAN","cp":"30200","fuels":{"Gazole":{"p":1.914,"d":"2026-03-05"},"E85":{"p":0.751,"d":"2026-03-05"},"E10":{"p":1.789,"d":"2026-03-05"},"SP98":{"p":1.885,"d":"2026-03-05"}},"brand":"TotalEnergies"},{"id":30132003,"lat":43.784,"lng":4.393,"addr":"ROUTE DE ST GILLES","city":"CAISSARGUES","cp":"30132","fuels":{"Gazole":{"p":1.899,"d":"2026-03-04"},"SP95":{"p":1.869,"d":"2026-03-04"},"E85":{"p":0.899,"d":"2026-03-04"},"SP98":{"p":1.919,"d":"2026-03-04"}},"brand":"Dyneff"},{"id":30110004,"lat":44.21,"lng":4.022,"addr":"LA POMAREDE","city":"Les Salles-du-Gardon","cp":"30110","fuels":{"Gazole":{"p":1.93,"d":"2026-03-04"},"E10":{"p":1.754,"d":"2026-03-04"},"SP98":{"p":1.739,"d":"2026-01-03"}},"brand":"Netto"},{"id":30100011,"lat":44.135,"lng":4.092,"addr":"2 AVENUE D'INDY","city":"ALES","cp":"30100","fuels":{"Gazole":{"p":1.97,"d":"2026-03-05"},"SP95":{"p":1.92,"d":"2026-03-05"},"E85":{"p":0.9,"d":"2026-03-05"},"E10":{"p":1.89,"d":"2026-03-05"},"SP98":{"p":1.96,"d":"2026-03-05"}},"brand":"Eni"},{"id":30140001,"lat":44.051,"lng":3.987,"addr":"Rue de Luxembourg","city":"Anduze","cp":"30140","fuels":{"Gazole":{"p":1.879,"d":"2026-03-04"},"SP95":{"p":1.869,"d":"2026-03-05"},"SP98":{"p":1.889,"d":"2026-03-05"}},"brand":"Système U"},{"id":30320004,"lat":43.859,"lng":4.433,"addr":"92, allée de la Pigoline","city":"Marguerittes","cp":"30320","fuels":{"Gazole":{"p":1.99,"d":"2026-03-05"},"E10":{"p":1.809,"d":"2026-03-05"},"SP98":{"p":1.919,"d":"2026-03-05"}},"brand":"Intermarché"},{"id":30100001,"lat":44.10715,"lng":4.09387,"addr":"Rue Olivier de Serres","city":"ALèS","cp":"30100","fuels":{"Gazole":{"p":1.985,"d":"2026-03-05"},"SP95":{"p":1.879,"d":"2026-03-05"},"E10":{"p":1.782,"d":"2026-03-05"},"SP98":{"p":1.889,"d":"2026-03-05"}},"brand":"Système U"},{"id":30210006,"lat":43.942,"lng":4.569,"addr":"32 Route de Bagnols","city":"Remoulins","cp":"30210","fuels":{"Gazole":{"p":1.99,"d":"2026-03-04"},"E85":{"p":0.789,"d":"2025-11-19"},"E10":{"p":1.983,"d":"2026-03-03"},"SP98":{"p":2.048,"d":"2026-03-03"}},"brand":"Avia"},{"id":30390002,"lat":43.896826126273005,"lng":4.692677424112,"addr":"760 AVENUE DU GENERAL DE GAULLE","city":"ARAMON","cp":"30390","fuels":{"Gazole":{"p":2.062,"d":"2026-03-05"},"SP95":{"p":1.933,"d":"2026-03-05"},"E10":{"p":1.891,"d":"2026-03-05"}},"brand":"Carrefour"},{"id":30640001,"lat":43.726,"lng":4.33,"addr":"711 avenue Cabassan Clarettes","city":"Beauvoisin","cp":"30640","fuels":{"Gazole":{"p":1.849,"d":"2026-03-03"},"E85":{"p":0.759,"d":"2026-02-12"},"E10":{"p":1.784,"d":"2026-03-03"}},"brand":"Système U"},{"id":30240004,"lat":43.519,"lng":4.132,"addr":"1 RUE ALTIER","city":"Le Grau-du-Roi","cp":"30240","fuels":{"Gazole":{"p":1.8,"d":"2026-01-20"},"SP95":{"p":1.9,"d":"2026-01-20"},"SP98":{"p":1.97,"d":"2026-01-20"}}},{"id":30290001,"lat":44.106,"lng":4.661,"addr":"Rue Victor Hugo","city":"LAUDUN","cp":"30290","fuels":{"Gazole":{"p":1.899,"d":"2026-03-04"},"E85":{"p":0.729,"d":"2026-02-07"},"E10":{"p":1.769,"d":"2026-03-03"},"SP98":{"p":1.845,"d":"2026-03-03"}},"brand":"Système U"},{"id":30170001,"lat":43.951,"lng":3.873,"addr":"Place de La Couronne","city":"Saint-Hippolyte-du-Fort","cp":"30170","fuels":{"Gazole":{"p":1.829,"d":"2026-03-04"},"E85":{"p":0.693,"d":"2026-01-30"},"E10":{"p":1.712,"d":"2026-03-04"},"SP98":{"p":1.812,"d":"2026-03-02"}},"brand":"Système U"},{"id":30300011,"lat":43.790397508843,"lng":4.6372614587217,"addr":"AVENUE JEAN MONNET","city":"BEAUCAIRE","cp":"30300","fuels":{"Gazole":{"p":1.929,"d":"2026-03-05"}},"brand":"Avia"},{"id":30380001,"lat":44.097,"lng":4.068,"addr":"Vieille Route d'Anduze","city":"SAINT-CHRISTOL-LèS-ALèS","cp":"30380","fuels":{"Gazole":{"p":1.879,"d":"2026-03-04"},"E10":{"p":1.749,"d":"2026-03-04"},"SP98":{"p":1.859,"d":"2026-03-04"}},"brand":"Intermarché"},{"id":30260001,"lat":43.914,"lng":3.995,"addr":"639 Avenue de l'Aigoual","city":"Quissac","cp":"30260","fuels":{"Gazole":{"p":1.789,"d":"2026-03-02"},"SP95":{"p":1.839,"d":"2026-03-02"},"E85":{"p":0.809,"d":"2026-02-11"},"GPLc":{"p":1.029,"d":"2026-02-11"},"SP98":{"p":1.879,"d":"2026-03-02"}},"brand":"Dyneff"},{"id":30190004,"lat":43.945,"lng":4.227,"addr":"4 Lieu-Dit les Gousats","city":"SAINT-GENIèS-DE-MALGOIRèS","cp":"30190","fuels":{"Gazole":{"p":1.969,"d":"2026-03-05"},"E85":{"p":0.759,"d":"2026-03-04"},"E10":{"p":1.799,"d":"2026-03-04"},"SP98":{"p":1.899,"d":"2026-03-04"}},"brand":"Intermarché"},{"id":30510002,"lat":43.734412460033994,"lng":4.3475591304305,"addr":"KM2 ROUTE DE NIMES","city":"Générac","cp":"30510","fuels":{"Gazole":{"p":1.899,"d":"2026-03-04"},"SP95":{"p":1.839,"d":"2026-03-04"},"SP98":{"p":1.878,"d":"2026-03-04"}},"brand":"Avia"},{"id":30140006,"lat":44.055,"lng":3.99,"addr":"RTE D'ALES","city":"ANDUZE","cp":"30140","fuels":{"Gazole":{"p":1.97,"d":"2026-03-05"},"SP95":{"p":1.92,"d":"2026-03-05"},"E85":{"p":0.9,"d":"2026-03-05"}},"brand":"Agip"},{"id":30000011,"lat":43.85628,"lng":4.4032,"addr":"ROUTE D'AVIGNON","city":"NIMES","cp":"30000","fuels":{"Gazole":{"p":1.925,"d":"2026-03-05"},"E85":{"p":0.758,"d":"2026-03-05"},"E10":{"p":1.759,"d":"2026-03-05"},"SP98":{"p":1.899,"d":"2026-03-05"}},"brand":"Intermarché"},{"id":30132002,"lat":43.792,"lng":4.383,"addr":"allée Chardonnay","city":"CAISSARGUES","cp":"30132","fuels":{"Gazole":{"p":1.989,"d":"2026-03-05"},"E85":{"p":0.759,"d":"2026-03-05"},"E10":{"p":1.799,"d":"2026-03-05"},"SP98":{"p":1.919,"d":"2026-03-05"}},"brand":"Intermarché"},{"id":30104001,"lat":44.111,"lng":4.096,"addr":"QUAI DU MAS D'HOURS","city":"ALèS","cp":"30100","fuels":{"Gazole":{"p":1.934,"d":"2026-03-05"},"GPLc":{"p":0.945,"d":"2026-03-04"},"E10":{"p":1.763,"d":"2026-03-05"},"SP98":{"p":1.889,"d":"2026-03-05"}},"brand":"Cora"},{"id":30360002,"lat":44.045,"lng":4.145,"addr":"372 CHEMIN DE LA ROUVIERETTE","city":"Vézénobres","cp":"30360","fuels":{"Gazole":{"p":1.899,"d":"2026-03-05"},"SP95":{"p":1.908,"d":"2026-03-05"},"SP98":{"p":1.936,"d":"2026-03-05"}},"brand":"Carrefour"},{"id":30500002,"lat":44.255,"lng":4.203,"addr":"Route d'Uzès","city":"Saint-Ambroix","cp":"30500","fuels":{"Gazole":{"p":1.999,"d":"2026-03-05"},"E10":{"p":1.899,"d":"2026-03-05"},"SP98":{"p":1.999,"d":"2026-03-05"}},"brand":"Carrefour"},{"id":30420001,"lat":43.781,"lng":4.201,"addr":"163 route de sommieres","city":"Calvisson","cp":"30420","fuels":{"Gazole":{"p":1.99,"d":"2026-03-04"},"E10":{"p":1.845,"d":"2026-03-04"},"SP98":{"p":1.955,"d":"2026-03-04"}},"brand":"TotalEnergies"},{"id":30210001,"lat":43.939,"lng":4.574,"addr":"Impasse Roussin","city":"REMOULINS","cp":"30210","fuels":{"Gazole":{"p":1.949,"d":"2026-03-05"},"E85":{"p":0.758,"d":"2026-03-04"},"E10":{"p":1.825,"d":"2026-03-04"},"SP98":{"p":1.94,"d":"2026-03-04"}},"brand":"Carrefour"},{"id":30260002,"lat":43.902,"lng":4.006,"addr":"45 VOIE ROMAINE","city":"QUISSAC","cp":"30260","fuels":{"Gazole":{"p":1.859,"d":"2026-03-03"},"SP95":{"p":1.909,"d":"2026-03-03"}}},{"id":30960003,"lat":44.218,"lng":4.156,"addr":"LES CAMBONS","city":"LES MAGES","cp":"30960","fuels":{"Gazole":{"p":2.04,"d":"2026-03-05"},"E85":{"p":0.9,"d":"2026-03-05"},"GPLc":{"p":0.99,"d":"2026-03-05"},"E10":{"p":1.89,"d":"2026-03-05"},"SP98":{"p":1.96,"d":"2026-03-05"}}},{"id":30900023,"lat":43.81,"lng":4.36,"addr":"200 avenue du Docteur Claude Baillet","city":"Nîmes","cp":"30900","fuels":{"Gazole":{"p":1.856,"d":"2026-03-05"},"E85":{"p":0.698,"d":"2026-03-03"},"GPLc":{"p":0.959,"d":"2026-03-03"},"E10":{"p":1.744,"d":"2026-03-05"},"SP98":{"p":1.819,"d":"2026-03-03"}},"brand":"Auchan"},{"id":30400001,"lat":43.979,"lng":4.786,"addr":"Route de Pujaut","city":"VILLENEUVE-LèS-AVIGNON","cp":"30400","fuels":{"Gazole":{"p":1.958,"d":"2026-03-05"},"E85":{"p":0.698,"d":"2026-03-04"},"E10":{"p":1.794,"d":"2026-03-05"},"SP98":{"p":1.909,"d":"2026-03-05"}},"brand":"Carrefour"},{"id":30500001,"lat":44.268,"lng":4.196,"addr":"Route de Saint-Brès","city":"Saint-BRES","cp":"30500","fuels":{"Gazole":{"p":1.88,"d":"2026-03-05"},"SP95":{"p":1.89,"d":"2026-03-05"},"SP98":{"p":1.93,"d":"2026-03-05"}},"brand":"Avia"},{"id":30130014,"lat":44.252147948319994,"lng":4.6469518799714,"addr":"39 AVENUE GENERAL DE GAULLE","city":"Pont-Saint-Esprit","cp":"30130","fuels":{"Gazole":{"p":1.999,"d":"2026-03-05"},"SP95":{"p":1.889,"d":"2026-03-05"},"E85":{"p":0.759,"d":"2026-03-05"},"GPLc":{"p":0.999,"d":"2026-03-05"},"E10":{"p":1.819,"d":"2026-03-05"},"SP98":{"p":1.899,"d":"2026-03-05"}}},{"id":30100018,"lat":44.114,"lng":4.101,"addr":"CENTRE COMMERCIAL LIDL 173 RTE DE NIMES","city":"Alès","cp":"30100","fuels":{"Gazole":{"p":1.979,"d":"2026-03-05"},"E85":{"p":0.819,"d":"2026-03-05"},"E10":{"p":1.779,"d":"2026-03-05"},"SP98":{"p":1.889,"d":"2026-03-05"}},"brand":"Esso"},{"id":30000006,"lat":43.838,"lng":4.372,"addr":"47 Boulevard Talabot","city":"Nîmes","cp":"30900","fuels":{"Gazole":{"p":1.888,"d":"2026-03-05"},"E10":{"p":1.758,"d":"2026-03-05"},"SP98":{"p":1.865,"d":"2026-03-05"}},"brand":"Esso"},{"id":30126005,"lat":44.001,"lng":4.701,"addr":"AUTOROUTE A9","city":"Tavel","cp":"30126","fuels":{"Gazole":{"p":2.01,"d":"2026-03-03"},"GPLc":{"p":0.999,"d":"2026-03-03"},"E10":{"p":2.01,"d":"2026-03-03"},"SP98":{"p":2.12,"d":"2026-03-03"}},"brand":"Esso"},{"id":30100003,"lat":44.141,"lng":4.09,"addr":"42 chemin de brueges","city":"Alès","cp":"30100","fuels":{"Gazole":{"p":1.879,"d":"2026-03-04"},"E10":{"p":1.739,"d":"2026-03-04"},"SP98":{"p":1.889,"d":"2026-03-05"}},"brand":"Système U"},{"id":30120003,"lat":43.974,"lng":3.592,"addr":"Quartier Tuber CD 48","city":"Avèze","cp":"30120","fuels":{"Gazole":{"p":1.849,"d":"2026-03-04"},"SP95":{"p":1.829,"d":"2026-03-04"},"E10":{"p":1.779,"d":"2026-03-04"},"SP98":{"p":1.879,"d":"2026-03-04"}},"brand":"Intermarché"},{"id":30120002,"lat":43.991,"lng":3.608,"addr":"Place du Maréchal Juin","city":"LE VIGAN","cp":"30120","fuels":{"Gazole":{"p":1.849,"d":"2026-03-04"},"SP95":{"p":1.853,"d":"2026-03-04"},"E85":{"p":0.7,"d":"2026-01-28"},"GPLc":{"p":1.01,"d":"2025-11-19"}},"brand":"Système U"},{"id":30600003,"lat":43.707,"lng":4.268,"addr":"Mas Saint-Laurent","city":"Vauvert","cp":"30600","fuels":{"Gazole":{"p":1.969,"d":"2026-03-05"},"E10":{"p":1.789,"d":"2026-03-05"},"SP98":{"p":1.899,"d":"2026-03-05"}},"brand":"Intermarché"},{"id":30129003,"lat":43.825232309078,"lng":4.4959062170312,"addr":"Route de Beaucaire - Mas Volette","city":"Redessan","cp":"30129","fuels":{"Gazole":{"p":1.856,"d":"2026-03-05"},"E85":{"p":0.702,"d":"2026-03-05"},"E10":{"p":1.744,"d":"2026-03-05"}},"brand":"Auchan"},{"id":30000008,"lat":43.837,"lng":4.395,"addr":"Route de Beaucaire","city":"NîMES","cp":"30000","fuels":{"Gazole":{"p":1.925,"d":"2026-03-05"},"E85":{"p":0.709,"d":"2026-03-05"},"GPLc":{"p":0.955,"d":"2026-03-05"},"E10":{"p":1.759,"d":"2026-03-05"},"SP98":{"p":1.829,"d":"2026-03-05"}},"brand":"Leclerc"},{"id":30470001,"lat":43.694,"lng":4.203,"addr":"Route des Plages","city":"Aimargues","cp":"30470","fuels":{"Gazole":{"p":1.976,"d":"2026-03-05"},"E85":{"p":0.738,"d":"2026-02-09"},"E10":{"p":1.799,"d":"2026-03-05"},"SP98":{"p":1.874,"d":"2026-03-05"}},"brand":"Système U"},{"id":30900016,"lat":43.822,"lng":4.329,"addr":"BD PASTEUR MARC BOEGNER","city":"NIMES","cp":"30900","fuels":{"Gazole":{"p":1.879,"d":"2026-03-05"},"GPLc":{"p":0.939,"d":"2026-03-05"},"E10":{"p":1.742,"d":"2026-03-05"},"SP98":{"p":1.859,"d":"2026-03-05"}},"brand":"TotalEnergies"},{"id":30320001,"lat":43.86701,"lng":4.44381,"addr":"58 Avenue Clément Ader","city":"Marguerittes","cp":"30320","fuels":{"Gazole":{"p":1.919,"d":"2026-03-05"},"SP95":{"p":1.779,"d":"2026-03-03"},"E85":{"p":0.699,"d":"2026-02-27"},"E10":{"p":1.719,"d":"2026-03-04"},"SP98":{"p":1.819,"d":"2026-03-03"}},"brand":"Système U"},{"id":30960004,"lat":44.226,"lng":4.163,"addr":"route de la gare","city":"Les Mages","cp":"30960","fuels":{"Gazole":{"p":1.799,"d":"2026-03-03"},"E85":{"p":0.765,"d":"2026-02-27"},"E10":{"p":1.735,"d":"2026-02-27"},"SP98":{"p":1.895,"d":"2026-02-27"}},"brand":"Système U"},{"id":30210007,"lat":43.939,"lng":4.57,"addr":"86 avenue Geoffroy Perret","city":"REMOULINS","cp":"30210","fuels":{"Gazole":{"p":1.99,"d":"2026-03-03"},"E10":{"p":1.876,"d":"2026-03-04"},"SP98":{"p":1.986,"d":"2026-03-04"}},"brand":"TotalEnergies"},{"id":30460001,"lat":44.043507000000005,"lng":3.859017,"addr":"20 RUE DE LA BARAQUE","city":"LASALLE","cp":"30460","fuels":{"Gazole":{"p":1.97,"d":"2026-03-05"},"E10":{"p":1.89,"d":"2026-03-05"},"SP98":{"p":1.96,"d":"2026-03-05"}}},{"id":30820002,"lat":43.821,"lng":4.261,"addr":"1 bis chemin des Rôles","city":"Caveirac","cp":"30820","fuels":{"Gazole":{"p":1.89,"d":"2026-03-05"},"E85":{"p":0.759,"d":"2026-03-04"},"E10":{"p":1.769,"d":"2026-03-05"},"SP98":{"p":1.819,"d":"2026-03-03"}},"brand":"Intermarché"},{"id":30700004,"lat":44.025,"lng":4.389,"addr":"Route d'Alès","city":"Montaren-et-Saint-Médiers","cp":"30700","fuels":{"Gazole":{"p":1.902,"d":"2026-03-05"},"SP95":{"p":1.839,"d":"2026-03-05"},"E85":{"p":0.728,"d":"2026-03-05"},"E10":{"p":1.745,"d":"2026-03-05"},"SP98":{"p":1.848,"d":"2026-03-05"}},"brand":"Intermarché"},{"id":30470004,"lat":43.696,"lng":4.2,"addr":"RD 6313 - ROUTE DE LA PETITE CAM","city":"AIMARGUES","cp":"30470","fuels":{"Gazole":{"p":1.889,"d":"2026-03-05"},"E85":{"p":0.751,"d":"2026-03-05"},"GPLc":{"p":0.936,"d":"2026-03-05"},"E10":{"p":1.751,"d":"2026-03-05"},"SP98":{"p":1.864,"d":"2026-03-05"}},"brand":"TotalEnergies"},{"id":30128001,"lat":43.777667615294,"lng":4.428600305955,"addr":"1 rue Jacques Flory, Rte de Bouillargues","city":"Garons","cp":"30128","fuels":{"E85":{"p":0.699,"d":"2026-03-03"},"E10":{"p":1.769,"d":"2026-03-04"},"SP98":{"p":1.869,"d":"2026-03-03"}}},{"id":30250001,"lat":43.78095,"lng":4.08168,"addr":"Route de Saussines","city":"Sommières","cp":"30250","fuels":{"Gazole":{"p":1.879,"d":"2026-03-04"},"E85":{"p":0.728,"d":"2026-01-20"},"E10":{"p":1.769,"d":"2026-03-04"},"SP98":{"p":1.839,"d":"2026-03-04"}},"brand":"Intermarché"},{"id":30130015,"lat":44.241,"lng":4.641,"addr":"1578 AVENUE GENERAL DE GAULLE","city":"Pont-Saint-Esprit","cp":"30130","fuels":{"Gazole":{"p":1.889,"d":"2026-03-04"},"E85":{"p":0.749,"d":"2026-03-04"},"E10":{"p":1.799,"d":"2026-03-04"},"SP98":{"p":1.88,"d":"2026-03-04"}}},{"id":30126009,"lat":44.059424936173,"lng":4.7111592904926995,"addr":"Zone d'Activité Commerciale de Tesan - Route de St Genies de Comolas","city":"Saint-Laurent-des-Arbres","cp":"30126","fuels":{"Gazole":{"p":1.899,"d":"2026-03-04"},"E85":{"p":0.728,"d":"2026-03-03"},"E10":{"p":1.767,"d":"2026-03-04"},"SP98":{"p":1.819,"d":"2026-03-03"}},"brand":"Auchan"}]