[{"id":44000009,"lat":47.20393,"lng":-1.54657,"addr":"16 BD DES MARTYRS NANTAIS","city":"NANTES","cp":"44200","fuels":{"Gazole":{"p":1.99,"d":"2026-03-04"},"E10":{"p":1.839,"d":"2026-03-04"},"SP98":{"p":1.949,"d":"2026-03-04"}}},{"id":44260003,"lat":47.35931,"lng":-1.86116,"addr":"Rue des Musiciens","city":"Malville","cp":"44260","fuels":{"Gazole":{"p":1.739,"d":"2026-03-03"},"SP95":{"p":1.729,"d":"2026-03-03"},"SP98":{"p":1.779,"d":"2026-03-03"}}},{"id":44720005,"lat":47.386232393331,"lng":-2.2034903965863997,"addr":"PLACE DE LA COMMUNE DE PARIS","city":"Saint-Joachim","cp":"44720","fuels":{"Gazole":{"p":1.799,"d":"2026-03-03"},"SP95":{"p":1.805,"d":"2026-03-03"},"SP98":{"p":1.869,"d":"2026-03-03"}}},{"id":44220005,"lat":47.21363,"lng":-1.72222,"addr":"Boulevard Paul Langevin","city":"COUERON","cp":"44220","fuels":{"SP95":{"p":1.729,"d":"2026-02-27"},"E10":{"p":1.659,"d":"2026-02-27"}}},{"id":44120005,"lat":47.173,"lng":-1.474,"addr":"BOULEVARD DE L'EUROPE","city":"VERTOU","cp":"44120","fuels":{"Gazole":{"p":1.893,"d":"2026-03-04"},"E85":{"p":0.749,"d":"2026-03-04"},"GPLc":{"p":0.892,"d":"2026-03-04"}}},{"id":44780002,"lat":47.482822997313995,"lng":-2.1613944821039,"addr":"la gargouille","city":"MISSILLAC","cp":"44780","fuels":{"Gazole":{"p":1.748,"d":"2026-02-25"},"E10":{"p":1.729,"d":"2026-02-25"}}},{"id":44270001,"lat":46.999,"lng":-1.817,"addr":"Boulevard des Prises","city":"MACHECOUL","cp":"44270","fuels":{"Gazole":{"p":1.799,"d":"2026-03-04"},"SP95":{"p":1.789,"d":"2026-03-04"},"E85":{"p":0.699,"d":"2026-01-09"},"SP98":{"p":1.829,"d":"2026-03-04"}}},{"id":44110002,"lat":47.705,"lng":-1.389,"addr":"16 Rue du Général Patton","city":"CHâTEAUBRIANT","cp":"44110","fuels":{"Gazole":{"p":1.989,"d":"2026-03-04"},"E10":{"p":1.816,"d":"2026-03-04"},"SP98":{"p":1.926,"d":"2026-03-04"}}},{"id":44400006,"lat":47.18,"lng":-1.533,"addr":"29 Rue de la Blordière","city":"REZé","cp":"44400","fuels":{"Gazole":{"p":1.819,"d":"2026-03-03"},"E10":{"p":1.709,"d":"2026-03-03"},"SP98":{"p":1.829,"d":"2026-03-03"}}},{"id":44360007,"lat":47.278,"lng":-1.721,"addr":"LIEU DIT TOURNEBRIDE","city":"Saint-Étienne-de-Montluc","cp":"44360","fuels":{"Gazole":{"p":1.839,"d":"2026-03-04"},"E85":{"p":0.689,"d":"2026-03-03"},"E10":{"p":1.699,"d":"2026-03-04"},"SP98":{"p":1.799,"d":"2026-03-04"}}},{"id":44530003,"lat":47.50937,"lng":-2.04035,"addr":"route de Pontchâteau","city":"Saint-Gildas-des-Bois","cp":"44530","fuels":{"Gazole":{"p":1.829,"d":"2026-03-04"},"SP95":{"p":1.829,"d":"2026-03-04"},"SP98":{"p":1.869,"d":"2026-03-04"}}},{"id":44700005,"lat":47.24,"lng":-1.59,"addr":"164 Route de Vannes","city":"ORVAULT","cp":"44700","fuels":{"Gazole":{"p":2.009,"d":"2026-03-04"},"E10":{"p":1.829,"d":"2026-03-04"},"SP98":{"p":1.979,"d":"2026-03-04"}}},{"id":44118003,"lat":47.09,"lng":-1.611,"addr":"78 Grand'Rue","city":"La Chevrolière","cp":"44118","fuels":{"Gazole":{"p":1.799,"d":"2026-03-04"},"SP95":{"p":1.799,"d":"2026-03-04"},"SP98":{"p":1.919,"d":"2026-03-02"}}},{"id":44430003,"lat":47.237,"lng":-1.35,"addr":"Place Bretagne","city":"Le Loroux-Bottereau","cp":"44430","fuels":{"Gazole":{"p":1.789,"d":"2026-03-03"},"E10":{"p":1.719,"d":"2026-03-03"},"SP98":{"p":1.829,"d":"2026-03-03"}}},{"id":44300020,"lat":47.26,"lng":-1.576,"addr":"162 Route de Rennes","city":"Nantes","cp":"44300","fuels":{"Gazole":{"p":1.769,"d":"2026-03-03"},"E85":{"p":0.835,"d":"2026-02-06"},"GPLc":{"p":0.999,"d":"2026-02-13"},"E10":{"p":1.779,"d":"2026-03-03"},"SP98":{"p":1.869,"d":"2026-02-24"}}},{"id":44700003,"lat":47.24624,"lng":-1.58938,"addr":"54, avenue de la Ferrière","city":"Orvault","cp":"44700","fuels":{"Gazole":{"p":1.879,"d":"2026-03-03"},"E85":{"p":0.759,"d":"2026-03-03"},"E10":{"p":1.729,"d":"2026-03-03"},"SP98":{"p":1.839,"d":"2026-03-03"}}},{"id":44630002,"lat":47.5425428,"lng":-1.8827017000000001,"addr":"11 bis rue charles perron","city":"Plessé","cp":"44630","fuels":{"Gazole":{"p":1.755,"d":"2026-03-02"},"SP95":{"p":1.776,"d":"2026-03-02"},"SP98":{"p":1.856,"d":"2026-03-02"}}},{"id":44880001,"lat":47.26,"lng":-1.655,"addr":"20 Rue de Nantes","city":"SAUTRON","cp":"44880","fuels":{"Gazole":{"p":1.769,"d":"2026-03-04"},"SP95":{"p":1.769,"d":"2026-03-03"},"E85":{"p":0.735,"d":"2026-01-28"}}},{"id":44120007,"lat":47.187,"lng":-1.485,"addr":"432 ROUTE DE CLISSON","city":"VERTOU","cp":"44120","fuels":{"Gazole":{"p":1.799,"d":"2026-03-03"},"GPLc":{"p":0.905,"d":"2026-03-03"},"E10":{"p":1.726,"d":"2026-03-03"},"SP98":{"p":1.844,"d":"2026-03-03"}}},{"id":44830002,"lat":47.144,"lng":-1.679,"addr":"Rue de Nantes","city":"BOUAYE","cp":"44830","fuels":{"Gazole":{"p":1.84,"d":"2026-03-03"},"SP95":{"p":1.805,"d":"2026-03-03"},"SP98":{"p":1.845,"d":"2026-03-03"}}},{"id":44406001,"lat":47.194,"lng":-1.572,"addr":"1 Impasse Ordronneau","city":"REZé","cp":"44400","fuels":{"Gazole":{"p":1.847,"d":"2026-03-04"},"GPLc":{"p":0.923,"d":"2026-03-04"},"E10":{"p":1.709,"d":"2026-03-04"},"SP98":{"p":1.809,"d":"2026-03-04"}}},{"id":44300012,"lat":47.249,"lng":-1.53,"addr":"204 Route de Saint-Joseph","city":"NANTES","cp":"44300","fuels":{"Gazole":{"p":2.059,"d":"2026-03-04"},"E10":{"p":1.879,"d":"2026-03-04"},"SP98":{"p":2.029,"d":"2026-03-04"}}},{"id":44810001,"lat":47.41492,"lng":-1.66024,"addr":"51 RUE DE L'OCEAN","city":"Héric","cp":"44810","fuels":{"Gazole":{"p":1.879,"d":"2026-03-04"},"E10":{"p":1.709,"d":"2026-03-04"},"SP98":{"p":1.859,"d":"2026-03-04"}}},{"id":44400009,"lat":47.16,"lng":-1.551,"addr":"RUE BAUCHE THIRAUD - ROCADE SUD","city":"REZE","cp":"44400","fuels":{"Gazole":{"p":1.893,"d":"2026-03-04"},"E85":{"p":0.749,"d":"2026-03-04"},"GPLc":{"p":0.874,"d":"2026-03-04"},"E10":{"p":1.733,"d":"2026-03-04"},"SP98":{"p":1.842,"d":"2026-03-04"}}},{"id":44150001,"lat":47.397,"lng":-1.19,"addr":"L'Aubinière","city":"ANCENIS","cp":"44150","fuels":{"Gazole":{"p":1.9,"d":"2026-03-04"},"SP95":{"p":1.91,"d":"2026-03-04"},"GPLc":{"p":1.079,"d":"2025-12-22"},"SP98":{"p":1.94,"d":"2026-03-04"}}},{"id":44190008,"lat":47.099,"lng":-1.282,"addr":"Rue des Malifestes","city":"Clisson","cp":"44190","fuels":{"Gazole":{"p":1.818,"d":"2026-03-04"},"SP95":{"p":1.773,"d":"2026-03-04"},"E85":{"p":0.682,"d":"2026-03-04"},"E10":{"p":1.694,"d":"2026-03-04"},"SP98":{"p":1.798,"d":"2026-03-04"}}},{"id":44480002,"lat":47.32906,"lng":-2.08771,"addr":"Rue du Stade","city":"DONGES","cp":"44480","fuels":{"Gazole":{"p":1.799,"d":"2026-03-03"},"E10":{"p":1.719,"d":"2026-03-03"},"SP98":{"p":1.829,"d":"2026-03-03"}}},{"id":44560001,"lat":47.284,"lng":-2.016,"addr":"Rue Férréol Prézelin","city":"PAIMBOEUF","cp":"44560","fuels":{"Gazole":{"p":1.82,"d":"2026-03-03"},"SP95":{"p":1.79,"d":"2026-03-03"},"E10":{"p":1.71,"d":"2026-03-03"},"SP98":{"p":1.83,"d":"2026-03-03"}}},{"id":44320007,"lat":47.2063373,"lng":-2.0440813,"addr":"CC L'Iliade","city":"Saint Pere En Retz","cp":"44320","fuels":{"Gazole":{"p":1.82,"d":"2026-03-03"},"SP95":{"p":1.79,"d":"2026-03-03"},"SP98":{"p":1.83,"d":"2026-03-03"}}},{"id":44300013,"lat":47.235,"lng":-1.52,"addr":"1 Rue du Croissant","city":"NANTES","cp":"44300","fuels":{"Gazole":{"p":1.989,"d":"2026-03-04"},"E10":{"p":1.809,"d":"2026-03-04"},"SP98":{"p":1.929,"d":"2026-03-04"}}},{"id":44340004,"lat":47.159,"lng":-1.6,"addr":"ZONE NANTES ATLANTIQUE","city":"Bouguenais","cp":"44340","fuels":{"Gazole":{"p":1.819,"d":"2026-03-02"},"SP95":{"p":1.969,"d":"2026-03-02"}}},{"id":44420002,"lat":47.353,"lng":-2.512,"addr":"2 rue des Pins","city":"LA TURBALLE","cp":"44420","fuels":{"Gazole":{"p":1.82,"d":"2026-03-03"},"E10":{"p":1.71,"d":"2026-03-03"},"SP98":{"p":1.828,"d":"2026-03-03"}}},{"id":44340006,"lat":47.186,"lng":-1.602,"addr":"CD 723 - ZI DE CHEVIRE","city":"BOUGUENAIS","cp":"44340","fuels":{"Gazole":{"p":1.893,"d":"2026-03-04"},"E85":{"p":0.749,"d":"2026-03-04"},"E10":{"p":1.735,"d":"2026-03-04"},"SP98":{"p":1.843,"d":"2026-03-04"}}},{"id":44250005,"lat":47.22914,"lng":-2.15541,"addr":"ROUTE BLEUE - LA HAUTIERE","city":"Saint-Brevin-les-Pins","cp":"44250","fuels":{"Gazole":{"p":1.885,"d":"2026-03-04"},"E85":{"p":0.749,"d":"2026-03-04"},"GPLc":{"p":0.867,"d":"2026-03-04"},"E10":{"p":1.729,"d":"2026-03-04"},"SP98":{"p":1.849,"d":"2026-03-04"}}},{"id":44130001,"lat":47.473061839157,"lng":-1.7469807605743002,"addr":"27 Route de l'Isac","city":"BLAIN","cp":"44130","fuels":{"Gazole":{"p":1.795,"d":"2026-03-03"},"SP95":{"p":1.799,"d":"2026-03-03"},"E10":{"p":1.685,"d":"2026-03-03"},"SP98":{"p":1.765,"d":"2026-03-03"}}},{"id":44590002,"lat":47.648,"lng":-1.669,"addr":"Lieu-dit Le Mortier","city":"Derval","cp":"44590","fuels":{"Gazole":{"p":1.919,"d":"2026-03-04"}}},{"id":44860002,"lat":47.129,"lng":-1.583,"addr":"Rue des Vignes","city":"PONT-SAINT-MARTIN","cp":"44860","fuels":{"Gazole":{"p":1.839,"d":"2026-03-03"},"SP95":{"p":1.805,"d":"2026-03-03"},"E10":{"p":1.725,"d":"2026-03-03"},"SP98":{"p":1.845,"d":"2026-03-03"}}},{"id":44420003,"lat":47.397,"lng":-2.462,"addr":"rue des artisans","city":"MESQUER","cp":"44420","fuels":{"Gazole":{"p":1.689,"d":"2026-03-02"},"E10":{"p":1.665,"d":"2026-03-02"},"SP98":{"p":1.785,"d":"2026-03-02"}}},{"id":44400001,"lat":47.177,"lng":-1.559,"addr":"22 Rue de la Galarnière","city":"Rezé","cp":"44400","fuels":{"Gazole":{"p":1.819,"d":"2026-03-03"},"E10":{"p":1.709,"d":"2026-03-03"},"SP98":{"p":1.829,"d":"2026-03-03"}}},{"id":44430004,"lat":47.234,"lng":-1.367,"addr":"Canton de la Haute Landelle, Routes de Nantes","city":"Loroux-Bottereau","cp":"44430","fuels":{"Gazole":{"p":1.832,"d":"2026-03-04"},"E85":{"p":0.688,"d":"2026-03-04"},"E10":{"p":1.689,"d":"2026-03-04"},"SP98":{"p":1.809,"d":"2026-03-04"}}},{"id":44110004,"lat":47.706,"lng":-1.385,"addr":"route de st nazaire la ville en bois","city":"CHâTEAUBRIANT","cp":"44110","fuels":{"Gazole":{"p":1.857,"d":"2026-03-04"},"E85":{"p":0.759,"d":"2026-03-03"},"E10":{"p":1.737,"d":"2026-03-03"},"SP98":{"p":1.799,"d":"2026-03-04"}}},{"id":44800008,"lat":47.211,"lng":-1.619,"addr":"BD CHARLES DE GAULLE - CD 17","city":"Saint-Herblain","cp":"44800","fuels":{"Gazole":{"p":1.892,"d":"2026-03-04"},"GPLc":{"p":0.836,"d":"2026-03-04"},"E10":{"p":1.739,"d":"2026-03-04"},"SP98":{"p":1.849,"d":"2026-03-04"}}},{"id":44470005,"lat":47.3,"lng":-1.498,"addr":"Le souchais - route de Sucé","city":"Carquefou","cp":"44470","fuels":{"Gazole":{"p":1.83,"d":"2026-03-04"},"E85":{"p":0.703,"d":"2026-03-04"},"E10":{"p":1.712,"d":"2026-03-04"},"SP98":{"p":1.839,"d":"2026-03-04"}}},{"id":44160006,"lat":47.449842495365004,"lng":-2.127482917,"addr":"RELAIS DE BEAULIEU RN 165","city":"PONTCHATEAU","cp":"44160","fuels":{"Gazole":{"p":1.809,"d":"2026-03-03"},"SP95":{"p":1.859,"d":"2026-03-03"},"SP98":{"p":1.909,"d":"2026-03-03"}}},{"id":44590001,"lat":47.668,"lng":-1.663,"addr":"48 Rue Châteaubriant","city":"DERVAL","cp":"44590","fuels":{"Gazole":{"p":1.795,"d":"2026-03-02"},"E10":{"p":1.725,"d":"2026-03-02"},"SP98":{"p":1.845,"d":"2026-03-02"}}},{"id":44220001,"lat":47.194,"lng":-1.53,"addr":"75 Boulevard Joliot Curie","city":"NANTES","cp":"44200","fuels":{"Gazole":{"p":1.695,"d":"2026-02-23"}}},{"id":44170003,"lat":47.564,"lng":-1.618,"addr":"Rue Marie Curie","city":"NOZAY","cp":"44170","fuels":{"Gazole":{"p":1.919,"d":"2026-03-04"},"E10":{"p":1.859,"d":"2026-03-04"},"SP98":{"p":1.919,"d":"2026-03-04"}}},{"id":44390001,"lat":47.439,"lng":-1.48,"addr":"1 rue de Bretagne - ZAC de la Pancarte","city":"NORT-SUR-ERDRE","cp":"44390","fuels":{"Gazole":{"p":1.849,"d":"2026-03-04"},"E85":{"p":0.729,"d":"2026-03-03"},"GPLc":{"p":0.929,"d":"2026-03-03"},"E10":{"p":1.709,"d":"2026-03-04"},"SP98":{"p":1.819,"d":"2026-03-04"}}},{"id":44230003,"lat":47.192,"lng":-1.492,"addr":"2 Rue Pierre Mendès France","city":"Saint-Sébastien-sur-Loire","cp":"44230","fuels":{"Gazole":{"p":1.799,"d":"2026-03-04"},"E85":{"p":0.694,"d":"2026-02-24"},"GPLc":{"p":0.905,"d":"2026-01-13"},"E10":{"p":1.726,"d":"2026-03-04"},"SP98":{"p":1.844,"d":"2026-03-04"}}},{"id":44490002,"lat":47.286,"lng":-2.507,"addr":"rue emmanuel provost","city":"LE CROISIC","cp":"44490","fuels":{"Gazole":{"p":1.799,"d":"2026-03-04"},"E85":{"p":0.759,"d":"2026-03-04"},"E10":{"p":1.719,"d":"2026-03-04"},"SP98":{"p":1.829,"d":"2026-03-04"}}},{"id":44220002,"lat":47.215,"lng":-1.685,"addr":"48 Boulevard de la Libération","city":"Couëron","cp":"44220","fuels":{"Gazole":{"p":1.849,"d":"2026-03-04"},"E10":{"p":1.699,"d":"2026-03-04"},"SP98":{"p":1.819,"d":"2026-03-04"}}},{"id":44240012,"lat":47.285,"lng":-1.55,"addr":"Rue d'Utrecht","city":"La chapelle sur Erdre","cp":"44240","fuels":{"Gazole":{"p":1.859,"d":"2026-03-04"},"E85":{"p":0.703,"d":"2026-03-04"},"GPLc":{"p":0.939,"d":"2026-03-04"},"E10":{"p":1.698,"d":"2026-03-04"},"SP98":{"p":1.798,"d":"2026-03-04"}}},{"id":44350001,"lat":47.291,"lng":-2.398,"addr":"ROUTE DE LA BAULE","city":"GUERANDE","cp":"44350","fuels":{"Gazole":{"p":1.821,"d":"2026-03-04"},"SP95":{"p":1.767,"d":"2026-03-04"}}},{"id":44170001,"lat":47.57,"lng":-1.629,"addr":"15, Boulevard du Petit Versailles","city":"NOZAY","cp":"44170","fuels":{"Gazole":{"p":1.889,"d":"2026-03-03"},"E85":{"p":0.739,"d":"2026-03-03"},"E10":{"p":1.729,"d":"2026-03-03"},"SP98":{"p":1.849,"d":"2026-03-03"}}},{"id":44650001,"lat":46.8886,"lng":-1.59155,"addr":"Avenue des Visitandines","city":"LEGE","cp":"44650","fuels":{"Gazole":{"p":1.809,"d":"2026-03-03"},"E85":{"p":0.689,"d":"2026-02-19"},"GPLc":{"p":0.94,"d":"2026-02-17"},"E10":{"p":1.709,"d":"2026-03-04"},"SP98":{"p":1.819,"d":"2026-03-04"}}},{"id":44370008,"lat":47.418,"lng":-1.018,"addr":"AUTOROUTE A11 - AIRE VARADES LA BÉDOIRE","city":"VARADES","cp":"44370","fuels":{"Gazole":{"p":1.99,"d":"2026-03-04"},"E85":{"p":0.999,"d":"2026-03-04"},"E10":{"p":1.974,"d":"2026-03-04"},"SP98":{"p":1.99,"d":"2026-03-04"}}},{"id":44290001,"lat":47.635,"lng":-1.805,"addr":"7, rue des Boisseliers","city":"Guémené-Penfao","cp":"44290","fuels":{"Gazole":{"p":1.799,"d":"2026-03-04"},"E85":{"p":0.679,"d":"2026-02-27"},"E10":{"p":1.719,"d":"2026-03-04"},"SP98":{"p":1.839,"d":"2026-03-04"}}},{"id":44570001,"lat":47.301882584606,"lng":-2.212697736,"addr":"ZAC DE LA FONTAINE AU BRUN - 31 Rue de la Héronnière","city":"Trignac","cp":"44570","fuels":{"Gazole":{"p":1.789,"d":"2026-03-04"},"GPLc":{"p":0.869,"d":"2026-03-04"},"E10":{"p":1.699,"d":"2026-03-04"},"SP98":{"p":1.799,"d":"2026-03-04"}}},{"id":44570006,"lat":47.293,"lng":-2.209,"addr":"ROUTE DE ST NAZAIRE - Z.C. SAVIN","city":"TRIGNAC","cp":"44570","fuels":{"Gazole":{"p":1.881,"d":"2026-03-04"},"E85":{"p":0.749,"d":"2026-03-04"},"E10":{"p":1.716,"d":"2026-03-04"}}},{"id":44410007,"lat":47.448,"lng":-2.241,"addr":"4 RUE DES LEVEES MIRAUD","city":"LA CHAPELLE DES MARAIS","cp":"44410","fuels":{"Gazole":{"p":1.849,"d":"2026-03-04"},"E10":{"p":1.735,"d":"2026-03-04"},"SP98":{"p":1.835,"d":"2026-03-04"}}},{"id":44320002,"lat":47.114543249043,"lng":-1.9511237760851,"addr":"ZA LE BUTAI","city":"Arthon-en-Retz","cp":"44320","fuels":{"Gazole":{"p":1.819,"d":"2026-03-03"},"E85":{"p":0.729,"d":"2026-02-24"},"E10":{"p":1.719,"d":"2026-03-03"},"SP98":{"p":1.829,"d":"2026-03-03"}}},{"id":44240004,"lat":47.302,"lng":-1.548,"addr":"15 Rue de Sucé","city":"La Chapelle-sur-Erdre","cp":"44240","fuels":{"Gazole":{"p":1.835,"d":"2026-03-04"},"E10":{"p":1.699,"d":"2026-03-04"},"SP98":{"p":1.799,"d":"2026-03-04"}}},{"id":44190007,"lat":47.095,"lng":-1.292,"addr":"Route de Gorges","city":"Clisson","cp":"44190","fuels":{"Gazole":{"p":1.889,"d":"2026-03-04"},"SP95":{"p":1.819,"d":"2026-03-04"},"SP98":{"p":1.859,"d":"2026-03-04"}}},{"id":44410001,"lat":47.45,"lng":-2.314,"addr":"7 AVENUE DE LA MONNERAYE","city":"HERBIGNAC","cp":"44410","fuels":{"Gazole":{"p":1.83,"d":"2026-03-04"},"E85":{"p":0.728,"d":"2026-03-04"},"E10":{"p":1.704,"d":"2026-03-04"},"SP98":{"p":1.825,"d":"2026-03-04"}}},{"id":44470006,"lat":47.266,"lng":-1.488,"addr":"RN 23 ROUTE DE PARIS","city":"CARQUEFOU","cp":"44470","fuels":{"Gazole":{"p":1.904,"d":"2026-03-04"},"E85":{"p":0.746,"d":"2026-03-04"},"GPLc":{"p":0.879,"d":"2026-03-04"},"E10":{"p":1.738,"d":"2026-03-04"},"SP98":{"p":1.842,"d":"2026-03-04"}}},{"id":44100006,"lat":47.216,"lng":-1.606,"addr":"57 A 61, BD DU TERTRE","city":"NANTES","cp":"44100","fuels":{"Gazole":{"p":1.892,"d":"2026-03-04"},"E10":{"p":1.739,"d":"2026-03-04"},"SP98":{"p":1.849,"d":"2026-03-04"}}},{"id":44119005,"lat":47.336,"lng":-1.652,"addr":"ROUTE NATIONALE 137 - AIRE DE LAMBRECY EST (sens Nantes => Rennes)","city":"TREILLIERES","cp":"44119","fuels":{"Gazole":{"p":1.99,"d":"2026-03-04"},"E85":{"p":0.999,"d":"2026-03-04"},"GPLc":{"p":0.969,"d":"2026-03-04"},"E10":{"p":1.914,"d":"2026-03-04"},"SP98":{"p":1.99,"d":"2026-03-04"}}},{"id":44450002,"lat":47.269,"lng":-1.335,"addr":"BD PASTEUR","city":"LA CHAPELLE-BASSE-MER","cp":"44450","fuels":{"Gazole":{"p":1.879,"d":"2026-03-04"},"E10":{"p":1.719,"d":"2026-03-04"},"SP98":{"p":1.839,"d":"2026-03-04"}}},{"id":44450003,"lat":47.248,"lng":-1.371,"addr":"Centre Commercial du Chêne - l'Aulnaie","city":"SAINT-JULIEN-DE-CONCELLES","cp":"44450","fuels":{"Gazole":{"p":1.839,"d":"2026-03-04"},"SP95":{"p":1.779,"d":"2026-03-02"},"SP98":{"p":1.839,"d":"2026-03-02"}}},{"id":44210004,"lat":47.124357,"lng":-2.103635,"addr":"Route Bleue","city":"Pornic","cp":"44210","fuels":{"Gazole":{"p":1.976,"d":"2026-03-04"},"E85":{"p":0.764,"d":"2026-03-04"},"E10":{"p":1.811,"d":"2026-03-04"},"SP98":{"p":1.921,"d":"2026-03-04"}}},{"id":44370005,"lat":47.38927,"lng":-1.0203,"addr":"ROUTE D'ANGERS","city":"Varades","cp":"44370","fuels":{"Gazole":{"p":1.859,"d":"2026-03-04"},"SP95":{"p":1.789,"d":"2026-03-04"},"E85":{"p":0.709,"d":"2026-02-25"},"GPLc":{"p":0.999,"d":"2026-02-06"},"SP98":{"p":1.829,"d":"2026-03-04"}}},{"id":44522002,"lat":47.434802623937,"lng":-1.2360880247733999,"addr":"731 rue de la picardie","city":"MESANGER","cp":"44522","fuels":{"Gazole":{"p":1.82,"d":"2026-03-03"},"E85":{"p":0.669,"d":"2025-12-22"},"E10":{"p":1.732,"d":"2026-03-03"},"SP98":{"p":1.752,"d":"2026-02-21"}}},{"id":44740002,"lat":47.278,"lng":-2.468,"addr":"ROUTE DU POULIGUEN","city":"Batz-sur-Mer","cp":"44740","fuels":{"Gazole":{"p":1.879,"d":"2026-03-04"},"E10":{"p":1.869,"d":"2026-03-04"},"SP98":{"p":1.969,"d":"2026-03-04"}}},{"id":44120004,"lat":47.162,"lng":-1.513,"addr":"AUTOROUTE A83 - AIRE DE LA GRASSINIÈRE","city":"VERTOU","cp":"44120","fuels":{"Gazole":{"p":1.985,"d":"2026-03-04"},"SP95":{"p":1.709,"d":"2026-01-27"},"E85":{"p":0.755,"d":"2026-03-04"},"GPLc":{"p":0.913,"d":"2026-03-04"},"E10":{"p":1.816,"d":"2026-03-04"},"SP98":{"p":1.926,"d":"2026-03-04"}}},{"id":44410006,"lat":47.395,"lng":-2.305,"addr":"8 RUE DE KERVILY","city":"Saint-Lyphard","cp":"44410","fuels":{"Gazole":{"p":1.839,"d":"2026-03-04"},"E85":{"p":0.728,"d":"2026-03-04"},"E10":{"p":1.699,"d":"2026-03-04"},"SP98":{"p":1.809,"d":"2026-03-04"}}},{"id":44150007,"lat":47.373105051321,"lng":-1.1783565175484,"addr":"BOULEVARD PASTEUR","city":"ANCENIS","cp":"44150","fuels":{"Gazole":{"p":1.889,"d":"2026-03-04"},"E10":{"p":1.739,"d":"2026-03-04"},"SP98":{"p":1.849,"d":"2026-03-04"}}},{"id":44580001,"lat":47.041,"lng":-1.956,"addr":"ROUTE DE BOUIN","city":"Bourgneuf-en-Retz","cp":"44580","fuels":{"Gazole":{"p":1.982,"d":"2026-03-04"},"SP95":{"p":1.878,"d":"2026-03-04"}}},{"id":44370009,"lat":47.419621,"lng":-1.0145410000000001,"addr":"A11 - AIRE DE VARADES PAYS DE LOIRE","city":"VARADES","cp":"44370","fuels":{"Gazole":{"p":1.99,"d":"2026-03-04"},"E85":{"p":0.999,"d":"2026-03-04"},"GPLc":{"p":0.999,"d":"2026-03-04"},"E10":{"p":1.973,"d":"2026-03-04"},"SP98":{"p":1.99,"d":"2026-03-04"}}},{"id":44521001,"lat":47.39123,"lng":-1.29207,"addr":"RN 23 - LES HAUTES LANDES","city":"COUFFé","cp":"44521","fuels":{"Gazole":{"p":1.712,"d":"2026-01-27"},"SP95":{"p":1.758,"d":"2026-01-27"}}},{"id":44510001,"lat":47.27503,"lng":-2.44083,"addr":"Rue de Cornen","city":"LE POULIGUEN","cp":"44510","fuels":{"Gazole":{"p":1.879,"d":"2026-03-04"},"E10":{"p":1.719,"d":"2026-03-04"},"SP98":{"p":1.809,"d":"2026-03-04"}}},{"id":44800004,"lat":47.226,"lng":-1.635,"addr":"Zone Atlantis","city":"Saint-Herblain","cp":"44800","fuels":{"Gazole":{"p":1.829,"d":"2026-03-04"},"E85":{"p":0.689,"d":"2026-03-04"},"GPLc":{"p":0.836,"d":"2026-03-04"},"E10":{"p":1.689,"d":"2026-03-04"},"SP98":{"p":1.799,"d":"2026-03-04"}}},{"id":44600002,"lat":47.28,"lng":-2.228,"addr":"54 Rue Léon Bourgeois","city":"SAINT-NAZAIRE","cp":"44600","fuels":{"Gazole":{"p":1.86,"d":"2026-03-04"},"E10":{"p":1.698,"d":"2026-03-04"},"SP98":{"p":1.815,"d":"2026-03-04"}}},{"id":44390004,"lat":47.517434238999,"lng":-1.3012053214615,"addr":"23 rue des chenes","city":"Riaille","cp":"44440","fuels":{"Gazole":{"p":1.879,"d":"2026-03-04"},"SP95":{"p":1.809,"d":"2026-03-04"},"SP98":{"p":1.879,"d":"2026-03-04"}}},{"id":44220003,"lat":47.21344,"lng":-1.719,"addr":"6 Rue des Ardillets","city":"COUëRON","cp":"44220","fuels":{"Gazole":{"p":1.99,"d":"2026-03-03"},"SP95":{"p":1.881,"d":"2026-03-03"}}},{"id":44850001,"lat":47.414,"lng":-1.392,"addr":"89, rue du Souvenir","city":"LIGNE","cp":"44850","fuels":{"Gazole":{"p":1.829,"d":"2026-03-04"},"E85":{"p":0.699,"d":"2026-03-04"},"E10":{"p":1.719,"d":"2026-03-04"},"SP98":{"p":1.839,"d":"2026-03-04"}}},{"id":44360008,"lat":47.33,"lng":-1.781,"addr":"ROUTE NATIONALE 165","city":"Vigneux-de-Bretagne","cp":"44360","fuels":{"Gazole":{"p":1.979,"d":"2026-03-04"},"E10":{"p":1.819,"d":"2026-03-04"},"SP98":{"p":1.929,"d":"2026-03-04"}}},{"id":44210002,"lat":47.11293,"lng":-2.08468,"addr":"Route de Nantes","city":"PORNIC","cp":"44210","fuels":{"Gazole":{"p":1.819,"d":"2026-03-04"},"SP95":{"p":1.736,"d":"2026-03-04"},"E85":{"p":0.728,"d":"2026-01-27"},"GPLc":{"p":0.958,"d":"2026-02-21"},"E10":{"p":1.689,"d":"2026-03-04"}}},{"id":44800007,"lat":47.2412179839,"lng":-1.59335907484,"addr":"205 ROUTE DE VANNES","city":"Saint-Herblain","cp":"44800","fuels":{"Gazole":{"p":1.99,"d":"2026-03-04"},"E10":{"p":1.843,"d":"2026-03-04"},"SP98":{"p":1.953,"d":"2026-03-04"}}},{"id":44300015,"lat":47.2377,"lng":-1.56947,"addr":"78 BD ROBERT SCHUMAN","city":"NANTES","cp":"44300","fuels":{"Gazole":{"p":1.99,"d":"2026-03-04"},"E85":{"p":0.756,"d":"2026-03-04"},"E10":{"p":1.833,"d":"2026-03-04"},"SP98":{"p":1.943,"d":"2026-03-04"}}},{"id":44700002,"lat":47.262,"lng":-1.588,"addr":"1 Rue de la Conraie","city":"Orvault","cp":"44700","fuels":{"Gazole":{"p":1.829,"d":"2026-03-04"},"E10":{"p":1.679,"d":"2026-03-04"},"SP98":{"p":1.799,"d":"2026-03-04"}}},{"id":44000005,"lat":47.23769,"lng":-1.53264,"addr":"55 Boulevard Jules Verne","city":"Nantes","cp":"44300","fuels":{"Gazole":{"p":1.99,"d":"2026-03-04"},"SP95":{"p":1.99,"d":"2026-03-04"},"SP98":{"p":1.99,"d":"2026-03-04"}}},{"id":44260005,"lat":47.368621940000004,"lng":-1.96231179,"addr":"Parc comemrcial de la Colleraye","city":"SAVENAY","cp":"44260","fuels":{"Gazole":{"p":1.809,"d":"2026-03-04"},"E85":{"p":0.699,"d":"2026-01-19"},"E10":{"p":1.699,"d":"2026-03-04"},"SP98":{"p":1.799,"d":"2026-03-04"}}},{"id":44170002,"lat":47.564,"lng":-1.62,"addr":"44 ROUTE D'ABBARETZ","city":"NOZAY","cp":"44170","fuels":{"Gazole":{"p":1.77,"d":"2026-02-27"},"SP95":{"p":1.77,"d":"2026-02-27"}}},{"id":44300017,"lat":47.251,"lng":-1.518,"addr":"14 route de Paris","city":"NANTES","cp":"44300","fuels":{"Gazole":{"p":1.749,"d":"2026-03-04"},"E10":{"p":1.699,"d":"2026-03-04"},"SP98":{"p":1.779,"d":"2026-03-04"}}},{"id":44750002,"lat":47.412902747675005,"lng":-1.9705121262687,"addr":"AVENUE DES SPORTS","city":"CAMPBON","cp":"44750","fuels":{"Gazole":{"p":1.809,"d":"2026-03-04"},"SP95":{"p":1.759,"d":"2026-03-03"},"SP98":{"p":1.799,"d":"2026-03-03"}}},{"id":44000001,"lat":47.257,"lng":-1.513,"addr":"Route de PARIS","city":"NANTES","cp":"44300","fuels":{"Gazole":{"p":1.866,"d":"2026-03-04"},"SP95":{"p":1.794,"d":"2026-03-04"},"GPLc":{"p":0.891,"d":"2026-03-04"},"E10":{"p":1.755,"d":"2026-03-04"}}},{"id":44730002,"lat":47.17027,"lng":-2.14844,"addr":"Route de la Plaine","city":"SAINT-MICHEL-CHEF-CHEF","cp":"44730","fuels":{"Gazole":{"p":1.829,"d":"2026-03-04"},"SP95":{"p":1.789,"d":"2026-03-04"},"E10":{"p":1.709,"d":"2026-03-04"},"SP98":{"p":1.81,"d":"2026-03-04"}}},{"id":44115003,"lat":47.222,"lng":-1.473,"addr":"226 BLD DE LA LOIRE","city":"Basse-Goulaine","cp":"44115","fuels":{"Gazole":{"p":1.893,"d":"2026-03-04"},"GPLc":{"p":0.892,"d":"2026-03-04"},"E10":{"p":1.733,"d":"2026-03-04"},"SP98":{"p":1.853,"d":"2026-03-04"}}},{"id":44460001,"lat":47.647,"lng":-2.078,"addr":"Avenue Jean Burel","city":"Saint-Nicolas-de-Redon","cp":"44460","fuels":{"Gazole":{"p":1.778,"d":"2026-03-04"},"E85":{"p":0.699,"d":"2026-03-04"},"GPLc":{"p":0.979,"d":"2026-03-04"},"E10":{"p":1.688,"d":"2026-03-04"},"SP98":{"p":1.792,"d":"2026-03-04"}}},{"id":44250003,"lat":47.242,"lng":-2.158,"addr":"Zone d'activités de la Guerche","city":"Saint-Brevin-les-Pins","cp":"44250","fuels":{"Gazole":{"p":1.849,"d":"2026-03-04"},"E10":{"p":1.71,"d":"2026-03-04"},"SP98":{"p":1.808,"d":"2026-03-04"}}},{"id":44300016,"lat":47.241,"lng":-1.508,"addr":"272, ROUTE DE SAINTE LUCE","city":"NANTES","cp":"44300","fuels":{"Gazole":{"p":1.899,"d":"2026-03-04"},"E85":{"p":0.749,"d":"2026-03-04"},"GPLc":{"p":0.889,"d":"2026-03-04"},"E10":{"p":1.731,"d":"2026-03-04"},"SP98":{"p":1.842,"d":"2026-03-04"}}},{"id":44100005,"lat":47.2239,"lng":-1.52985,"addr":"49-61 BLD DALBY","city":"NANTES","cp":"44100","fuels":{"Gazole":{"p":1.99,"d":"2026-03-04"},"E85":{"p":0.753,"d":"2026-03-04"},"E10":{"p":1.839,"d":"2026-03-04"},"SP98":{"p":1.949,"d":"2026-03-04"}}},{"id":44200002,"lat":47.125,"lng":-2.123,"addr":"Rue du Traité d'Amsterdam","city":"Pornic","cp":"44210","fuels":{"Gazole":{"p":1.819,"d":"2026-03-04"},"E10":{"p":1.689,"d":"2026-03-04"},"SP98":{"p":1.799,"d":"2026-03-04"}}},{"id":44100004,"lat":47.214,"lng":-1.586,"addr":"110 boulevard Égalite ( place zola )","city":"NANTES","cp":"44100","fuels":{"E10":{"p":1.897,"d":"2026-03-04"},"SP98":{"p":1.987,"d":"2026-03-04"}}},{"id":44412001,"lat":47.16,"lng":-1.545,"addr":"10 Rond Point de la Corbinerie","city":"REZé","cp":"44400","fuels":{"Gazole":{"p":1.856,"d":"2026-03-04"},"GPLc":{"p":0.881,"d":"2026-03-04"},"E10":{"p":1.709,"d":"2026-03-04"},"SP98":{"p":1.809,"d":"2026-03-04"}}},{"id":44110003,"lat":47.706,"lng":-1.388,"addr":"route de St Nazaire","city":"CHâTEAUBRIANT","cp":"44110","fuels":{"Gazole":{"p":1.842,"d":"2026-03-04"},"GPLc":{"p":0.89,"d":"2026-03-04"},"E10":{"p":1.733,"d":"2026-03-04"},"SP98":{"p":1.8,"d":"2026-03-04"}}},{"id":44210003,"lat":47.12229,"lng":-2.11717,"addr":"Boulevard de Linz","city":"PORNIC","cp":"44210","fuels":{"Gazole":{"p":1.819,"d":"2026-03-04"},"E85":{"p":0.725,"d":"2026-02-23"},"E10":{"p":1.689,"d":"2026-03-04"},"SP98":{"p":1.799,"d":"2026-03-04"}}},{"id":44240011,"lat":47.256759,"lng":-1.546015,"addr":"BOULEVARD ALEXANDRE FLEMING","city":"La Chapelle-sur-Erdre","cp":"44240","fuels":{"Gazole":{"p":1.889,"d":"2026-03-04"},"E85":{"p":0.749,"d":"2026-03-04"},"GPLc":{"p":0.889,"d":"2026-03-04"}}},{"id":44380001,"lat":47.258,"lng":-2.318,"addr":"1 AVENUE DU HECQUEUX","city":"PORNICHET","cp":"44380","fuels":{"Gazole":{"p":1.709,"d":"2026-02-26"},"SP98":{"p":1.798,"d":"2026-02-26"}}},{"id":44000006,"lat":47.24459,"lng":-1.53364,"addr":"173, route de Saint Joseph","city":"Nantes","cp":"44300","fuels":{"Gazole":{"p":1.822,"d":"2026-03-04"},"E85":{"p":0.759,"d":"2026-03-04"},"E10":{"p":1.681,"d":"2026-03-04"},"SP98":{"p":1.762,"d":"2026-03-04"}}},{"id":44330003,"lat":47.158229280939,"lng":-1.2747920508980999,"addr":"28 Route de clisson","city":"Vallet","cp":"44330","fuels":{"Gazole":{"p":1.745,"d":"2026-03-04"},"SP95":{"p":1.739,"d":"2026-03-04"},"E85":{"p":0.688,"d":"2026-02-26"},"GPLc":{"p":0.892,"d":"2026-02-06"},"E10":{"p":1.669,"d":"2026-03-04"},"SP98":{"p":1.779,"d":"2026-03-04"}}},{"id":44000010,"lat":47.247,"lng":-1.555,"addr":"BOULEVARD GUY MOLLET","city":"NANTES","cp":"44000","fuels":{"Gazole":{"p":1.899,"d":"2026-03-04"},"E10":{"p":1.736,"d":"2026-03-04"},"SP98":{"p":1.845,"d":"2026-03-04"}}},{"id":44300018,"lat":47.248,"lng":-1.512,"addr":"95 rue du Perray","city":"NANTES","cp":"44300","fuels":{"Gazole":{"p":1.749,"d":"2026-03-04"},"E10":{"p":1.699,"d":"2026-03-04"},"SP98":{"p":1.779,"d":"2026-03-04"}}},{"id":44130003,"lat":47.476,"lng":-1.75,"addr":"7 impasse de la boulonnerie","city":"BLAIN","cp":"44130","fuels":{"Gazole":{"p":1.829,"d":"2026-03-04"},"E85":{"p":0.699,"d":"2026-03-04"},"E10":{"p":1.685,"d":"2026-03-04"},"SP98":{"p":1.779,"d":"2026-03-04"}}},{"id":44260006,"lat":47.362,"lng":-1.956,"addr":"BOULEVARD BRANLY","city":"Savenay","cp":"44260","fuels":{"Gazole":{"p":1.839,"d":"2026-03-04"},"GPLc":{"p":1.039,"d":"2026-01-28"},"E10":{"p":1.699,"d":"2026-03-04"},"SP98":{"p":1.799,"d":"2026-03-04"}}},{"id":44802001,"lat":47.222,"lng":-1.606,"addr":"Boulevard de la Baule","city":"SAINT-HERBLAIN","cp":"44800","fuels":{"Gazole":{"p":1.829,"d":"2026-03-04"},"SP95":{"p":1.732,"d":"2026-03-04"},"E85":{"p":0.689,"d":"2026-02-27"},"E10":{"p":1.689,"d":"2026-03-04"},"SP98":{"p":1.799,"d":"2026-03-04"}}},{"id":44272001,"lat":47.206,"lng":-1.535,"addr":"RUE GAETAN RONDEAU","city":"NANTES","cp":"44200","fuels":{"Gazole":{"p":1.867,"d":"2026-03-04"},"SP95":{"p":1.795,"d":"2026-03-04"},"E85":{"p":0.746,"d":"2026-03-04"},"E10":{"p":1.773,"d":"2026-03-04"},"SP98":{"p":1.867,"d":"2026-03-04"}}},{"id":44540001,"lat":47.53,"lng":-1.186,"addr":"RTE DE CHATEAUBRIANT","city":"SAINT-MARS-LA-JAILLE","cp":"44540","fuels":{"Gazole":{"p":1.879,"d":"2026-03-04"},"E85":{"p":0.749,"d":"2026-02-25"},"E10":{"p":1.719,"d":"2026-03-04"},"SP98":{"p":1.779,"d":"2026-03-03"}}},{"id":44116001,"lat":46.971,"lng":-1.434,"addr":"6, rue de Quarteron","city":"VIEILLEVIGNE","cp":"44116","fuels":{"Gazole":{"p":1.752,"d":"2026-03-03"},"E85":{"p":0.728,"d":"2026-03-03"},"E10":{"p":1.684,"d":"2026-03-03"},"SP98":{"p":1.784,"d":"2026-03-03"}}},{"id":44600007,"lat":47.29,"lng":-2.257,"addr":"Le Point du Jour","city":"SAINT-NAZAIRE","cp":"44600","fuels":{"Gazole":{"p":1.837,"d":"2026-03-04"},"E85":{"p":0.728,"d":"2026-03-04"},"GPLc":{"p":0.865,"d":"2026-03-04"},"E10":{"p":1.697,"d":"2026-03-04"},"SP98":{"p":1.814,"d":"2026-03-04"}}},{"id":44160005,"lat":47.436,"lng":-2.077,"addr":"LA HIRTAIS","city":"Sainte-Anne-sur-Brivet","cp":"44160","fuels":{"Gazole":{"p":1.809,"d":"2026-03-04"},"E85":{"p":0.699,"d":"2026-02-21"},"E10":{"p":1.699,"d":"2026-03-04"},"SP98":{"p":1.799,"d":"2026-03-04"}}},{"id":44380007,"lat":47.265467051322005,"lng":-2.3335748698712,"addr":"Avenue du Baulois","city":"PORNICHET","cp":"44380","fuels":{"Gazole":{"p":1.849,"d":"2026-03-04"},"SP95":{"p":1.789,"d":"2026-03-04"},"E85":{"p":0.759,"d":"2026-03-04"},"E10":{"p":1.719,"d":"2026-03-04"},"SP98":{"p":1.829,"d":"2026-03-04"}}},{"id":44110005,"lat":47.719,"lng":-1.364,"addr":"Rue des 27 Otages","city":"CHâTEAUBRIANT","cp":"44110","fuels":{"Gazole":{"p":1.834,"d":"2026-03-04"},"SP95":{"p":1.861,"d":"2026-02-19"},"SP98":{"p":1.883,"d":"2026-02-19"}}},{"id":44340005,"lat":47.167,"lng":-1.575,"addr":"ROCADE SUD","city":"BOUGUENAIS","cp":"44340","fuels":{"Gazole":{"p":1.893,"d":"2026-03-04"},"GPLc":{"p":0.874,"d":"2026-03-04"},"SP98":{"p":1.851,"d":"2026-03-04"}}},{"id":44290002,"lat":47.628,"lng":-1.831,"addr":"10 Rue de Châteaubriant","city":"Guémené-Penfao","cp":"44290","fuels":{"Gazole":{"p":1.976,"d":"2026-03-04"},"E10":{"p":1.826,"d":"2026-03-04"},"SP98":{"p":1.936,"d":"2026-03-04"}}},{"id":44580002,"lat":47.04693,"lng":-1.95644,"addr":"Chemin de la Culee","city":"BOURGNEUF-EN-RETZ","cp":"44580","fuels":{"Gazole":{"p":1.789,"d":"2026-03-03"},"E10":{"p":1.699,"d":"2026-03-03"},"SP98":{"p":1.829,"d":"2026-03-03"}}},{"id":44119004,"lat":47.332,"lng":-1.618,"addr":"Rue de Rennes","city":"TREILLIèRES","cp":"44119","fuels":{"E85":{"p":0.699,"d":"2026-02-25"},"E10":{"p":1.689,"d":"2026-03-03"},"SP98":{"p":1.809,"d":"2026-03-03"}}},{"id":44310001,"lat":47.04729577,"lng":-1.6403904800000002,"addr":"ESPACE CIAL GRAND LAC","city":"SAINT-PHILBERT-DE-GRAND-LIEU","cp":"44310","fuels":{"Gazole":{"p":1.849,"d":"2026-03-04"},"GPLc":{"p":0.909,"d":"2026-03-03"},"E10":{"p":1.699,"d":"2026-03-04"},"SP98":{"p":1.829,"d":"2026-03-04"}}},{"id":44230004,"lat":47.199,"lng":-1.519,"addr":"5 Rue du Lieutenant Auge","city":"SAINT-SéBASTIEN-SUR-LOIRE","cp":"44230","fuels":{"Gazole":{"p":1.797,"d":"2026-03-04"},"E10":{"p":1.725,"d":"2026-03-04"},"SP98":{"p":1.799,"d":"2026-03-04"}}},{"id":44800001,"lat":47.247,"lng":-1.606,"addr":"325 Route de Vannes","city":"SAINT-HERBLAIN","cp":"44800","fuels":{"Gazole":{"p":1.839,"d":"2026-03-04"},"E85":{"p":0.729,"d":"2026-03-04"},"GPLc":{"p":0.958,"d":"2026-03-04"},"E10":{"p":1.699,"d":"2026-03-04"},"SP98":{"p":1.809,"d":"2026-03-04"}}},{"id":44360005,"lat":47.32,"lng":-1.738,"addr":"RUE DU PETIT PRINCE","city":"Vigneux-de-Bretagne","cp":"44360","fuels":{"Gazole":{"p":1.999,"d":"2026-03-04"},"E10":{"p":1.786,"d":"2026-03-04"},"SP98":{"p":1.888,"d":"2026-03-04"}}},{"id":44190002,"lat":47.098,"lng":-1.296,"addr":"Route de Clisson","city":"GORGES","cp":"44190","fuels":{"Gazole":{"p":1.777,"d":"2026-02-11"},"E10":{"p":1.774,"d":"2026-02-11"},"SP98":{"p":1.856,"d":"2026-02-11"}}},{"id":44400005,"lat":47.155,"lng":-1.537,"addr":"140 Route des Sorinières","city":"Rezé","cp":"44400","fuels":{"Gazole":{"p":1.893,"d":"2026-03-04"},"SP98":{"p":1.844,"d":"2026-03-04"}}},{"id":44190001,"lat":47.084,"lng":-1.263,"addr":"14 avenue Xavier Rineau - Le Barillet","city":"GETIGNE","cp":"44190","fuels":{"Gazole":{"p":1.726,"d":"2026-03-04"},"SP95":{"p":1.714,"d":"2026-03-04"},"E10":{"p":1.669,"d":"2026-03-04"},"SP98":{"p":1.757,"d":"2026-03-04"}}},{"id":44570007,"lat":47.305033,"lng":-2.212259,"addr":"RN 171","city":"TRIGNAC","cp":"44570","fuels":{"Gazole":{"p":1.997,"d":"2026-03-03"},"E85":{"p":0.865,"d":"2026-02-27"},"GPLc":{"p":0.999,"d":"2026-02-27"},"E10":{"p":1.959,"d":"2026-03-03"},"SP98":{"p":1.989,"d":"2026-03-03"}}},{"id":44600011,"lat":47.258910992176,"lng":-2.2650246791612,"addr":"332 ROUTE DE LA COTE D'AMOUR","city":"ST NAZAIRE","cp":"44600","fuels":{"Gazole":{"p":1.838,"d":"2026-03-04"},"E85":{"p":0.729,"d":"2026-01-31"},"GPLc":{"p":0.869,"d":"2026-01-31"},"E10":{"p":1.699,"d":"2026-03-03"},"SP98":{"p":1.819,"d":"2026-03-04"}}},{"id":44150004,"lat":47.373,"lng":-1.185,"addr":"BOULEVARD BAD BRUCKENAU","city":"ANCENIS","cp":"44150","fuels":{"Gazole":{"p":1.869,"d":"2026-03-04"},"E10":{"p":1.709,"d":"2026-03-04"},"SP98":{"p":1.829,"d":"2026-03-04"}}},{"id":44770001,"lat":47.141,"lng":-2.189,"addr":"1 Rue des Filets","city":"LA PLAINE-SUR-MER","cp":"44770","fuels":{"Gazole":{"p":1.829,"d":"2026-03-03"},"E10":{"p":1.699,"d":"2026-03-03"},"SP98":{"p":1.819,"d":"2026-03-04"}}},{"id":44500004,"lat":47.287,"lng":-2.381,"addr":"41 Avenue du Bois d'Amour","city":"LA BAULE-ESCOUBLAC","cp":"44500","fuels":{"Gazole":{"p":1.999,"d":"2026-03-04"},"E10":{"p":1.849,"d":"2026-03-04"},"SP98":{"p":1.969,"d":"2026-03-04"}}},{"id":44119006,"lat":47.357050659966006,"lng":-1.6016296214263999,"addr":"RUE DES SPORTS ZA DE BELLEVUE","city":"Grandchamp-des-Fontaines","cp":"44119","fuels":{"Gazole":{"p":1.659,"d":"2026-03-03"},"E10":{"p":1.659,"d":"2026-03-03"},"SP98":{"p":1.745,"d":"2026-03-03"}}},{"id":44550001,"lat":47.327,"lng":-2.152,"addr":"C.C. DE LA BERNUAIS","city":"MONTOIR-DE-BRETAGNE","cp":"44550","fuels":{"Gazole":{"p":1.809,"d":"2026-03-04"},"E85":{"p":0.729,"d":"2026-03-03"},"E10":{"p":1.709,"d":"2026-03-04"},"SP98":{"p":1.819,"d":"2026-03-04"}}},{"id":44230002,"lat":47.209033556831,"lng":-1.5109141112012,"addr":"80 Boulevard des Pas Enchantés","city":"Saint-Sébastien-sur-Loire","cp":"44230","fuels":{"Gazole":{"p":1.856,"d":"2026-03-04"},"SP95":{"p":1.799,"d":"2026-03-04"},"E10":{"p":1.725,"d":"2026-03-04"},"SP98":{"p":1.799,"d":"2026-03-04"}}},{"id":44350006,"lat":47.304,"lng":-2.409,"addr":"Route de la Baule","city":"GUéRANDE","cp":"44350","fuels":{"Gazole":{"p":1.879,"d":"2026-03-04"},"E85":{"p":0.759,"d":"2026-03-04"},"E10":{"p":1.729,"d":"2026-03-04"}}},{"id":44600009,"lat":47.271,"lng":-2.25,"addr":"LIEU DIT RETON","city":"Saint-Nazaire","cp":"44600","fuels":{"Gazole":{"p":1.881,"d":"2026-03-04"},"E85":{"p":0.749,"d":"2026-03-04"},"GPLc":{"p":0.862,"d":"2026-03-04"},"E10":{"p":1.726,"d":"2026-03-04"},"SP98":{"p":1.843,"d":"2026-03-04"}}},{"id":44140002,"lat":47.055,"lng":-1.511,"addr":"1 Avenue de la Vendée","city":"Geneston","cp":"44140","fuels":{"Gazole":{"p":1.847,"d":"2026-03-04"},"E85":{"p":0.759,"d":"2026-03-04"},"E10":{"p":1.703,"d":"2026-03-04"},"SP98":{"p":1.812,"d":"2026-03-04"}}},{"id":44350007,"lat":47.39,"lng":-2.432,"addr":"2 impasse de Breninguen","city":"Saint-Molf","cp":"44350","fuels":{"Gazole":{"p":1.688,"d":"2026-03-02"},"E85":{"p":0.728,"d":"2026-03-02"},"E10":{"p":1.664,"d":"2026-03-02"},"SP98":{"p":1.784,"d":"2026-03-02"}}},{"id":44110001,"lat":47.716,"lng":-1.392,"addr":"ROUTE DE SAINT AUBIN DES CHATEAUX","city":"Châteaubriant","cp":"44110","fuels":{"Gazole":{"p":1.899,"d":"2026-03-04"},"SP95":{"p":1.829,"d":"2026-03-04"},"E10":{"p":1.737,"d":"2026-03-04"}}},{"id":44330001,"lat":47.17,"lng":-1.267,"addr":"Route d'Ancenis","city":"Vallet","cp":"44330","fuels":{"Gazole":{"p":1.745,"d":"2026-03-04"},"SP95":{"p":1.739,"d":"2026-03-04"},"SP98":{"p":1.779,"d":"2026-03-04"}}},{"id":44140004,"lat":47.082,"lng":-1.412,"addr":"Avenue de Nantes ZA le Haut Coin","city":"Aigrefeuille-sur-Maine","cp":"44140","fuels":{"Gazole":{"p":1.943,"d":"2026-03-04"},"E10":{"p":1.723,"d":"2026-03-04"},"SP98":{"p":1.838,"d":"2026-03-04"}}},{"id":44140006,"lat":47.052,"lng":-1.509,"addr":"22 Avenue de la Vendée","city":"Geneston","cp":"44140","fuels":{"Gazole":{"p":1.979,"d":"2026-03-04"},"E10":{"p":1.869,"d":"2026-03-04"},"SP98":{"p":1.957,"d":"2026-03-04"}}},{"id":44150003,"lat":47.373,"lng":-1.194,"addr":"Espace 23 SAINT-GEREON","city":"ANCENIS","cp":"44150","fuels":{"Gazole":{"p":1.813,"d":"2026-03-04"},"SP95":{"p":1.767,"d":"2026-03-04"},"E85":{"p":0.699,"d":"2026-03-04"},"E10":{"p":1.679,"d":"2026-03-04"},"SP98":{"p":1.802,"d":"2026-03-04"}}},{"id":44620002,"lat":47.176,"lng":-1.678,"addr":"Avenue de la Libération","city":"La Montagne","cp":"44620","fuels":{"Gazole":{"p":1.819,"d":"2026-03-04"},"SP95":{"p":1.769,"d":"2026-03-04"},"E85":{"p":0.745,"d":"2026-03-04"},"GPLc":{"p":0.933,"d":"2026-02-26"},"E10":{"p":1.713,"d":"2026-03-04"},"SP98":{"p":1.809,"d":"2026-03-04"}}},{"id":44190004,"lat":47.078,"lng":-1.24,"addr":"Recouvrance","city":"GéTIGNé","cp":"44190","fuels":{"Gazole":{"p":1.977,"d":"2026-03-04"},"E85":{"p":0.779,"d":"2026-01-31"},"E10":{"p":1.809,"d":"2026-03-04"},"SP98":{"p":1.919,"d":"2026-03-04"}}},{"id":44370003,"lat":47.3863,"lng":-1.03342,"addr":"306, Rue du Maréchal Foch","city":"Varades","cp":"44370","fuels":{"SP95":{"p":1.79,"d":"2026-01-30"},"SP98":{"p":1.85,"d":"2026-01-30"}}},{"id":44350004,"lat":47.32944,"lng":-2.41115,"addr":"Rue de Villejames","city":"Guérande","cp":"44350","fuels":{"Gazole":{"p":1.84,"d":"2026-03-04"},"GPLc":{"p":0.865,"d":"2026-03-02"},"E10":{"p":1.679,"d":"2026-03-03"},"SP98":{"p":1.798,"d":"2026-03-03"}}},{"id":44420004,"lat":47.348292,"lng":-2.5016629999999997,"addr":"20 rue de la frégate","city":"LA TURBALLE","cp":"44420","fuels":{"Gazole":{"p":1.979,"d":"2026-03-04"},"E10":{"p":1.809,"d":"2026-03-04"},"SP98":{"p":1.919,"d":"2026-03-04"}}},{"id":44340011,"lat":47.16772400000001,"lng":-1.643608,"addr":"RD 723 AIRE DES AJONCS","city":"BOUGUENAIS","cp":"44340","fuels":{"Gazole":{"p":1.749,"d":"2026-02-26"},"E85":{"p":0.855,"d":"2026-02-26"},"E10":{"p":1.769,"d":"2026-02-26"},"SP98":{"p":1.849,"d":"2026-02-26"}}},{"id":44360009,"lat":47.274,"lng":-1.78,"addr":"D17 - ROUTE DE COUERON","city":"Saint-Étienne-de-Montluc","cp":"44360","fuels":{"Gazole":{"p":1.979,"d":"2026-03-04"},"E10":{"p":1.811,"d":"2026-03-04"},"SP98":{"p":1.921,"d":"2026-03-04"}}},{"id":44640002,"lat":47.198,"lng":-1.758,"addr":"28 Rue de la Jouardais","city":"LE PELLERIN","cp":"44640","fuels":{"Gazole":{"p":1.839,"d":"2026-03-04"},"E10":{"p":1.709,"d":"2026-03-04"},"SP98":{"p":1.809,"d":"2026-03-04"}}},{"id":44160003,"lat":47.432,"lng":-2.083,"addr":"Route de Nantes-CS 20077","city":"Pontchâteau","cp":"44160","fuels":{"Gazole":{"p":1.809,"d":"2026-03-04"},"GPLc":{"p":0.979,"d":"2026-02-21"},"E10":{"p":1.699,"d":"2026-03-04"},"SP98":{"p":1.799,"d":"2026-03-04"}}},{"id":44470002,"lat":47.262,"lng":-1.447,"addr":"RUE DE LA MALNOUE","city":"Thouaré-sur-Loire","cp":"44470","fuels":{"Gazole":{"p":1.86,"d":"2026-03-04"},"SP95":{"p":1.799,"d":"2026-03-04"},"E10":{"p":1.735,"d":"2026-03-04"},"SP98":{"p":1.849,"d":"2026-03-04"}}},{"id":44390003,"lat":47.437,"lng":-1.517,"addr":"rue de l'Océan - ZI DE LA SANGLE","city":"Nort-sur-Erdre","cp":"44390","fuels":{"Gazole":{"p":1.859,"d":"2026-03-04"},"E10":{"p":1.719,"d":"2026-03-04"},"SP98":{"p":1.839,"d":"2026-03-04"}}},{"id":44840002,"lat":47.159,"lng":-1.513,"addr":"AUTOROUTE A83 - AIRE DE LA GRASSINIÈRE","city":"LES SORINIERES","cp":"44840","fuels":{"Gazole":{"p":1.985,"d":"2026-03-04"},"E85":{"p":0.755,"d":"2026-03-04"},"GPLc":{"p":0.913,"d":"2026-03-04"},"E10":{"p":1.816,"d":"2026-03-04"},"SP98":{"p":1.926,"d":"2026-03-04"}}},{"id":44250004,"lat":47.243,"lng":-2.157,"addr":"Avenue Guy Lafontaine","city":"Saint-Brevin-les-Pins","cp":"44250","fuels":{"Gazole":{"p":1.976,"d":"2026-03-03"},"E85":{"p":0.779,"d":"2026-03-02"},"E10":{"p":1.815,"d":"2026-03-03"}}},{"id":44130004,"lat":47.476667007029,"lng":-1.7614514139338,"addr":"11 Rue Du 8 Mai 1945","city":"BLAIN","cp":"44130","fuels":{"Gazole":{"p":1.976,"d":"2026-03-04"},"E10":{"p":1.803,"d":"2026-03-04"},"SP98":{"p":1.913,"d":"2026-03-04"}}},{"id":44119008,"lat":47.33780346813,"lng":-1.6548672204172,"addr":"Route des Estuaires","city":"Treillieres","cp":"44119","fuels":{"Gazole":{"p":2.024,"d":"2026-03-04"},"E10":{"p":1.81,"d":"2026-02-09"}}},{"id":44680001,"lat":47.10399,"lng":-1.80297,"addr":"RUE DES CHARMES","city":"SAINTE-PAZANNE","cp":"44680","fuels":{"Gazole":{"p":1.839,"d":"2026-03-04"},"E10":{"p":1.709,"d":"2026-03-04"},"SP98":{"p":1.829,"d":"2026-03-03"}}},{"id":44600010,"lat":47.287,"lng":-2.299,"addr":"ANGLE RUE FONDELINE ET AUGUSTIN FRESNEL","city":"SAINT NAZAIRE","cp":"44600","fuels":{"Gazole":{"p":1.881,"d":"2026-03-04"},"E85":{"p":0.753,"d":"2026-03-04"},"E10":{"p":1.724,"d":"2026-03-04"},"SP98":{"p":1.844,"d":"2026-03-04"}}},{"id":44360010,"lat":47.270007987698,"lng":-1.7750433764143,"addr":"24 Rte de Couëron","city":"Saint-Étienne-de-Montluc","cp":"44360","fuels":{"Gazole":{"p":1.839,"d":"2026-03-04"},"SP95":{"p":1.769,"d":"2026-03-03"},"E85":{"p":0.699,"d":"2026-02-22"},"GPLc":{"p":0.989,"d":"2026-02-14"},"E10":{"p":1.699,"d":"2026-03-04"}}}]