[{"id":46300004,"lat":44.726,"lng":1.373,"addr":"Route de Fumel","city":"GOURDON","cp":"46300","fuels":{"Gazole":{"p":1.889,"d":"2026-03-05"},"E85":{"p":0.729,"d":"2026-01-19"},"E10":{"p":1.779,"d":"2026-03-05"},"SP98":{"p":1.889,"d":"2026-03-05"}}},{"id":46200003,"lat":44.898,"lng":1.463,"addr":"Avenue de Verdun","city":"SOUILLAC","cp":"46200","fuels":{"Gazole":{"p":1.899,"d":"2026-03-05"},"E10":{"p":1.699,"d":"2026-03-05"},"SP98":{"p":1.769,"d":"2026-03-05"}}},{"id":46000014,"lat":44.474264768930006,"lng":1.4287303311282,"addr":"ROUTE DE MERCUES","city":"Cahors","cp":"46000","fuels":{"Gazole":{"p":1.744,"d":"2025-11-10"},"E10":{"p":1.753,"d":"2025-11-10"},"SP98":{"p":1.863,"d":"2025-11-10"}}},{"id":46140002,"lat":44.478,"lng":1.294,"addr":"LIEU DIT LA BERGERIE SUD - ROUTE DE CAHORS","city":"LUZECH","cp":"46140","fuels":{"Gazole":{"p":2.03,"d":"2026-03-03"},"SP95":{"p":1.85,"d":"2026-02-10"},"E10":{"p":1.813,"d":"2026-02-10"}}},{"id":46600002,"lat":44.93612,"lng":1.60076,"addr":"Avenue de Souillac","city":"Martel","cp":"46600","fuels":{"Gazole":{"p":1.869,"d":"2026-03-05"},"E10":{"p":1.699,"d":"2026-03-04"},"SP98":{"p":1.769,"d":"2026-03-04"}}},{"id":46000006,"lat":44.436,"lng":1.552,"addr":"Avenue Edouard Herriot","city":"CAHORS","cp":"46000","fuels":{"Gazole":{"p":1.98,"d":"2026-03-05"},"E85":{"p":0.759,"d":"2026-03-05"},"E10":{"p":1.815,"d":"2026-03-05"},"SP98":{"p":1.859,"d":"2026-03-05"}}},{"id":46160001,"lat":44.48692,"lng":1.84248,"addr":"PLACE DU FOIRAIL","city":"Cajarc","cp":"46160","fuels":{"Gazole":{"p":1.81,"d":"2026-03-05"},"E10":{"p":1.8,"d":"2026-03-05"},"SP98":{"p":1.89,"d":"2026-03-05"}}},{"id":46330001,"lat":44.471,"lng":1.687,"addr":"32 impasse du coulabio","city":"Tour-de-Faure","cp":"46330","fuels":{"Gazole":{"p":1.885,"d":"2026-03-05"},"E10":{"p":1.799,"d":"2026-03-05"},"SP98":{"p":1.884,"d":"2026-03-05"}}},{"id":46100005,"lat":44.606,"lng":2.013,"addr":"15 rue Saint Georges","city":"Figeac","cp":"46100","fuels":{"Gazole":{"p":1.889,"d":"2026-03-05"},"E10":{"p":1.749,"d":"2026-03-04"},"SP98":{"p":1.885,"d":"2026-03-03"}}},{"id":46600003,"lat":45.021,"lng":1.52,"addr":"Le Bourg - RN 20","city":"CRESSENSAC","cp":"46600","fuels":{"Gazole":{"p":1.99,"d":"2026-03-05"},"E10":{"p":1.916,"d":"2026-03-04"},"SP98":{"p":1.99,"d":"2026-03-05"}}},{"id":46090004,"lat":44.51,"lng":1.373,"addr":"37 BIS RUE PRINCIPALE RD811","city":"ESPERE","cp":"46090","fuels":{"Gazole":{"p":1.823,"d":"2026-03-04"},"E85":{"p":0.728,"d":"2026-02-20"},"E10":{"p":1.714,"d":"2026-03-04"}}},{"id":46220002,"lat":44.505,"lng":1.175,"addr":"ROUTE DE FUMEL","city":"PRAYSSAC","cp":"46220","fuels":{"Gazole":{"p":1.769,"d":"2026-03-04"},"E85":{"p":0.749,"d":"2026-02-27"},"GPLc":{"p":1.069,"d":"2025-11-19"},"E10":{"p":1.699,"d":"2026-02-27"},"SP98":{"p":1.779,"d":"2026-02-13"}}},{"id":46170001,"lat":44.282,"lng":1.358,"addr":"ZA DES PEYRETTES SUD","city":"CASTELNAU MONTRATIER","cp":"46170","fuels":{"Gazole":{"p":1.999,"d":"2026-03-05"},"E10":{"p":1.889,"d":"2026-03-04"},"SP98":{"p":1.964,"d":"2026-03-04"}}},{"id":46800002,"lat":44.342,"lng":1.204,"addr":"Lieu-dit le moulin de Pleysse","city":"Montcuq","cp":"46800","fuels":{"Gazole":{"p":1.799,"d":"2026-03-05"},"SP95":{"p":1.799,"d":"2026-03-04"},"SP98":{"p":1.869,"d":"2026-03-04"}}},{"id":46220005,"lat":44.50144384934,"lng":1.1936775425425,"addr":"37 avenue marechal Bessières","city":"Prayssac","cp":"46220","fuels":{"Gazole":{"p":1.99,"d":"2026-03-05"},"E85":{"p":0.766,"d":"2026-03-05"},"E10":{"p":1.871,"d":"2026-03-05"},"SP98":{"p":1.981,"d":"2026-03-05"}}},{"id":46300013,"lat":44.721196256044,"lng":1.3695146785841998,"addr":"ROUTE DE FUMEL","city":"Gourdon","cp":"46300","fuels":{"Gazole":{"p":1.999,"d":"2026-03-05"},"E85":{"p":0.775,"d":"2026-03-05"},"E10":{"p":1.879,"d":"2026-03-05"},"SP98":{"p":1.991,"d":"2026-03-05"}}},{"id":46240001,"lat":44.65,"lng":1.571,"addr":"Route de Gramat","city":"LABASTIDE-MURAT","cp":"46240","fuels":{"SP95":{"p":1.805,"d":"2026-02-28"},"SP98":{"p":1.849,"d":"2026-02-28"}}},{"id":46300005,"lat":44.739,"lng":1.389,"addr":"AVENUE GAMBETTA","city":"Gourdon","cp":"46300","fuels":{"Gazole":{"p":1.849,"d":"2026-03-04"},"E10":{"p":1.769,"d":"2026-03-04"},"SP98":{"p":1.879,"d":"2026-03-04"}}},{"id":46000012,"lat":44.421,"lng":1.439,"addr":"114 RTE DE TOULOUSE","city":"CAHORS","cp":"46000","fuels":{"Gazole":{"p":1.989,"d":"2026-03-05"},"E85":{"p":0.751,"d":"2026-03-05"},"GPLc":{"p":0.989,"d":"2026-03-05"},"E10":{"p":1.846,"d":"2026-03-05"},"SP98":{"p":1.956,"d":"2026-03-05"}}},{"id":46270001,"lat":44.6701019718,"lng":2.16554057775,"addr":"ROUTE D'AURILLAC","city":"BAGNAC-SUR-CéLé","cp":"46270","fuels":{"Gazole":{"p":1.889,"d":"2026-03-04"},"E10":{"p":1.765,"d":"2026-03-04"},"SP98":{"p":1.823,"d":"2026-03-04"}}},{"id":46130001,"lat":44.909,"lng":1.821,"addr":"AVENUE DE LA REPUBLIQUE","city":"BIARS-SUR-CERE","cp":"46130","fuels":{"Gazole":{"p":1.854,"d":"2026-03-04"},"E85":{"p":0.678,"d":"2026-03-04"},"E10":{"p":1.698,"d":"2026-03-04"},"SP98":{"p":1.816,"d":"2026-03-04"}}},{"id":46000001,"lat":44.42,"lng":1.439,"addr":"Route de TOULOUSE","city":"Cahors","cp":"46000","fuels":{"Gazole":{"p":1.869,"d":"2026-03-05"},"E10":{"p":1.797,"d":"2026-03-05"},"SP98":{"p":1.829,"d":"2026-03-05"}}},{"id":46200004,"lat":44.899,"lng":1.475,"addr":"51 rue de la Récège","city":"SOUILLAC","cp":"46200","fuels":{"Gazole":{"p":1.909,"d":"2026-03-05"},"E85":{"p":0.758,"d":"2026-03-05"},"E10":{"p":1.721,"d":"2026-03-05"}}},{"id":46420001,"lat":44.724,"lng":1.917,"addr":"CD 940","city":"Lacapelle-Marival","cp":"46120","fuels":{"Gazole":{"p":1.795,"d":"2026-03-03"},"SP95":{"p":1.81,"d":"2026-03-03"},"SP98":{"p":1.867,"d":"2026-03-03"}}},{"id":46120001,"lat":44.728,"lng":1.921,"addr":"STATION SERVICE TOTAL ENERGIES - 142 route de Figeac","city":"LACAPELLE-MARIVAL","cp":"46120","fuels":{"Gazole":{"p":1.989,"d":"2026-03-04"},"E85":{"p":0.799,"d":"2026-03-04"},"E10":{"p":1.879,"d":"2026-03-04"},"SP98":{"p":1.989,"d":"2026-03-04"}}},{"id":46100006,"lat":44.61,"lng":2.028,"addr":"5 Avenue du Général de Gaulle","city":"Figeac","cp":"46100","fuels":{"Gazole":{"p":1.81,"d":"2026-03-02"},"SP95":{"p":1.82,"d":"2026-03-02"}}},{"id":46140003,"lat":44.478,"lng":1.305,"addr":"Caunezil","city":"Parnac","cp":"46140","fuels":{"Gazole":{"p":1.851,"d":"2026-03-04"},"E10":{"p":1.78,"d":"2026-03-04"},"SP98":{"p":1.829,"d":"2026-03-04"}}},{"id":46110001,"lat":45,"lng":1.64,"addr":"Rue de Turenne","city":"LES QUATRE ROUTES DU LOT","cp":"46110","fuels":{"Gazole":{"p":1.899,"d":"2026-03-05"},"E10":{"p":1.789,"d":"2026-03-05"},"SP98":{"p":1.899,"d":"2026-03-05"}}},{"id":46600005,"lat":45.032461104245996,"lng":1.5248918369564999,"addr":"AIRE DE PECH MONTAT BI-TRAFIC","city":"CRESSENSAC","cp":"46600","fuels":{"Gazole":{"p":2.144,"d":"2026-03-04"},"GPLc":{"p":1.099,"d":"2026-03-04"},"E10":{"p":2.094,"d":"2026-03-04"},"SP98":{"p":2.164,"d":"2026-03-04"}}},{"id":46240003,"lat":44.659,"lng":1.569,"addr":"Autoroute A20","city":"LABASTIDE-MURAT","cp":"46240","fuels":{"Gazole":{"p":1.989,"d":"2026-03-05"},"E85":{"p":0.999,"d":"2026-03-05"},"GPLc":{"p":1.064,"d":"2026-03-05"},"E10":{"p":2.009,"d":"2026-03-05"},"SP98":{"p":2.109,"d":"2026-03-05"}}},{"id":46320001,"lat":44.655314565001994,"lng":1.8508449975826,"addr":"Zone Artisanale Coupille","city":"LIVERNON","cp":"46320","fuels":{"Gazole":{"p":1.795,"d":"2026-03-03"},"E85":{"p":0.728,"d":"2026-02-20"},"E10":{"p":1.81,"d":"2026-03-03"}}},{"id":46230004,"lat":44.341103768778,"lng":1.5422035789824,"addr":"99 route de castelnau","city":"lalbenque","cp":"46230","fuels":{"Gazole":{"p":1.866,"d":"2026-02-23"},"SP95":{"p":1.952,"d":"2026-02-23"}}},{"id":46000008,"lat":44.469,"lng":1.43,"addr":"Combe du Paysan","city":"Cahors","cp":"46000","fuels":{"Gazole":{"p":1.849,"d":"2026-03-04"},"E85":{"p":0.729,"d":"2026-03-04"},"E10":{"p":1.734,"d":"2026-03-04"},"SP98":{"p":1.85,"d":"2026-03-04"}}},{"id":46500001,"lat":44.78723,"lng":1.74089,"addr":"ROUTE DE ST CERE","city":"Gramat","cp":"46500","fuels":{"Gazole":{"p":1.85,"d":"2026-03-03"},"SP95":{"p":1.86,"d":"2026-03-03"}}},{"id":46000013,"lat":44.449286900000004,"lng":1.4372362050987,"addr":"47, Avenue du 7 ème R.I.","city":"CAHORS","cp":"46000","fuels":{"Gazole":{"p":1.999,"d":"2026-03-05"},"E85":{"p":0.795,"d":"2026-03-03"},"GPLc":{"p":0.999,"d":"2026-02-12"},"E10":{"p":1.859,"d":"2026-03-05"},"SP98":{"p":1.939,"d":"2026-03-05"}}},{"id":46300007,"lat":44.74,"lng":1.391,"addr":"5 Boulevard de la Madeleine","city":"GOURDON","cp":"46300","fuels":{"Gazole":{"p":1.949,"d":"2026-03-03"},"E10":{"p":1.929,"d":"2026-03-03"},"SP98":{"p":1.999,"d":"2026-03-03"}}},{"id":46340001,"lat":44.679844320529,"lng":1.2609330195636,"addr":"Les Peyroutilles","city":"Salviac","cp":"46340","fuels":{"Gazole":{"p":1.849,"d":"2026-03-04"},"E85":{"p":0.729,"d":"2026-02-23"},"E10":{"p":1.769,"d":"2026-03-04"},"SP98":{"p":1.879,"d":"2026-03-04"}}},{"id":46150001,"lat":44.554,"lng":1.338,"addr":"LE CRABOL","city":"Catus","cp":"46150","fuels":{"Gazole":{"p":1.848,"d":"2026-03-04"},"E10":{"p":1.777,"d":"2026-03-03"},"SP98":{"p":1.841,"d":"2026-03-03"}}},{"id":46230005,"lat":44.343512136314,"lng":1.5414736828542,"addr":"231 ROUTE DE CAHORS","city":"LALBENQUE","cp":"46230","fuels":{"Gazole":{"p":1.859,"d":"2026-03-04"},"E10":{"p":1.759,"d":"2026-03-04"},"SP98":{"p":1.829,"d":"2026-03-04"}}},{"id":46400004,"lat":44.86,"lng":1.882,"addr":"401 Avenue de Monzie","city":"Saint-Céré","cp":"46400","fuels":{"Gazole":{"p":1.818,"d":"2026-03-03"},"E85":{"p":0.832,"d":"2026-03-03"},"E10":{"p":1.823,"d":"2026-03-03"},"SP98":{"p":1.924,"d":"2026-03-03"}}},{"id":46700001,"lat":44.501,"lng":1.143,"addr":"14 rue des platanes","city":"Puy-l'Évêque","cp":"46700","fuels":{"Gazole":{"p":1.769,"d":"2026-03-04"},"E10":{"p":1.699,"d":"2026-03-04"},"SP98":{"p":1.779,"d":"2026-03-04"}}},{"id":46300009,"lat":44.7422129,"lng":1.4355697,"addr":"ZA LES MILLEPOISES","city":"LE VIGAN","cp":"46300","fuels":{"Gazole":{"p":1.949,"d":"2026-03-03"},"E10":{"p":1.929,"d":"2026-03-03"}}},{"id":46300006,"lat":44.72,"lng":1.368,"addr":"Route de Salviac","city":"GOURDON","cp":"46300","fuels":{"Gazole":{"p":1.941,"d":"2026-03-05"},"E85":{"p":0.877,"d":"2026-02-04"},"GPLc":{"p":1.021,"d":"2025-11-17"},"E10":{"p":1.836,"d":"2026-03-04"},"SP98":{"p":1.921,"d":"2026-03-04"}}},{"id":46350002,"lat":44.798,"lng":1.473,"addr":"523 avenue de toulouse","city":"PAYRAC","cp":"46350","fuels":{"Gazole":{"p":1.799,"d":"2026-02-24"},"E10":{"p":1.776,"d":"2026-01-28"},"SP98":{"p":1.853,"d":"2026-01-21"}}},{"id":46100002,"lat":44.595,"lng":2.062,"addr":"Le Couquet CAPDENAC LE HAUT","city":"FIGEAC","cp":"46100","fuels":{"Gazole":{"p":1.929,"d":"2026-03-05"},"E85":{"p":0.727,"d":"2026-03-05"},"GPLc":{"p":1.047,"d":"2026-03-05"},"E10":{"p":1.709,"d":"2026-03-05"},"SP98":{"p":1.823,"d":"2026-03-05"}}},{"id":46500003,"lat":44.787,"lng":1.72,"addr":"route de Brive","city":"Gramat","cp":"46500","fuels":{"Gazole":{"p":1.819,"d":"2026-03-05"},"SP95":{"p":1.81,"d":"2026-03-05"},"E85":{"p":0.756,"d":"2026-03-05"},"E10":{"p":1.699,"d":"2026-03-05"},"SP98":{"p":1.818,"d":"2026-03-05"}}},{"id":46400002,"lat":44.867,"lng":1.887,"addr":"1125 avenue Charles de Gaulle","city":"SAINT-LAURENT-LES-TOURS","cp":"46400","fuels":{"Gazole":{"p":1.854,"d":"2026-03-04"},"SP95":{"p":1.705,"d":"2026-03-04"},"E10":{"p":1.698,"d":"2026-03-04"},"SP98":{"p":1.816,"d":"2026-03-04"}}},{"id":46100007,"lat":44.607,"lng":2.024,"addr":"15 Avenue Président Georges Pompidou","city":"FIGEAC","cp":"46100","fuels":{"Gazole":{"p":1.859,"d":"2026-03-04"},"SP95":{"p":1.879,"d":"2026-03-05"},"SP98":{"p":1.899,"d":"2026-03-05"}}},{"id":46000007,"lat":44.461,"lng":1.423,"addr":"Avenue Maryse Bastié","city":"Cahors","cp":"46000","fuels":{"Gazole":{"p":1.869,"d":"2026-03-05"},"E85":{"p":0.759,"d":"2026-03-05"},"E10":{"p":1.735,"d":"2026-03-05"},"SP98":{"p":1.85,"d":"2026-03-05"}}},{"id":46090003,"lat":44.469,"lng":1.483,"addr":"318 ROUTE DE CAHORS","city":"LAMAGDELAINE","cp":"46090","fuels":{"Gazole":{"p":1.99,"d":"2026-03-03"},"E10":{"p":1.849,"d":"2026-03-04"},"SP98":{"p":1.959,"d":"2026-03-04"}}},{"id":46140004,"lat":44.407817,"lng":1.257638,"addr":"LA SEOUNE EST","city":"Sauzet","cp":"46140","fuels":{"Gazole":{"p":1.92,"d":"2026-03-05"},"E10":{"p":1.85,"d":"2026-03-05"},"SP98":{"p":1.95,"d":"2026-03-04"}}},{"id":46300011,"lat":44.74,"lng":1.391,"addr":"9 BOULEVARD DE LA MADELEINE","city":"GOURDON","cp":"46300","fuels":{"Gazole":{"p":1.99,"d":"2026-03-05"},"E10":{"p":1.869,"d":"2026-03-05"},"SP98":{"p":1.979,"d":"2026-03-05"}}},{"id":46800003,"lat":44.339,"lng":1.201,"addr":"2264 Avenue saint jean","city":"Montcuq","cp":"46800","fuels":{"Gazole":{"p":1.892,"d":"2026-03-04"},"E10":{"p":1.846,"d":"2026-03-04"},"SP98":{"p":1.956,"d":"2026-03-04"}}},{"id":46160002,"lat":44.489,"lng":1.846,"addr":"230 avenue Germain Canet","city":"CAJARC","cp":"46160","fuels":{"Gazole":{"p":1.859,"d":"2026-03-04"},"E10":{"p":1.749,"d":"2026-03-04"},"SP98":{"p":1.885,"d":"2026-03-04"}}},{"id":46220003,"lat":44.502,"lng":1.186,"addr":"Chemin des Gaulies","city":"PRAYSSAC","cp":"46220","fuels":{"Gazole":{"p":1.769,"d":"2026-03-04"},"E85":{"p":0.728,"d":"2026-02-23"},"E10":{"p":1.699,"d":"2026-03-02"},"SP98":{"p":1.779,"d":"2026-02-23"}}},{"id":46500006,"lat":44.781,"lng":1.727,"addr":"1 RUE LOUIS FAJOLLES","city":"Gramat","cp":"46500","fuels":{"Gazole":{"p":1.815,"d":"2026-03-05"},"E10":{"p":1.83,"d":"2026-03-05"},"SP98":{"p":1.9,"d":"2026-03-05"}}},{"id":46200001,"lat":44.899,"lng":1.477,"addr":"Avenue du Général de Gaulle","city":"Souillac","cp":"46200","fuels":{"Gazole":{"p":1.99,"d":"2026-03-04"},"E85":{"p":0.795,"d":"2026-02-13"},"E10":{"p":1.832,"d":"2026-03-05"},"SP98":{"p":1.942,"d":"2026-03-05"}}},{"id":46260002,"lat":44.396,"lng":1.768,"addr":"309 AVENUE DE CAHORS","city":"LIMOGNE EN QUERCY","cp":"46260","fuels":{"Gazole":{"p":1.75,"d":"2026-01-31"},"E10":{"p":1.77,"d":"2026-01-31"},"SP98":{"p":1.87,"d":"2026-01-31"}}},{"id":46090002,"lat":44.464,"lng":1.421,"addr":"Route de Luzech","city":"CAHORS","cp":"46000","fuels":{"Gazole":{"p":1.869,"d":"2026-03-04"},"E85":{"p":0.729,"d":"2026-03-04"},"GPLc":{"p":0.999,"d":"2026-02-17"},"E10":{"p":1.735,"d":"2026-03-04"},"SP98":{"p":1.829,"d":"2026-03-04"}}},{"id":46110003,"lat":44.953,"lng":1.703,"addr":"189, avenue de Saint Céré","city":"VAYRAC","cp":"46110","fuels":{"Gazole":{"p":1.949,"d":"2026-03-02"},"E10":{"p":1.929,"d":"2026-03-02"},"SP98":{"p":1.999,"d":"2026-03-02"}}}]