[{"id":60120004,"lat":49.635,"lng":2.286,"addr":"84 Avenue du Général Frère","city":"Breteuil","cp":"60120","fuels":{"Gazole":{"p":1.982,"d":"2026-03-05"},"E10":{"p":1.821,"d":"2026-03-05"},"SP98":{"p":1.931,"d":"2026-03-05"}},"brand":"TotalEnergies"},{"id":60140003,"lat":49.32593,"lng":2.46409,"addr":"Rue du Général de Gaulle","city":"Liancourt","cp":"60140","fuels":{"Gazole":{"p":2.05,"d":"2026-03-05"},"E10":{"p":1.809,"d":"2026-03-05"},"SP98":{"p":1.909,"d":"2026-03-05"}},"brand":"Leclerc"},{"id":60650006,"lat":49.417,"lng":1.924,"addr":"RN31 - LE VIVIER DANGER","city":"ONS EN BRAY","cp":"60650","fuels":{"Gazole":{"p":1.788,"d":"2026-03-03"},"SP95":{"p":1.808,"d":"2026-03-03"},"SP98":{"p":1.877,"d":"2026-03-03"}},"brand":"Carrefour"},{"id":60560001,"lat":49.131,"lng":2.521,"addr":"Rue des Pâturages","city":"ORRY-LA-VILLE","cp":"60560","fuels":{"Gazole":{"p":1.859,"d":"2026-03-04"},"E10":{"p":1.759,"d":"2026-03-04"},"SP98":{"p":1.869,"d":"2026-03-04"}},"brand":"Intermarché"},{"id":60210002,"lat":49.66,"lng":1.941,"addr":"RUE EUGENE ST FUSCIEN","city":"GRANDVILLIERS","cp":"60210","fuels":{"Gazole":{"p":1.84,"d":"2026-03-05"},"SP95":{"p":1.804,"d":"2026-03-05"},"SP98":{"p":1.885,"d":"2026-03-05"}},"brand":"Carrefour"},{"id":60510001,"lat":49.419,"lng":2.255,"addr":"ZONE DE LA COUTURELLE","city":"Bresles","cp":"60510","fuels":{"E85":{"p":0.759,"d":"2026-03-05"}},"brand":"Intermarché"},{"id":60370002,"lat":49.352,"lng":2.239,"addr":"125 RUE DE NOAILLES","city":"HERMES","cp":"60370","fuels":{"Gazole":{"p":1.979,"d":"2026-03-05"},"SP95":{"p":1.829,"d":"2026-03-05"},"E10":{"p":1.755,"d":"2026-03-05"},"SP98":{"p":1.869,"d":"2026-03-05"}},"brand":"Intermarché"},{"id":60700004,"lat":49.306,"lng":2.604,"addr":"39 41 RUE DE LA REPUBLIQUE","city":"Pont-Sainte-Maxence","cp":"60700","fuels":{"Gazole":{"p":1.879,"d":"2026-03-05"},"E85":{"p":0.769,"d":"2026-03-05"},"E10":{"p":1.729,"d":"2026-03-05"},"SP98":{"p":1.842,"d":"2026-03-05"}},"brand":"TotalEnergies"},{"id":60250003,"lat":49.321,"lng":2.33,"addr":"Route de Beauvais","city":"ANGY","cp":"60250","fuels":{"Gazole":{"p":1.972,"d":"2026-03-05"},"E85":{"p":0.759,"d":"2026-03-05"},"E10":{"p":1.746,"d":"2026-03-05"},"SP98":{"p":1.858,"d":"2026-03-05"}},"brand":"Intermarché"},{"id":60220002,"lat":49.65,"lng":1.722,"addr":"ROUTE D'HAUCOURT","city":"FORMERIE","cp":"60220","fuels":{"Gazole":{"p":1.989,"d":"2026-03-05"},"E10":{"p":1.789,"d":"2026-03-05"},"SP98":{"p":1.899,"d":"2026-03-05"}},"brand":"Auchan"},{"id":60000015,"lat":49.433,"lng":2.093,"addr":"14 RUE DE CLERMONT","city":"Beauvais","cp":"60000","fuels":{"Gazole":{"p":2.019,"d":"2026-03-05"},"E85":{"p":0.969,"d":"2026-03-05"},"GPLc":{"p":0.989,"d":"2026-03-05"},"E10":{"p":1.849,"d":"2026-03-05"},"SP98":{"p":2.019,"d":"2026-03-05"}},"brand":"BP"},{"id":60590002,"lat":49.356,"lng":1.77,"addr":"ZAC LA REMIS DU FRIER","city":"Sérifontaine","cp":"60590","fuels":{"Gazole":{"p":1.659,"d":"2026-02-06"},"SP95":{"p":1.709,"d":"2026-02-06"},"SP98":{"p":1.759,"d":"2026-02-06"}},"brand":"Carrefour"},{"id":60310001,"lat":49.59,"lng":2.854,"addr":"Zone Artisanale","city":"Lassigny","cp":"60310","fuels":{"Gazole":{"p":1.999,"d":"2026-03-05"},"SP95":{"p":1.869,"d":"2026-03-05"},"E10":{"p":1.789,"d":"2026-03-05"},"SP98":{"p":1.899,"d":"2026-03-05"}},"brand":"Leclerc"},{"id":60260002,"lat":49.15012446903,"lng":2.4247054883606998,"addr":"Z.A DE LA SEIGNEURIE","city":"Lamorlaye","cp":"60260","fuels":{"Gazole":{"p":1.939,"d":"2026-03-05"},"E85":{"p":0.759,"d":"2026-03-03"},"E10":{"p":1.749,"d":"2026-03-05"},"SP98":{"p":1.859,"d":"2026-03-05"}},"brand":"Intermarché"},{"id":60800003,"lat":49.227,"lng":2.884,"addr":"BD KENNEDY","city":"CRéPY-EN-VALOIS","cp":"60800","fuels":{"Gazole":{"p":1.819,"d":"2026-03-04"},"SP95":{"p":1.809,"d":"2026-03-03"},"SP98":{"p":1.849,"d":"2026-03-04"}},"brand":"Carrefour"},{"id":60400001,"lat":49.57117,"lng":2.97854,"addr":"Z.a.c. Mont-Renaud","city":"NOYON","cp":"60400","fuels":{"Gazole":{"p":1.886,"d":"2026-03-05"},"GPLc":{"p":0.864,"d":"2026-03-04"},"E10":{"p":1.737,"d":"2026-03-05"},"SP98":{"p":1.833,"d":"2026-03-05"}},"brand":"Auchan"},{"id":60200002,"lat":49.41897,"lng":2.81861,"addr":"13 Rue de Clermont","city":"Compiègne","cp":"60200","fuels":{"Gazole":{"p":1.884,"d":"2026-03-03"},"SP95":{"p":1.85,"d":"2026-03-03"}},"brand":"Sarl Max Guerdin"},{"id":60730004,"lat":49.294719957049,"lng":2.1986864028575,"addr":"180 route nationale 1","city":"Sainte-Geneviève","cp":"60730","fuels":{"Gazole":{"p":1.99,"d":"2026-03-05"},"E85":{"p":0.779,"d":"2026-03-05"},"SP98":{"p":1.959,"d":"2026-03-05"}},"brand":"TotalEnergies"},{"id":60290003,"lat":49.322,"lng":2.437,"addr":"Route de Mouy","city":"CAUFFRY","cp":"60290","fuels":{"Gazole":{"p":1.949,"d":"2026-03-05"},"GPLc":{"p":0.959,"d":"2026-03-02"},"E10":{"p":1.738,"d":"2026-03-05"},"SP98":{"p":1.843,"d":"2026-03-05"}},"brand":"Intermarché"},{"id":60120006,"lat":49.60849,"lng":2.20488,"addr":"AUTOROUTE A16 - AIRE HARDIVILLERS","city":"HARDIVILLERS","cp":"60120","fuels":{"Gazole":{"p":1.99,"d":"2026-03-05"},"E85":{"p":0.999,"d":"2026-03-05"},"E10":{"p":1.886,"d":"2026-03-05"},"SP98":{"p":1.99,"d":"2026-03-05"}},"brand":"TotalEnergies"},{"id":60360001,"lat":49.604,"lng":2.085,"addr":"Avenue du Général de Gaulle","city":"CRèVECOEUR-LE-GRAND","cp":"60360","fuels":{"Gazole":{"p":1.84,"d":"2026-03-05"},"SP95":{"p":1.804,"d":"2026-03-05"},"SP98":{"p":1.885,"d":"2026-03-05"}},"brand":"Carrefour"},{"id":60380001,"lat":49.548,"lng":1.846,"addr":"39 Route de Dieppe","city":"SONGEONS","cp":"60380","fuels":{"Gazole":{"p":1.739,"d":"2026-03-03"},"SP95":{"p":1.776,"d":"2026-03-03"},"SP98":{"p":1.877,"d":"2026-03-03"}},"brand":"Municipalité"},{"id":60750003,"lat":49.442233200000004,"lng":2.8829544,"addr":"100 rue de royaumont","city":"Choisy-au-Bac","cp":"60750","fuels":{"Gazole":{"p":1.889,"d":"2026-03-04"},"E10":{"p":1.769,"d":"2026-03-02"},"SP98":{"p":1.879,"d":"2026-03-02"}},"brand":"Shopi"},{"id":60100007,"lat":49.272,"lng":2.486,"addr":"LA VALLEE DE NOGENT-RN16","city":"CREIL","cp":"60100","fuels":{"Gazole":{"p":1.99,"d":"2026-03-05"},"GPLc":{"p":0.884,"d":"2026-03-05"},"E10":{"p":1.833,"d":"2026-03-05"},"SP98":{"p":1.943,"d":"2026-03-05"}},"brand":"TotalEnergies"},{"id":60500010,"lat":49.191,"lng":2.464,"addr":"28 Avenue du Maréchal Joffre","city":"Chantilly","cp":"60500","fuels":{"Gazole":{"p":2.039,"d":"2026-03-04"},"E85":{"p":0.959,"d":"2026-03-04"},"E10":{"p":1.859,"d":"2026-03-04"},"SP98":{"p":2.029,"d":"2026-03-04"}},"brand":"BP"},{"id":60290002,"lat":49.323,"lng":2.448,"addr":"45 Rue du 1er Septembre","city":"CAUFFRY","cp":"60290","fuels":{"Gazole":{"p":1.985,"d":"2026-03-05"},"SP95":{"p":1.804,"d":"2026-03-05"},"E85":{"p":0.683,"d":"2026-03-05"},"E10":{"p":1.739,"d":"2026-03-05"}},"brand":"Leclerc"},{"id":60650004,"lat":49.422,"lng":1.978,"addr":"RD 931 Lieu dit \"Bois du Renard\"","city":"Saint-Paul","cp":"60650","fuels":{"Gazole":{"p":1.756,"d":"2026-03-04"},"E85":{"p":0.759,"d":"2026-03-04"},"E10":{"p":1.739,"d":"2026-03-04"},"SP98":{"p":1.788,"d":"2026-03-04"}},"brand":"Groupement des Mousquetaires"},{"id":60530003,"lat":49.229,"lng":2.282,"addr":"ZI route de Crouy","city":"Neuilly-en-Thelle","cp":"60530","fuels":{"Gazole":{"p":1.8,"d":"2026-03-03"},"SP95":{"p":1.81,"d":"2026-03-03"},"E10":{"p":1.77,"d":"2026-03-03"},"SP98":{"p":1.87,"d":"2026-03-03"}},"brand":"Carrefour"},{"id":60440001,"lat":49.136,"lng":2.801,"addr":"CHEMIN DE LA CROIX VERTE","city":"NANTEUIL-LE-HAUDOUIN","cp":"60440","fuels":{"Gazole":{"p":1.939,"d":"2026-03-05"},"SP95":{"p":1.819,"d":"2026-03-05"},"E85":{"p":0.759,"d":"2026-03-05"},"E10":{"p":1.749,"d":"2026-03-05"},"SP98":{"p":1.859,"d":"2026-03-05"}},"brand":"Intermarché"},{"id":60420001,"lat":49.553,"lng":2.533,"addr":"2 rue de la croix de coivrel","city":"Maignelay-Montigny","cp":"60420","fuels":{"Gazole":{"p":1.905,"d":"2026-03-05"},"SP95":{"p":1.835,"d":"2026-03-04"},"SP98":{"p":1.895,"d":"2026-03-04"}},"brand":"Carrefour"},{"id":60000010,"lat":49.443,"lng":2.093,"addr":"40 avenue du 8 Mai 1945","city":"Beauvais","cp":"60000","fuels":{"Gazole":{"p":1.933,"d":"2026-03-05"},"SP95":{"p":1.785,"d":"2026-03-05"},"E85":{"p":0.758,"d":"2026-03-04"},"GPLc":{"p":0.975,"d":"2025-09-16"},"SP98":{"p":1.823,"d":"2026-03-05"}},"brand":"Intermarché"},{"id":60800009,"lat":49.231867,"lng":2.8862517249882,"addr":"20 rue Charles de Gaulle","city":"Crépy-en-Valois","cp":"60800","fuels":{"Gazole":{"p":2.1,"d":"2026-03-05"},"E10":{"p":1.98,"d":"2026-03-05"},"SP98":{"p":1.975,"d":"2026-03-05"}},"brand":"Monoprix"},{"id":60400003,"lat":49.575,"lng":2.999,"addr":"rue du moulin d'andeux","city":"Noyon","cp":"60400","fuels":{"Gazole":{"p":1.765,"d":"2026-03-04"},"E85":{"p":0.728,"d":"2026-01-28"},"E10":{"p":1.673,"d":"2026-02-28"},"SP98":{"p":1.752,"d":"2026-02-28"}},"brand":"Intermarché"},{"id":60490008,"lat":49.539,"lng":2.702,"addr":"RD 1017","city":"CUVILLY","cp":"60490","fuels":{"Gazole":{"p":1.899,"d":"2026-03-05"},"E10":{"p":1.759,"d":"2026-03-05"}},"brand":"TotalEnergies"},{"id":60320001,"lat":49.298,"lng":2.798,"addr":"176, Avenue de la Gare","city":"BéTHISY-SAINT-PIERRE","cp":"60320","fuels":{"Gazole":{"p":1.789,"d":"2026-03-02"},"SP95":{"p":1.799,"d":"2026-03-02"},"E85":{"p":0.759,"d":"2026-03-02"},"E10":{"p":1.769,"d":"2026-03-02"},"SP98":{"p":1.879,"d":"2026-03-02"}},"brand":"Carrefour"},{"id":60490001,"lat":49.551,"lng":2.752,"addr":"69 Rue du Moulin","city":"LA NEUVILLE-SUR-RESSONS","cp":"60490","fuels":{"Gazole":{"p":1.909,"d":"2026-03-04"},"E10":{"p":1.784,"d":"2026-03-04"},"SP98":{"p":1.928,"d":"2026-03-04"}},"brand":"Carrefour"},{"id":60800005,"lat":49.224659428094,"lng":2.9054913758613,"addr":"rue Henri LAROCHE","city":"Crépy-en-Valois","cp":"60800","fuels":{"Gazole":{"p":1.929,"d":"2026-03-05"},"SP95":{"p":1.809,"d":"2026-03-05"},"E85":{"p":0.758,"d":"2026-03-05"},"E10":{"p":1.729,"d":"2026-03-05"},"SP98":{"p":1.809,"d":"2026-03-05"}},"brand":"Groupement des Mousquetaires"},{"id":60220006,"lat":49.652,"lng":1.728,"addr":"2 RUE ALAVOINE","city":"Formerie","cp":"60220","fuels":{"Gazole":{"p":1.99,"d":"2026-03-04"},"SP95":{"p":1.95,"d":"2026-03-04"},"E85":{"p":0.991,"d":"2026-03-03"},"SP98":{"p":1.99,"d":"2026-03-04"}},"brand":"TotalEnergies"},{"id":60400005,"lat":49.575,"lng":2.99,"addr":"70 avenue Jean Jaurès","city":"NOYON","cp":"60400","fuels":{"Gazole":{"p":1.885,"d":"2026-03-05"},"E85":{"p":0.756,"d":"2026-03-05"},"E10":{"p":1.729,"d":"2026-03-05"},"SP98":{"p":1.849,"d":"2026-03-05"}},"brand":"TotalEnergies"},{"id":60100004,"lat":49.251,"lng":2.476,"addr":"8 Route de Chantilly","city":"CREIL","cp":"60100","fuels":{"Gazole":{"p":1.999,"d":"2026-03-04"},"GPLc":{"p":1.039,"d":"2026-03-02"},"E10":{"p":1.849,"d":"2026-03-04"},"SP98":{"p":1.949,"d":"2026-03-04"}},"brand":"Esso"},{"id":60110002,"lat":49.223,"lng":2.137,"addr":"Cc Les Marquises, Rue Marcel Coquet","city":"Méru","cp":"60110","fuels":{"Gazole":{"p":1.989,"d":"2026-03-05"},"E10":{"p":1.765,"d":"2026-03-04"},"SP98":{"p":1.905,"d":"2026-03-04"}},"brand":"Auchan"},{"id":60500011,"lat":49.2047622946,"lng":2.4618766547599997,"addr":"ZONE ARTISANALE RN 16","city":"Chantilly","cp":"60500","fuels":{"Gazole":{"p":1.894,"d":"2026-03-05"},"E10":{"p":1.735,"d":"2026-03-05"},"SP98":{"p":1.851,"d":"2026-03-05"}},"brand":"TotalEnergies"},{"id":60360002,"lat":49.604,"lng":2.085,"addr":"8 avenue du Général de Gaulle","city":"Crèvec&#339;ur-le-Grand","cp":"60360","fuels":{"Gazole":{"p":1.926,"d":"2026-03-05"},"SP95":{"p":1.855,"d":"2026-03-05"},"E10":{"p":1.774,"d":"2026-03-05"}},"brand":"Leclerc"},{"id":60110006,"lat":49.214,"lng":2.125,"addr":"1 rue de londres","city":"Amblainville","cp":"60110","fuels":{"Gazole":{"p":1.904,"d":"2026-03-05"},"E85":{"p":0.809,"d":"2026-01-28"},"E10":{"p":1.749,"d":"2026-03-05"},"SP98":{"p":1.859,"d":"2026-03-05"}},"brand":"TotalEnergies"},{"id":60150003,"lat":49.479,"lng":2.868,"addr":"ZAC DU GROS GRELOT","city":"THOUROTTE","cp":"60150","fuels":{"Gazole":{"p":1.94,"d":"2026-03-05"},"GPLc":{"p":0.855,"d":"2026-03-05"},"E10":{"p":1.729,"d":"2026-03-05"},"SP98":{"p":1.859,"d":"2026-03-05"}},"brand":"Station U"},{"id":60300008,"lat":49.208,"lng":2.59,"addr":"5/10 AVENUE MARECHAL FOCH","city":"SENLIS","cp":"60300","fuels":{"Gazole":{"p":2.039,"d":"2026-03-05"},"E85":{"p":0.969,"d":"2026-03-05"},"E10":{"p":1.899,"d":"2026-03-05"},"SP98":{"p":2.049,"d":"2026-03-05"}},"brand":"BP"},{"id":60200008,"lat":49.394919671941,"lng":2.7929386448763003,"addr":"1 Esplanade Marguerite Perey","city":"Compiègne","cp":"60200","fuels":{"Gazole":{"p":1.879,"d":"2026-03-05"},"E85":{"p":0.729,"d":"2026-03-05"},"E10":{"p":1.709,"d":"2026-03-05"},"SP98":{"p":1.829,"d":"2026-03-05"}}},{"id":60230002,"lat":49.156217844245,"lng":2.2546061423989,"addr":"Rue Truffaut","city":"CHAMBLY","cp":"60230","fuels":{"Gazole":{"p":1.989,"d":"2026-03-05"},"E85":{"p":0.855,"d":"2026-02-22"},"E10":{"p":1.76,"d":"2026-03-04"},"SP98":{"p":1.9,"d":"2026-03-04"}},"brand":"Leclerc"},{"id":60800008,"lat":49.23,"lng":2.906,"addr":"9 Rue Saint-Germain","city":"Crépy-en-Valois","cp":"60800","fuels":{"Gazole":{"p":1.929,"d":"2026-03-05"},"E85":{"p":0.738,"d":"2026-03-05"},"E10":{"p":1.729,"d":"2026-03-05"},"SP98":{"p":1.799,"d":"2026-03-05"}},"brand":"Leclerc"},{"id":60000006,"lat":49.43,"lng":2.092,"addr":"1 AVE KENNEDY","city":"Beauvais","cp":"60000","fuels":{"Gazole":{"p":1.809,"d":"2026-03-04"},"E10":{"p":1.769,"d":"2026-03-04"},"SP98":{"p":1.809,"d":"2026-03-04"}},"brand":"Esso"},{"id":60200005,"lat":49.419,"lng":2.82,"addr":"20 Rue de Clermont","city":"Compiègne","cp":"60200","fuels":{"Gazole":{"p":1.798,"d":"2026-03-04"},"E10":{"p":1.708,"d":"2026-03-04"},"SP98":{"p":1.808,"d":"2026-03-04"}},"brand":"Esso"},{"id":60200006,"lat":49.401,"lng":2.807,"addr":"12 Avenue des Martyrs de la Liberté","city":"Compiègne","cp":"60200","fuels":{"Gazole":{"p":1.738,"d":"2026-03-04"},"E10":{"p":1.704,"d":"2026-03-04"},"SP98":{"p":1.803,"d":"2026-03-04"}},"brand":"Esso"},{"id":60330004,"lat":49.0978508,"lng":2.7515402,"addr":"45 ROUTE DE PARIS","city":"Le Plessis-Belleville","cp":"60330","fuels":{"Gazole":{"p":1.926,"d":"2026-03-05"},"E85":{"p":0.756,"d":"2026-03-05"},"GPLc":{"p":0.959,"d":"2026-03-05"},"E10":{"p":1.762,"d":"2026-03-05"},"SP98":{"p":1.859,"d":"2026-03-05"}},"brand":"TotalEnergies"},{"id":60500002,"lat":49.178,"lng":2.456,"addr":"41 Avenue du Général Leclerc","city":"Chantilly","cp":"60500","fuels":{"Gazole":{"p":1.903,"d":"2026-03-05"},"E10":{"p":1.744,"d":"2026-03-05"},"SP98":{"p":1.86,"d":"2026-03-05"}},"brand":"Esso"},{"id":60870002,"lat":49.289,"lng":2.5,"addr":"Avenue des Pommiers","city":"VILLERS-SAINT-PAUL","cp":"60870","fuels":{"Gazole":{"p":1.899,"d":"2026-03-04"},"SP95":{"p":1.88,"d":"2026-03-04"},"E10":{"p":1.73,"d":"2026-03-04"},"SP98":{"p":1.899,"d":"2026-03-04"}},"brand":"Intermarché"},{"id":60700005,"lat":49.317,"lng":2.606,"addr":"avenue d'auvelais","city":"pont sainte maxence","cp":"60700","fuels":{"Gazole":{"p":1.992,"d":"2026-03-05"},"SP95":{"p":1.828,"d":"2026-03-05"},"E85":{"p":0.758,"d":"2026-02-21"},"E10":{"p":1.728,"d":"2026-03-05"},"SP98":{"p":1.839,"d":"2026-03-05"}},"brand":"Leclerc"},{"id":60000017,"lat":49.402495035409,"lng":2.1278669713141003,"addr":"ZAC SAINT-MATHURIN - RD1001","city":"Allonne","cp":"60000","fuels":{"Gazole":{"p":1.892,"d":"2026-03-05"},"E85":{"p":0.762,"d":"2026-03-05"},"E10":{"p":1.759,"d":"2026-03-05"},"SP98":{"p":1.859,"d":"2026-03-05"}}},{"id":60210003,"lat":49.666,"lng":1.959,"addr":"Route de Crèvecoeur","city":"Grandvilliers","cp":"60210","fuels":{"Gazole":{"p":1.877,"d":"2026-03-04"},"SP95":{"p":1.813,"d":"2026-03-04"},"E85":{"p":0.759,"d":"2026-03-04"},"E10":{"p":1.735,"d":"2026-03-04"}},"brand":"Intermarché"},{"id":60110004,"lat":49.21043,"lng":2.151187,"addr":"A16 - SORTIE 13","city":"MERU","cp":"60110","fuels":{"Gazole":{"p":1.99,"d":"2026-03-05"},"E10":{"p":1.886,"d":"2026-03-05"}},"brand":"TotalEnergies"},{"id":60140002,"lat":49.329,"lng":2.464,"addr":"6 Rue Victor Hugo","city":"Liancourt","cp":"60140","fuels":{"Gazole":{"p":1.971,"d":"2026-03-04"},"SP95":{"p":1.856,"d":"2026-03-04"}},"brand":"TotalEnergies"},{"id":60200011,"lat":49.38626,"lng":2.7848,"addr":"Avenue de l' Europe","city":"Compiègne","cp":"60200","fuels":{"Gazole":{"p":1.99,"d":"2026-03-04"},"E10":{"p":1.826,"d":"2026-03-05"},"SP98":{"p":1.936,"d":"2026-03-05"}},"brand":"TotalEnergies"},{"id":60126001,"lat":49.359,"lng":2.718,"addr":"202 RUE DE PICARDIE","city":"Longueil-Sainte-Marie","cp":"60126","fuels":{"Gazole":{"p":1.84,"d":"2026-03-04"},"SP95":{"p":1.799,"d":"2026-03-04"}},"brand":"Coccinelle"},{"id":60490007,"lat":49.5236,"lng":2.72292,"addr":"AUTOROUTE A1 - AIRE DE RESSONS EST","city":"RESSONS SUR MATZ","cp":"60490","fuels":{"Gazole":{"p":1.99,"d":"2026-03-05"},"E85":{"p":0.999,"d":"2026-03-05"},"GPLc":{"p":0.989,"d":"2026-03-05"},"E10":{"p":1.889,"d":"2026-03-05"},"SP98":{"p":1.979,"d":"2026-03-05"}},"brand":"TotalEnergies"},{"id":60280003,"lat":49.4312668816,"lng":2.8373434750855,"addr":"254 avenue de la république","city":"CLAIROIX","cp":"60280","fuels":{"Gazole":{"p":1.899,"d":"2026-03-05"},"E85":{"p":0.729,"d":"2026-01-16"},"E10":{"p":1.719,"d":"2026-03-05"},"SP98":{"p":1.849,"d":"2026-03-05"}},"brand":"Intermarché"},{"id":60000012,"lat":49.431,"lng":2.118,"addr":"RN 31 - ROUTE DE CLERMONT","city":"BEAUVAIS","cp":"60000","fuels":{"Gazole":{"p":1.99,"d":"2026-03-05"},"E85":{"p":0.759,"d":"2026-03-05"},"GPLc":{"p":0.985,"d":"2026-03-05"},"E10":{"p":1.849,"d":"2026-03-05"},"SP98":{"p":1.959,"d":"2026-03-05"}},"brand":"TotalEnergies"},{"id":60600004,"lat":49.3826,"lng":2.40177,"addr":"Rue Gérard de Nerval","city":"CLERMONT","cp":"60600","fuels":{"Gazole":{"p":1.943,"d":"2026-03-05"},"SP95":{"p":1.799,"d":"2026-03-04"},"E10":{"p":1.729,"d":"2026-03-05"},"SP98":{"p":1.831,"d":"2026-03-05"}},"brand":"Intermarché"},{"id":60410003,"lat":49.30913,"lng":2.73049,"addr":"Rue Juliette Adam","city":"Verberie","cp":"60410","fuels":{"Gazole":{"p":1.919,"d":"2026-03-04"},"SP95":{"p":1.839,"d":"2026-03-04"},"SP98":{"p":1.919,"d":"2026-03-04"}},"brand":"Leclerc"},{"id":60112002,"lat":49.484,"lng":2.047,"addr":"Rue de Dieppe","city":"Troissereux","cp":"60112","fuels":{"Gazole":{"p":1.976,"d":"2026-03-05"},"E10":{"p":1.825,"d":"2026-03-05"},"SP98":{"p":1.935,"d":"2026-03-05"}},"brand":"TotalEnergies"},{"id":60160003,"lat":49.256,"lng":2.432,"addr":"33, RUE GUY MOQUET","city":"MONTATAIRE","cp":"60160","fuels":{"Gazole":{"p":1.886,"d":"2026-03-05"},"E85":{"p":0.745,"d":"2026-03-05"},"E10":{"p":1.729,"d":"2026-03-05"},"SP98":{"p":1.839,"d":"2026-03-05"}},"brand":"TotalEnergies"},{"id":60180001,"lat":49.276,"lng":2.486,"addr":"Rue du Marais Sec","city":"NOGENT-SUR-OISE","cp":"60180","fuels":{"Gazole":{"p":1.892,"d":"2026-03-05"},"E85":{"p":0.749,"d":"2026-02-06"},"GPLc":{"p":0.884,"d":"2026-03-04"},"E10":{"p":1.749,"d":"2026-03-04"},"SP98":{"p":1.859,"d":"2026-03-04"}},"brand":"Auchan"},{"id":60540002,"lat":49.2013605,"lng":2.2042972,"addr":"10 RUE LOUIS DENOUAL","city":"BORNEL","cp":"60540","fuels":{"Gazole":{"p":2.06,"d":"2026-03-04"},"E10":{"p":1.899,"d":"2026-03-04"},"SP98":{"p":1.97,"d":"2026-03-04"}},"brand":"Carrefour"},{"id":60300007,"lat":49.211,"lng":2.593,"addr":"64/66 AV. MAL FOCH","city":"SENLIS","cp":"60300","fuels":{"Gazole":{"p":1.99,"d":"2026-03-05"},"E85":{"p":0.769,"d":"2026-03-05"},"E10":{"p":1.849,"d":"2026-03-05"},"SP98":{"p":1.959,"d":"2026-03-05"}},"brand":"TotalEnergies"},{"id":60230004,"lat":49.188,"lng":2.235,"addr":"RN1 ROUTE PARIS","city":"CHAMBLY","cp":"60230","fuels":{"Gazole":{"p":1.899,"d":"2026-03-05"},"GPLc":{"p":0.859,"d":"2026-03-05"},"E10":{"p":1.745,"d":"2026-03-05"},"SP98":{"p":1.849,"d":"2026-03-05"}},"brand":"TotalEnergies"},{"id":60240001,"lat":49.272,"lng":1.874,"addr":"ZAC du moulin d'Angean","city":"Chaumont-en-Vexin","cp":"60240","fuels":{"Gazole":{"p":1.835,"d":"2026-03-04"},"E10":{"p":1.728,"d":"2026-03-03"},"SP98":{"p":1.805,"d":"2026-03-04"}}},{"id":60680003,"lat":49.403,"lng":2.739,"addr":"RN 31 - ROUTE DE CLERMONT","city":"JONQUIERES","cp":"60680","fuels":{"Gazole":{"p":1.889,"d":"2026-03-05"},"E85":{"p":0.751,"d":"2026-03-05"},"E10":{"p":1.744,"d":"2026-03-05"},"SP98":{"p":1.851,"d":"2026-03-05"}},"brand":"AS 24"},{"id":60290005,"lat":49.33673,"lng":2.43351,"addr":"RN.16 RTE DE CLERMONT","city":"RANTIGNY","cp":"60290","fuels":{"Gazole":{"p":1.874,"d":"2026-03-05"},"E85":{"p":0.739,"d":"2026-03-05"},"E10":{"p":1.725,"d":"2026-03-05"},"SP98":{"p":1.844,"d":"2026-03-05"}},"brand":"TotalEnergies"},{"id":60300010,"lat":49.221,"lng":2.593,"addr":"DEVIATION NORD DE SENLIS - Avenue du Poteau","city":"CHAMANT","cp":"60300","fuels":{"Gazole":{"p":1.99,"d":"2026-03-05"},"E85":{"p":0.769,"d":"2026-03-05"},"E10":{"p":1.849,"d":"2026-03-05"},"SP98":{"p":1.959,"d":"2026-03-05"}},"brand":"TotalEnergies"},{"id":60870003,"lat":49.284,"lng":2.492,"addr":"ROCADE INDUSTRIELLE","city":"Villers-Saint-Paul","cp":"60870","fuels":{"Gazole":{"p":1.891,"d":"2026-03-05"},"E85":{"p":0.749,"d":"2026-03-05"}},"brand":"TotalEnergies"},{"id":60120005,"lat":49.641,"lng":2.279,"addr":"88 rue d`Amiens les Hiebles ZAC NORD","city":"BRETEUIL","cp":"60120","fuels":{"Gazole":{"p":1.982,"d":"2026-03-05"},"SP95":{"p":1.796,"d":"2026-03-04"},"E85":{"p":0.72,"d":"2026-02-22"},"E10":{"p":1.739,"d":"2026-03-05"}},"brand":"Leclerc"},{"id":60390001,"lat":49.368,"lng":1.987,"addr":"450 Rue des Aulnes","city":"AUNEUIL","cp":"60390","fuels":{"Gazole":{"p":1.859,"d":"2026-03-04"},"E10":{"p":1.725,"d":"2026-03-04"},"SP98":{"p":1.82,"d":"2026-03-04"}},"brand":"Carrefour"},{"id":60340001,"lat":49.208,"lng":2.391,"addr":"ROUTE DE PRECY","city":"VILLERS-SOUS-SAINT-LEU","cp":"60340","fuels":{"Gazole":{"p":1.969,"d":"2026-03-05"},"E10":{"p":1.76,"d":"2026-03-05"},"SP98":{"p":1.868,"d":"2026-03-05"}},"brand":"Carrefour"},{"id":60500008,"lat":49.202,"lng":2.463,"addr":"Allée de l'Europe","city":"Chantilly","cp":"60500","fuels":{"Gazole":{"p":1.899,"d":"2026-03-05"},"SP95":{"p":1.839,"d":"2026-03-04"},"SP98":{"p":1.889,"d":"2026-03-04"}},"brand":"Carrefour"},{"id":60300005,"lat":49.221,"lng":2.591,"addr":"Centre Commercial Villevert","city":"SENLIS","cp":"60300","fuels":{"Gazole":{"p":1.937,"d":"2026-03-05"},"E85":{"p":0.728,"d":"2026-03-03"},"E10":{"p":1.747,"d":"2026-03-05"},"SP98":{"p":1.857,"d":"2026-03-05"}},"brand":"Intermarché"},{"id":60190003,"lat":49.403,"lng":2.626,"addr":"RN 17 / RN 31","city":"MOYVILLERS","cp":"60190","fuels":{"Gazole":{"p":1.99,"d":"2026-03-05"},"SP95":{"p":1.741,"d":"2026-02-09"},"E85":{"p":0.772,"d":"2026-03-05"},"E10":{"p":1.829,"d":"2026-03-05"},"SP98":{"p":1.939,"d":"2026-03-05"}},"brand":"TotalEnergies"},{"id":60200001,"lat":49.413,"lng":2.816,"addr":"47 Rue Notre-Dame de Bon Secours","city":"COMPIèGNE","cp":"60200","fuels":{"Gazole":{"p":1.892,"d":"2026-03-05"},"E10":{"p":1.732,"d":"2026-03-05"},"SP98":{"p":1.846,"d":"2026-03-05"}},"brand":"Auchan"},{"id":60000001,"lat":49.409,"lng":2.115,"addr":"1 Avenue Descartes","city":"BEAUVAIS","cp":"60000","fuels":{"Gazole":{"p":1.939,"d":"2026-03-05"},"E85":{"p":0.758,"d":"2026-03-05"},"GPLc":{"p":0.975,"d":"2026-01-02"},"E10":{"p":1.779,"d":"2026-03-05"},"SP98":{"p":1.829,"d":"2026-03-05"}},"brand":"Auchan"},{"id":60700002,"lat":49.30752,"lng":2.59195,"addr":"Rue Louis Pasteur","city":"PONT-SAINTE-MAXENCE","cp":"60700","fuels":{"Gazole":{"p":1.859,"d":"2026-03-04"},"SP95":{"p":1.769,"d":"2026-03-03"},"E10":{"p":1.707,"d":"2026-03-03"},"SP98":{"p":1.817,"d":"2026-03-03"}},"brand":"Intermarché"},{"id":95472001,"lat":49.101,"lng":2.528,"addr":"RD922","city":"La Chapelle-en-Serval","cp":"60520","fuels":{"Gazole":{"p":1.849,"d":"2026-03-05"},"E10":{"p":1.78,"d":"2026-03-04"},"SP98":{"p":1.839,"d":"2026-02-26"}},"brand":"Leclerc"},{"id":60600001,"lat":49.362,"lng":2.422,"addr":"Route de Paris","city":"BREUIL-LE-VERT","cp":"60600","fuels":{"Gazole":{"p":1.893,"d":"2026-03-05"},"E10":{"p":1.737,"d":"2026-03-05"},"SP98":{"p":1.839,"d":"2026-03-05"}},"brand":"Auchan"},{"id":60600006,"lat":49.396,"lng":2.419,"addr":"Rue Nelson Mandela","city":"FITZ-JAMES","cp":"60600","fuels":{"Gazole":{"p":1.942,"d":"2026-03-05"},"E85":{"p":0.899,"d":"2026-03-04"},"SP98":{"p":1.838,"d":"2026-03-05"}}},{"id":60300009,"lat":49.20834539496099,"lng":2.6023127084038,"addr":"64 avenue du Général de Gaulle","city":"Senlis","cp":"60300","fuels":{"Gazole":{"p":1.99,"d":"2026-03-05"},"E85":{"p":0.789,"d":"2026-03-05"},"E10":{"p":1.849,"d":"2026-03-05"},"SP98":{"p":1.959,"d":"2026-03-05"}},"brand":"BP"},{"id":60390004,"lat":49.371485,"lng":1.988032,"addr":"100 route de Gisors","city":"Auneuil","cp":"60390","fuels":{"Gazole":{"p":1.899,"d":"2026-03-05"},"E10":{"p":1.738,"d":"2026-03-05"},"SP98":{"p":1.82,"d":"2026-03-04"}}},{"id":60005001,"lat":49.456,"lng":2.1,"addr":"Route d' Amiens","city":"BEAUVAIS","cp":"60000","fuels":{"Gazole":{"p":1.99,"d":"2026-03-04"},"E10":{"p":1.865,"d":"2026-03-05"},"SP98":{"p":1.975,"d":"2026-03-05"}},"brand":"TotalEnergies"},{"id":60260001,"lat":49.156,"lng":2.445,"addr":"79 Avenue de la Libération","city":"LAMORLAYE","cp":"60260","fuels":{"Gazole":{"p":1.833,"d":"2026-03-04"},"SP95":{"p":1.781,"d":"2026-03-04"},"E85":{"p":0.759,"d":"2026-03-04"},"E10":{"p":1.742,"d":"2026-03-04"},"SP98":{"p":1.847,"d":"2026-03-04"}},"brand":"Carrefour"},{"id":60640001,"lat":49.655,"lng":3.05,"addr":"206 Rue Marcel Poulin","city":"GUISCARD","cp":"60640","fuels":{"Gazole":{"p":1.955,"d":"2026-03-04"},"E10":{"p":1.789,"d":"2026-03-04"},"SP98":{"p":1.899,"d":"2026-03-04"}},"brand":"TotalEnergies"},{"id":60130001,"lat":49.512,"lng":2.431,"addr":"Z.I. Nord","city":"SAINT-JUST-EN-CHAUSSéE","cp":"60130","fuels":{"Gazole":{"p":1.897,"d":"2026-03-05"},"SP95":{"p":1.793,"d":"2026-03-04"},"E85":{"p":0.727,"d":"2026-03-05"},"SP98":{"p":1.821,"d":"2026-03-04"}},"brand":"Leclerc"},{"id":60000011,"lat":49.41,"lng":2.109,"addr":"9 Avenue Montaigne","city":"BEAUVAIS","cp":"60000","fuels":{"Gazole":{"p":1.819,"d":"2026-03-04"},"SP95":{"p":1.762,"d":"2026-03-04"},"E85":{"p":0.75,"d":"2026-01-24"},"GPLc":{"p":0.975,"d":"2025-12-01"},"SP98":{"p":1.82,"d":"2026-03-04"}},"brand":"Carrefour"},{"id":60270003,"lat":49.188755748479004,"lng":2.413338110243,"addr":"Rue Blanche","city":"GOUVIEUX","cp":"60270","fuels":{"Gazole":{"p":1.815,"d":"2026-03-04"},"E10":{"p":1.727,"d":"2026-03-04"},"SP98":{"p":1.814,"d":"2026-03-04"}},"brand":"Intermarché"},{"id":60590001,"lat":49.289,"lng":1.807,"addr":"RN 181","city":"Trie-Château","cp":"60590","fuels":{"Gazole":{"p":1.902,"d":"2026-03-05"},"SP95":{"p":1.808,"d":"2026-03-04"},"E85":{"p":0.719,"d":"2026-03-02"},"E10":{"p":1.727,"d":"2026-03-04"},"SP98":{"p":1.819,"d":"2026-03-05"}},"brand":"Leclerc"},{"id":60280001,"lat":49.408,"lng":2.781,"addr":"6 Avenue de l'Europe","city":"VENETTE","cp":"60280","fuels":{"Gazole":{"p":1.933,"d":"2026-03-05"},"SP95":{"p":1.834,"d":"2026-03-05"},"E85":{"p":0.729,"d":"2026-03-05"},"GPLc":{"p":0.855,"d":"2026-03-05"},"E10":{"p":1.754,"d":"2026-03-05"},"SP98":{"p":1.87,"d":"2026-03-05"}},"brand":"Carrefour"},{"id":60150005,"lat":49.47,"lng":2.86,"addr":"ZI LE CHAMP SAINTE CROIX","city":"LONGUEIL ANNEL","cp":"60150","fuels":{"Gazole":{"p":1.87,"d":"2026-03-04"},"E10":{"p":1.719,"d":"2026-03-04"},"SP98":{"p":1.8,"d":"2026-03-04"}},"brand":"Carrefour"},{"id":60610002,"lat":49.358,"lng":2.777,"addr":"ZAC DES JARDINS","city":"LA CROIX SAINT OUEN","cp":"60610","fuels":{"Gazole":{"p":1.879,"d":"2026-03-04"},"E85":{"p":0.739,"d":"2026-02-21"},"E10":{"p":1.709,"d":"2026-03-04"},"SP98":{"p":1.829,"d":"2026-03-03"}},"brand":"Leclerc"},{"id":60000008,"lat":49.433,"lng":2.046,"addr":"42 Rue Juliette Nevouet","city":"Goincourt","cp":"60000","fuels":{"Gazole":{"p":1.856,"d":"2026-03-05"},"E85":{"p":0.758,"d":"2026-03-05"},"E10":{"p":1.739,"d":"2026-03-05"},"SP98":{"p":1.82,"d":"2026-03-05"}},"brand":"Intermarché"},{"id":60120002,"lat":49.63618,"lng":2.29025,"addr":"Rue d'Amiens","city":"BRETEUIL","cp":"60120","fuels":{"Gazole":{"p":1.82,"d":"2026-03-03"},"SP95":{"p":1.729,"d":"2026-03-03"},"SP98":{"p":1.809,"d":"2026-03-03"}},"brand":"Carrefour"},{"id":60000007,"lat":49.431,"lng":2.071,"addr":"AVENUE NELSON MANDELA","city":"Beauvais","cp":"60000","fuels":{"Gazole":{"p":1.822,"d":"2026-03-04"},"E10":{"p":1.761,"d":"2026-03-04"},"SP98":{"p":1.852,"d":"2026-03-04"}},"brand":"Carrefour"},{"id":60690001,"lat":49.582,"lng":1.954,"addr":"145 DU GENERAL LECLERC","city":"MARSEILLE EN BEAUVAISIS","cp":"60690","fuels":{"Gazole":{"p":1.873,"d":"2026-03-04"},"SP95":{"p":1.805,"d":"2026-03-04"},"E85":{"p":0.759,"d":"2026-03-04"},"E10":{"p":1.729,"d":"2026-03-04"},"SP98":{"p":1.843,"d":"2026-03-04"}},"brand":"Intermarché"},{"id":60490009,"lat":49.519649613694995,"lng":2.7195533558196,"addr":"A1 SENS LILLE/PARIS REPERE 80.260","city":"RESSONS SUR MATZ","cp":"60490","fuels":{"Gazole":{"p":1.99,"d":"2026-03-05"},"E85":{"p":0.999,"d":"2026-03-05"},"GPLc":{"p":0.999,"d":"2026-03-05"},"E10":{"p":1.884,"d":"2026-03-05"},"SP98":{"p":1.99,"d":"2026-03-05"}},"brand":"TotalEnergies"},{"id":60730002,"lat":49.29,"lng":2.201,"addr":"Centre Commercial du Château","city":"SAINTE-GENEVIèVE","cp":"60730","fuels":{"Gazole":{"p":1.935,"d":"2026-03-04"},"E10":{"p":1.755,"d":"2026-03-04"},"SP98":{"p":1.795,"d":"2026-03-02"}},"brand":"Système U"},{"id":60350002,"lat":49.401,"lng":2.994,"addr":"19 Route de Reims","city":"Trosly-Breuil","cp":"60350","fuels":{"Gazole":{"p":1.959,"d":"2026-03-05"},"E85":{"p":0.759,"d":"2026-03-04"},"E10":{"p":1.739,"d":"2026-03-05"},"SP98":{"p":1.844,"d":"2026-03-05"}},"brand":"Groupement des Mousquetaires"},{"id":60740001,"lat":49.239,"lng":2.471,"addr":"RD1016","city":"SAINT-MAXIMIN","cp":"60740","fuels":{"Gazole":{"p":1.82,"d":"2026-03-04"},"GPLc":{"p":0.855,"d":"2026-03-03"},"E10":{"p":1.72,"d":"2026-03-03"},"SP98":{"p":1.82,"d":"2026-03-04"}},"brand":"Carrefour"},{"id":60190002,"lat":49.41449,"lng":2.64666,"addr":"Rue de la Sècherie","city":"Moyvillers","cp":"60190","fuels":{"Gazole":{"p":1.971,"d":"2026-03-05"},"SP95":{"p":1.834,"d":"2026-03-05"},"SP98":{"p":1.863,"d":"2026-03-05"}},"brand":"Intermarché"},{"id":60160002,"lat":49.253,"lng":2.428,"addr":"Rue André Ginisti","city":"MONTATAIRE","cp":"60160","fuels":{"Gazole":{"p":1.889,"d":"2026-03-05"},"E85":{"p":0.699,"d":"2026-02-23"},"SP98":{"p":1.819,"d":"2026-03-04"}},"brand":"Leclerc"},{"id":60650007,"lat":49.438949,"lng":1.887184,"addr":"58 route nationale","city":"Saint Aubin en Bray","cp":"60650","fuels":{"Gazole":{"p":1.925,"d":"2026-03-05"},"E85":{"p":0.699,"d":"2026-02-21"},"E10":{"p":1.758,"d":"2026-03-05"},"SP98":{"p":1.849,"d":"2026-03-04"}},"brand":"Esso"},{"id":60200012,"lat":49.407,"lng":2.813,"addr":"142 RUE DE PARIS","city":"COMPIEGNE","cp":"60200","fuels":{"Gazole":{"p":1.892,"d":"2026-03-05"},"E85":{"p":0.752,"d":"2026-03-05"},"E10":{"p":1.732,"d":"2026-03-05"},"SP98":{"p":1.846,"d":"2026-03-05"}},"brand":"TotalEnergies"},{"id":60170003,"lat":49.515,"lng":2.924,"addr":"ZAC DE LA GRERIE","city":"Ribécourt-Dreslincourt","cp":"60170","fuels":{"Gazole":{"p":1.999,"d":"2026-03-05"},"E10":{"p":1.773,"d":"2026-03-05"},"SP98":{"p":1.891,"d":"2026-03-05"}},"brand":"Leclerc"},{"id":60350003,"lat":49.404,"lng":3.008,"addr":"ROUTE DE SOISSONS- RN 31","city":"Cuise-la-Motte","cp":"60350","fuels":{"Gazole":{"p":1.899,"d":"2026-03-05"},"E10":{"p":1.739,"d":"2026-03-05"},"SP98":{"p":1.855,"d":"2026-03-05"}},"brand":"TotalEnergies"}]