[{"id":64500006,"lat":43.382,"lng":-1.649,"addr":"26 - RN 618 AVENUE DE CHANTACO","city":"Saint-Jean-de-Luz","cp":"64500","fuels":{"Gazole":{"p":1.99,"d":"2026-03-04"},"E10":{"p":1.839,"d":"2026-03-04"}}},{"id":64330001,"lat":43.557,"lng":-0.284,"addr":"Avenue Georges Phesans","city":"GARLIN","cp":"64330","fuels":{"Gazole":{"p":1.816,"d":"2026-03-04"},"E85":{"p":0.728,"d":"2026-03-04"},"E10":{"p":1.736,"d":"2026-03-04"},"SP98":{"p":1.846,"d":"2026-03-04"}}},{"id":64100010,"lat":43.483,"lng":-1.488,"addr":"22 Chemin d'Arancette","city":"Bayonne","cp":"64100","fuels":{"Gazole":{"p":1.907,"d":"2026-03-04"},"SP95":{"p":1.836,"d":"2026-03-04"},"SP98":{"p":1.901,"d":"2026-03-04"}}},{"id":64520001,"lat":43.482,"lng":-1.144,"addr":"2 Rue Saint-Jacques","city":"BIDACHE","cp":"64520","fuels":{"Gazole":{"p":1.9,"d":"2026-03-02"},"SP95":{"p":1.91,"d":"2026-03-02"}}},{"id":64150008,"lat":43.385654130567,"lng":-0.61129551817699,"addr":"CHEMIN DEPARTEMENTAL 533","city":"OS MARSILLON","cp":"64150","fuels":{"Gazole":{"p":1.855,"d":"2026-03-04"},"SP95":{"p":1.792,"d":"2026-03-03"},"SP98":{"p":1.895,"d":"2026-03-04"}}},{"id":64210005,"lat":43.42214,"lng":-1.5976,"addr":"AUTOROUTE A63 - AIRE DE BIDART EST","city":"BIDART","cp":"64210","fuels":{"Gazole":{"p":1.99,"d":"2026-03-04"},"E85":{"p":0.999,"d":"2026-03-04"},"GPLc":{"p":0.989,"d":"2026-03-04"},"E10":{"p":1.984,"d":"2026-03-04"},"SP98":{"p":1.99,"d":"2026-03-04"}}},{"id":64000009,"lat":43.317,"lng":-0.356,"addr":"Avenue Louis Sallenave","city":"PAU","cp":"64000","fuels":{"Gazole":{"p":1.789,"d":"2026-03-04"},"SP95":{"p":1.799,"d":"2026-03-04"},"E85":{"p":0.735,"d":"2026-03-04"},"E10":{"p":1.749,"d":"2026-03-04"},"SP98":{"p":1.825,"d":"2026-03-04"}}},{"id":64240005,"lat":43.49396204,"lng":-1.29340512,"addr":"ALLEE DE LA CROIX","city":"URT","cp":"64240","fuels":{"Gazole":{"p":1.699,"d":"2026-03-03"},"SP95":{"p":1.754,"d":"2026-03-03"},"SP98":{"p":1.794,"d":"2026-03-03"}}},{"id":64500003,"lat":43.403,"lng":-1.627,"addr":"107, Avenue de Jalday","city":"SAINT-JEAN-DE-LUZ","cp":"64500","fuels":{"Gazole":{"p":1.799,"d":"2026-03-04"},"SP95":{"p":1.773,"d":"2026-03-04"},"E85":{"p":0.843,"d":"2026-03-04"},"GPLc":{"p":0.855,"d":"2026-03-04"},"E10":{"p":1.71,"d":"2026-03-04"},"SP98":{"p":1.826,"d":"2026-03-04"}}},{"id":64240004,"lat":43.385,"lng":-1.297,"addr":"Avenue Léon Guichené","city":"HASPARREN","cp":"64240","fuels":{"Gazole":{"p":1.819,"d":"2026-03-03"},"SP95":{"p":1.829,"d":"2026-02-19"},"E85":{"p":0.829,"d":"2025-07-23"},"SP98":{"p":1.879,"d":"2026-02-28"}}},{"id":64000016,"lat":43.3186488,"lng":-0.37831660000000006,"addr":"208 AV JEAN MERMOZ","city":"PAU","cp":"64000","fuels":{"Gazole":{"p":1.919,"d":"2026-03-04"},"E85":{"p":0.752,"d":"2026-03-04"},"GPLc":{"p":0.959,"d":"2026-03-04"},"E10":{"p":1.749,"d":"2026-03-04"},"SP98":{"p":1.859,"d":"2026-03-04"}}},{"id":64440002,"lat":42.99129,"lng":-0.42454,"addr":"Rue du Bourguet","city":"LARUNS","cp":"64440","fuels":{"Gazole":{"p":1.709,"d":"2026-02-25"},"SP95":{"p":1.729,"d":"2026-02-25"},"E10":{"p":1.729,"d":"2026-03-04"}}},{"id":64190004,"lat":43.32,"lng":-0.755,"addr":"Place de l'Espagnolette","city":"Navarrenx","cp":"64190","fuels":{"Gazole":{"p":1.815,"d":"2026-03-04"},"SP95":{"p":1.895,"d":"2026-03-04"},"SP98":{"p":1.899,"d":"2026-03-04"}}},{"id":64210006,"lat":43.42244,"lng":-1.59844,"addr":"AUTOROUTE A63 - AIRE DE BIDART OUEST","city":"BIDART","cp":"64210","fuels":{"Gazole":{"p":1.99,"d":"2026-03-04"},"E85":{"p":0.999,"d":"2026-03-04"},"E10":{"p":1.984,"d":"2026-03-04"},"SP98":{"p":1.99,"d":"2026-03-04"}}},{"id":64520002,"lat":43.48409,"lng":-1.13843,"addr":"ROUTE DE CAME","city":"BIDACHE","cp":"64520","fuels":{"Gazole":{"p":1.899,"d":"2026-03-04"},"SP95":{"p":1.829,"d":"2026-03-04"},"E10":{"p":1.699,"d":"2026-02-28"}}},{"id":64400005,"lat":43.181,"lng":-0.615,"addr":"65 Rue des Oustalots prolongés","city":"Oloron-Sainte-Marie","cp":"64400","fuels":{"Gazole":{"p":1.863,"d":"2026-03-04"},"E10":{"p":1.721,"d":"2026-03-04"},"SP98":{"p":1.919,"d":"2026-03-04"}}},{"id":64200006,"lat":43.464,"lng":-1.539,"addr":"Zone d'Iraty","city":"Biarritz","cp":"64200","fuels":{"Gazole":{"p":1.81,"d":"2026-03-03"},"E85":{"p":0.727,"d":"2026-02-23"},"E10":{"p":1.71,"d":"2026-03-03"},"SP98":{"p":1.82,"d":"2026-03-03"}}},{"id":64390002,"lat":43.401,"lng":-0.948,"addr":"Carrères du Dessus","city":"SAUVETERRE-DE-BéARN","cp":"64390","fuels":{"Gazole":{"p":1.799,"d":"2026-03-03"},"SP95":{"p":1.849,"d":"2026-03-03"},"E10":{"p":1.769,"d":"2026-03-03"}}},{"id":64430001,"lat":43.183,"lng":-1.335,"addr":"ROUTE DE SAINT JEAN PIED DE PORT","city":"Saint-Étienne-de-Baïgorry","cp":"64430","fuels":{"Gazole":{"p":1.645,"d":"2026-02-28"},"E10":{"p":1.635,"d":"2026-02-28"},"SP98":{"p":1.726,"d":"2026-02-28"}}},{"id":64120005,"lat":43.3324985,"lng":-1.0161424000000001,"addr":"ZAC DE TTARGA","city":"Aïcirits-Camou-Suhast","cp":"64120","fuels":{"Gazole":{"p":1.929,"d":"2026-03-04"},"SP95":{"p":1.849,"d":"2026-03-04"},"E85":{"p":0.799,"d":"2026-02-23"},"E10":{"p":1.769,"d":"2026-03-04"}}},{"id":64300002,"lat":43.49,"lng":-0.787,"addr":"1 RTE DE BAYONNE","city":"ORTHEZ","cp":"64300","fuels":{"Gazole":{"p":1.99,"d":"2026-03-04"},"E85":{"p":0.791,"d":"2026-03-04"},"E10":{"p":1.845,"d":"2026-03-04"},"SP98":{"p":1.955,"d":"2026-03-04"}}},{"id":64160001,"lat":43.351,"lng":-0.263,"addr":"22 Rue de la Bastide","city":"MORLAàS","cp":"64160","fuels":{"Gazole":{"p":1.872,"d":"2026-03-04"},"E85":{"p":0.739,"d":"2026-03-04"},"E10":{"p":1.726,"d":"2026-03-04"},"SP98":{"p":1.838,"d":"2026-03-04"}}},{"id":64200008,"lat":43.46,"lng":-1.548,"addr":"Rond-point de la Négresse","city":"BIARRITZ","cp":"64200","fuels":{"Gazole":{"p":2.009,"d":"2026-03-04"},"E10":{"p":1.839,"d":"2026-03-04"},"SP98":{"p":1.969,"d":"2026-03-04"}}},{"id":64800005,"lat":43.1749,"lng":-0.23574,"addr":"Avenue de la Gare","city":"COARRAZE","cp":"64800","fuels":{"Gazole":{"p":1.87,"d":"2026-03-04"},"SP95":{"p":1.8,"d":"2026-03-03"},"E10":{"p":1.772,"d":"2026-03-04"},"SP98":{"p":1.844,"d":"2026-03-04"}}},{"id":64600007,"lat":43.492,"lng":-1.533,"addr":"1 BIS RUE DU PALOUMET","city":"ANGLET","cp":"64600","fuels":{"Gazole":{"p":1.932,"d":"2026-03-04"},"E85":{"p":0.764,"d":"2026-03-04"},"E10":{"p":1.746,"d":"2026-03-04"},"SP98":{"p":1.859,"d":"2026-03-04"}}},{"id":64160003,"lat":43.347,"lng":-0.254,"addr":"Rue Baratnau","city":"Morlaàs","cp":"64160","fuels":{"Gazole":{"p":1.872,"d":"2026-03-04"},"E10":{"p":1.726,"d":"2026-03-04"},"SP98":{"p":1.838,"d":"2026-03-04"}}},{"id":64290001,"lat":43.218,"lng":-0.384,"addr":"123 rue d'Ossau","city":"GAN","cp":"64290","fuels":{"Gazole":{"p":1.839,"d":"2026-03-03"},"E85":{"p":0.73,"d":"2026-03-03"},"E10":{"p":1.759,"d":"2026-03-03"},"SP98":{"p":1.859,"d":"2026-03-03"}}},{"id":64600009,"lat":43.484,"lng":-1.501,"addr":"77 Avenue de bayonne","city":"Anglet","cp":"64600","fuels":{"Gazole":{"p":1.86,"d":"2026-03-04"},"E10":{"p":1.725,"d":"2026-03-04"},"SP98":{"p":1.835,"d":"2026-03-04"}}},{"id":64800007,"lat":43.186,"lng":-0.24,"addr":"132 Rue des Pyrénées","city":"Bénéjacq","cp":"64800","fuels":{"Gazole":{"p":1.879,"d":"2026-03-04"},"SP95":{"p":1.819,"d":"2026-03-03"},"E10":{"p":1.739,"d":"2026-03-03"},"SP98":{"p":1.859,"d":"2026-03-04"}}},{"id":64000001,"lat":43.304772276464,"lng":-0.32975314112009996,"addr":"1 Avenue du Général Leclerc","city":"Pau","cp":"64000","fuels":{"Gazole":{"p":1.789,"d":"2026-03-04"},"E85":{"p":0.739,"d":"2026-03-04"},"GPLc":{"p":0.98,"d":"2026-02-27"},"E10":{"p":1.749,"d":"2026-03-04"},"SP98":{"p":1.825,"d":"2026-03-04"}}},{"id":64100014,"lat":43.50489,"lng":-1.46719,"addr":"6 AVENUE LOUIS DE FOIX","city":"BAYONNE","cp":"64100","fuels":{"Gazole":{"p":1.934,"d":"2026-03-04"},"E85":{"p":0.757,"d":"2026-03-04"},"E10":{"p":1.759,"d":"2026-03-04"},"SP98":{"p":1.859,"d":"2026-03-04"}}},{"id":64800003,"lat":43.157,"lng":-0.23,"addr":"59 Avenue du Pic du Midi","city":"IGON","cp":"64800","fuels":{"Gazole":{"p":1.96,"d":"2026-03-03"},"SP95":{"p":1.99,"d":"2026-03-03"}}},{"id":64140006,"lat":43.319,"lng":-0.379,"addr":"163 AVENUE JEAN MERMOZ","city":"Lons","cp":"64140","fuels":{"Gazole":{"p":1.799,"d":"2026-03-04"},"E85":{"p":0.728,"d":"2026-03-03"},"E10":{"p":1.739,"d":"2026-03-04"}}},{"id":64420001,"lat":43.27,"lng":-0.201,"addr":"ZAC PYRENEES EST BEARN","city":"NOUSTY","cp":"64420","fuels":{"Gazole":{"p":1.829,"d":"2026-03-03"},"SP95":{"p":1.819,"d":"2026-03-03"},"E85":{"p":0.729,"d":"2026-02-05"},"E10":{"p":1.739,"d":"2026-03-03"},"SP98":{"p":1.849,"d":"2026-03-03"}}},{"id":64121003,"lat":43.354,"lng":-0.38,"addr":"14 Rue ALEXANDRO VOLTA","city":"Montardon","cp":"64121","fuels":{"Gazole":{"p":1.914,"d":"2026-03-04"},"E10":{"p":1.749,"d":"2026-03-04"},"SP98":{"p":1.864,"d":"2026-03-04"}}},{"id":64121004,"lat":43.376,"lng":-0.38,"addr":"Rue de Fabrèges ZAC du pont long","city":"Serres-Castet","cp":"64121","fuels":{"Gazole":{"p":1.909,"d":"2026-03-04"},"GPLc":{"p":0.999,"d":"2025-12-09"},"E10":{"p":1.749,"d":"2026-03-04"},"SP98":{"p":1.864,"d":"2026-03-04"}}},{"id":64990001,"lat":43.478,"lng":-1.457,"addr":"RELAIS DES HIRONDELLES","city":"SAINT-PIERRE-D'IRUBE","cp":"64990","fuels":{"Gazole":{"p":1.99,"d":"2026-03-04"},"E10":{"p":1.849,"d":"2026-03-04"},"SP98":{"p":1.959,"d":"2026-03-04"}}},{"id":64400003,"lat":43.1973594487,"lng":-0.617139056977,"addr":"Avenue Alexandre Fleming","city":"OLORON-SAINTE-MARIE","cp":"64400","fuels":{"Gazole":{"p":1.799,"d":"2026-03-04"},"SP95":{"p":1.725,"d":"2026-02-27"},"E85":{"p":0.722,"d":"2026-02-16"},"E10":{"p":1.683,"d":"2026-03-02"}}},{"id":64320003,"lat":43.295,"lng":-0.322,"addr":"Chemin Cam Marty","city":"IDRON","cp":"64320","fuels":{"SP98":{"p":1.825,"d":"2026-03-03"}}},{"id":64230006,"lat":43.346495316027,"lng":-0.47879722090508003,"addr":"3 RUE PRINCIPALE","city":"POEY-DE-LESCAR","cp":"64230","fuels":{"Gazole":{"p":1.899,"d":"2026-03-04"},"SP95":{"p":1.839,"d":"2026-03-04"},"SP98":{"p":1.905,"d":"2026-03-04"}}},{"id":64100009,"lat":43.491699413999996,"lng":-1.45279168155,"addr":"Rond-Point Grand-Basque","city":"BAYONNE","cp":"64100","fuels":{"Gazole":{"p":1.788,"d":"2026-03-04"},"E85":{"p":0.758,"d":"2026-03-04"},"E10":{"p":1.769,"d":"2026-03-04"},"SP98":{"p":1.869,"d":"2026-03-04"}}},{"id":64370001,"lat":43.476,"lng":-0.613,"addr":"ZA DE N'HAUX","city":"Arthez-de-Béarn","cp":"64370","fuels":{"Gazole":{"p":1.799,"d":"2026-03-03"},"SP95":{"p":1.829,"d":"2026-03-03"},"SP98":{"p":1.899,"d":"2026-03-03"}}},{"id":64120004,"lat":43.327,"lng":-1.033,"addr":"40 Zone d'activité","city":"Amendeuix-Oneix","cp":"64120","fuels":{"Gazole":{"p":1.929,"d":"2026-03-04"},"SP95":{"p":1.849,"d":"2026-03-04"},"E10":{"p":1.769,"d":"2026-03-04"},"SP98":{"p":1.895,"d":"2026-03-04"}}},{"id":64000011,"lat":43.319,"lng":-0.347,"addr":"169 Boulevard de la Paix","city":"PAU","cp":"64000","fuels":{"Gazole":{"p":1.787,"d":"2026-03-04"},"E85":{"p":0.729,"d":"2026-02-23"},"E10":{"p":1.712,"d":"2026-03-03"},"SP98":{"p":1.818,"d":"2026-03-04"}}},{"id":64310001,"lat":43.359,"lng":-1.575,"addr":"RD 918 ZAC de Lizardia II - Quartier Ibarron","city":"SAINT-PEE-SUR-NIVELLE","cp":"64310","fuels":{"Gazole":{"p":1.799,"d":"2026-03-03"},"E85":{"p":0.729,"d":"2026-02-02"},"E10":{"p":1.71,"d":"2026-03-03"},"SP98":{"p":1.819,"d":"2026-03-03"}}},{"id":64300005,"lat":43.48,"lng":-0.748,"addr":"Route de Pau","city":"Orthez","cp":"64300","fuels":{"Gazole":{"p":1.77,"d":"2026-03-04"},"E85":{"p":0.739,"d":"2026-02-21"},"E10":{"p":1.749,"d":"2026-03-04"},"SP98":{"p":1.829,"d":"2026-03-04"}}},{"id":64130003,"lat":43.23,"lng":-0.874,"addr":"Avenue d'Euskual-Herria","city":"Chéraute","cp":"64130","fuels":{"Gazole":{"p":1.816,"d":"2026-03-04"},"SP95":{"p":1.815,"d":"2026-03-04"},"E85":{"p":0.758,"d":"2026-03-04"},"E10":{"p":1.734,"d":"2026-03-04"},"SP98":{"p":1.793,"d":"2026-03-02"}}},{"id":64500005,"lat":43.401559341893,"lng":-1.6332701136,"addr":"Avenue de Lahanchipia","city":"Saint-Jean-de-Luz","cp":"64500","fuels":{"Gazole":{"p":1.799,"d":"2026-03-04"},"SP95":{"p":1.773,"d":"2026-03-04"},"E10":{"p":1.71,"d":"2026-03-04"},"SP98":{"p":1.819,"d":"2026-03-04"}}},{"id":64150003,"lat":43.367,"lng":-0.581,"addr":"RD 33","city":"Pardies","cp":"64150","fuels":{"Gazole":{"p":1.99,"d":"2026-03-04"},"E85":{"p":0.811,"d":"2026-02-20"},"E10":{"p":1.853,"d":"2026-03-04"},"SP98":{"p":1.963,"d":"2026-03-04"}}},{"id":64103001,"lat":43.505,"lng":-1.444,"addr":"90 avenue Henri de Navarre","city":"BAYONNE","cp":"64100","fuels":{"Gazole":{"p":1.815,"d":"2026-03-04"},"SP95":{"p":1.857,"d":"2026-03-04"},"E10":{"p":1.759,"d":"2026-03-04"},"SP98":{"p":1.859,"d":"2026-03-04"}}},{"id":64130002,"lat":43.226,"lng":-0.885,"addr":"36, Boulevard des Pyrénées","city":"Mauléon-Licharre","cp":"64130","fuels":{"Gazole":{"p":1.91,"d":"2026-03-04"},"SP95":{"p":1.84,"d":"2026-03-04"},"SP98":{"p":1.9,"d":"2026-03-04"}}},{"id":64210004,"lat":43.44745,"lng":-1.57436,"addr":"ROUTE NATIONALE 10","city":"Bidart","cp":"64210","fuels":{"Gazole":{"p":1.799,"d":"2026-03-03"},"SP95":{"p":1.779,"d":"2026-03-03"},"E85":{"p":0.759,"d":"2026-03-04"},"E10":{"p":1.71,"d":"2026-03-03"},"SP98":{"p":1.819,"d":"2026-03-03"}}},{"id":64600002,"lat":43.486,"lng":-1.501,"addr":"Boulevard du B.A.B.","city":"Anglet","cp":"64600","fuels":{"Gazole":{"p":1.885,"d":"2026-03-04"},"E85":{"p":0.755,"d":"2026-03-04"},"GPLc":{"p":0.799,"d":"2026-03-04"},"E10":{"p":1.745,"d":"2026-03-04"},"SP98":{"p":1.854,"d":"2026-03-04"}}},{"id":64140004,"lat":43.304,"lng":-0.4,"addr":"78 Route de Bayonne","city":"Billère","cp":"64140","fuels":{"Gazole":{"p":1.809,"d":"2026-03-04"},"E85":{"p":0.728,"d":"2026-03-04"},"E10":{"p":1.749,"d":"2026-03-04"},"SP98":{"p":1.849,"d":"2026-03-04"}}},{"id":64170012,"lat":43.421426,"lng":-0.598996,"addr":"AIRE DE LACQ AUDEJOS SUD","city":"LACQ AUDEJOS SUD","cp":"64170","fuels":{"Gazole":{"p":2.139,"d":"2026-03-04"},"E85":{"p":1.049,"d":"2026-03-04"},"GPLc":{"p":1.099,"d":"2026-03-04"},"E10":{"p":2.099,"d":"2026-03-04"},"SP98":{"p":2.169,"d":"2026-03-04"}}},{"id":64170013,"lat":43.418747,"lng":-0.584483,"addr":"AIRE DE LACQ AUDEJOS NORD","city":"LACQ AUDEJOS NORD - ARTIX","cp":"64170","fuels":{"Gazole":{"p":2.139,"d":"2026-03-04"},"E10":{"p":2.099,"d":"2026-03-04"},"SP98":{"p":2.169,"d":"2026-03-04"}}},{"id":64270001,"lat":43.475,"lng":-0.913,"addr":"62 Avenue des Docteurs Foix","city":"SALIES-DE-BéARN","cp":"64270","fuels":{"Gazole":{"p":1.989,"d":"2026-03-04"},"E10":{"p":1.839,"d":"2026-03-04"},"SP98":{"p":1.949,"d":"2026-03-04"}}},{"id":64700001,"lat":43.347,"lng":-1.766,"addr":"31 Rue du Capitaine Pellot","city":"HENDAYE","cp":"64700","fuels":{"Gazole":{"p":1.814,"d":"2026-02-25"},"E10":{"p":1.795,"d":"2026-02-25"}}},{"id":64360000,"lat":43.336,"lng":-0.583,"addr":"Avenue de la Résistance","city":"Monein","cp":"64360","fuels":{"Gazole":{"p":1.784,"d":"2026-03-02"},"SP95":{"p":1.794,"d":"2026-03-02"},"SP98":{"p":1.824,"d":"2026-03-02"}}},{"id":64120001,"lat":43.331,"lng":-1.039,"addr":"ROUTE DE GARRIS","city":"Amendeuix-Oneix","cp":"64120","fuels":{"Gazole":{"p":1.99,"d":"2026-03-04"},"E10":{"p":1.839,"d":"2026-03-04"},"SP98":{"p":1.949,"d":"2026-03-04"}}},{"id":64000015,"lat":43.323,"lng":-0.368,"addr":"305/309 BD DE LA PAIX","city":"PAU","cp":"64000","fuels":{"Gazole":{"p":1.99,"d":"2026-03-04"},"E10":{"p":1.849,"d":"2026-03-04"},"SP98":{"p":1.959,"d":"2026-03-04"}}},{"id":64140005,"lat":43.305882255669005,"lng":-0.40287475687442,"addr":"90 RTE DE BAYONNE","city":"BILLERE","cp":"64140","fuels":{"Gazole":{"p":1.99,"d":"2026-03-04"},"GPLc":{"p":0.999,"d":"2026-03-04"},"E10":{"p":1.849,"d":"2026-03-04"},"SP98":{"p":1.959,"d":"2026-03-04"}}},{"id":64230004,"lat":43.436444,"lng":-0.4664254,"addr":"RD32 ROUTE D'ARZACQ","city":"MAZEROLLES","cp":"64230","fuels":{"Gazole":{"p":1.99,"d":"2026-03-04"},"SP98":{"p":1.929,"d":"2026-03-04"}}},{"id":64320005,"lat":43.303805476815995,"lng":-0.32323738530372,"addr":"22 ROUTE DE TARBES","city":"BIZANOS","cp":"64320","fuels":{"Gazole":{"p":1.904,"d":"2026-03-04"},"GPLc":{"p":0.966,"d":"2026-03-04"},"E10":{"p":1.751,"d":"2026-03-04"},"SP98":{"p":1.859,"d":"2026-03-04"}}},{"id":64400002,"lat":43.19072,"lng":-0.61765,"addr":"AVENUE CHARLES MOUREU","city":"Oloron-Sainte-Marie","cp":"64400","fuels":{"Gazole":{"p":1.99,"d":"2026-03-04"},"E85":{"p":0.773,"d":"2026-02-28"},"GPLc":{"p":1.12,"d":"2025-11-13"},"E10":{"p":1.859,"d":"2026-03-04"},"SP98":{"p":1.969,"d":"2026-03-04"}}},{"id":64990002,"lat":43.487,"lng":-1.357,"addr":"Chemin Churrieta","city":"URCUIT","cp":"64990","fuels":{"Gazole":{"p":1.759,"d":"2026-03-03"},"SP95":{"p":1.735,"d":"2026-02-02"},"E10":{"p":1.713,"d":"2026-03-03"},"SP98":{"p":1.807,"d":"2026-03-03"}}},{"id":64233001,"lat":43.318,"lng":-0.424,"addr":"route de bayonne","city":"LESCAR","cp":"64230","fuels":{"Gazole":{"p":1.816,"d":"2026-03-04"},"SP95":{"p":1.799,"d":"2026-03-04"},"E85":{"p":0.74,"d":"2026-03-04"},"E10":{"p":1.749,"d":"2026-03-04"},"SP98":{"p":1.869,"d":"2026-03-04"}}},{"id":64470001,"lat":43.121,"lng":-0.867,"addr":"-","city":"TARDETS-SORHOLUS","cp":"64470","fuels":{"Gazole":{"p":1.969,"d":"2026-03-04"},"SP95":{"p":1.979,"d":"2026-03-04"},"SP98":{"p":1.99,"d":"2026-03-04"}}},{"id":64410001,"lat":43.536,"lng":-0.41,"addr":"route de Samadet","city":"ARZACQARRAZIGUET","cp":"64410","fuels":{"Gazole":{"p":1.792,"d":"2026-03-02"},"SP95":{"p":1.797,"d":"2026-03-02"},"SP98":{"p":1.862,"d":"2026-03-02"}}},{"id":64270002,"lat":43.47492,"lng":-0.91425000000002,"addr":"Route d'Orthez","city":"Salies-de-Béarn","cp":"64270","fuels":{"Gazole":{"p":1.799,"d":"2026-03-03"},"E10":{"p":1.769,"d":"2026-03-03"},"SP98":{"p":1.879,"d":"2026-03-03"}}},{"id":64110006,"lat":43.28562,"lng":-0.38335,"addr":"RN134 18 AV HENRI 4","city":"JURANCON","cp":"64110","fuels":{"Gazole":{"p":1.931,"d":"2026-03-04"},"E85":{"p":0.752,"d":"2026-03-04"},"E10":{"p":1.752,"d":"2026-03-04"},"SP98":{"p":1.859,"d":"2026-03-04"}}},{"id":64570002,"lat":43.122,"lng":-0.727,"addr":"QUARTIER MOUILIA","city":"ARAMITS","cp":"64570","fuels":{"Gazole":{"p":1.679,"d":"2026-02-23"},"E10":{"p":1.69,"d":"2026-02-23"},"SP98":{"p":1.849,"d":"2026-02-27"}}},{"id":64510001,"lat":43.25,"lng":-0.279,"addr":"PARC D'ACTIVITE CLEMENT ADER","city":"BORDES","cp":"64510","fuels":{"SP95":{"p":1.829,"d":"2026-03-04"},"SP98":{"p":1.849,"d":"2026-03-04"}}},{"id":64310002,"lat":43.352,"lng":-1.55,"addr":"PLACE DU CHÂTEAU","city":"Saint-Pée-sur-Nivelle","cp":"64310","fuels":{"Gazole":{"p":1.799,"d":"2026-03-03"},"SP95":{"p":1.779,"d":"2026-03-03"},"E10":{"p":1.71,"d":"2026-03-03"}}},{"id":64100016,"lat":43.512,"lng":-1.44,"addr":"123 avenue henri de navarre","city":"Bayonne","cp":"64100","fuels":{"Gazole":{"p":1.983,"d":"2026-03-03"},"SP95":{"p":1.958,"d":"2026-03-03"},"E85":{"p":0.792,"d":"2026-02-17"}}},{"id":64530004,"lat":43.23019,"lng":-0.07925,"addr":"AUTOROUTE A64 AIRE DE PYRÉNÉES - AIRE DES PYRÉNÉES","city":"GER","cp":"64530","fuels":{"Gazole":{"p":1.99,"d":"2026-03-04"},"E85":{"p":0.999,"d":"2026-03-04"},"GPLc":{"p":0.999,"d":"2026-03-04"},"E10":{"p":1.964,"d":"2026-03-04"},"SP98":{"p":1.99,"d":"2026-03-04"}}},{"id":64190002,"lat":43.31906,"lng":-0.7712,"addr":"ROUTE DEPARTEMENTALE 936","city":"Susmiou","cp":"64190","fuels":{"Gazole":{"p":1.821,"d":"2026-03-04"},"E85":{"p":0.728,"d":"2026-02-25"},"E10":{"p":1.745,"d":"2026-03-04"},"SP98":{"p":1.772,"d":"2026-02-25"}}},{"id":64480005,"lat":43.423,"lng":-1.465,"addr":"506 CHEMIN ARKIA","city":"USTARITZ","cp":"64480","fuels":{"Gazole":{"p":1.82,"d":"2026-02-25"},"SP95":{"p":1.88,"d":"2026-02-25"}}},{"id":64122001,"lat":43.375,"lng":-1.679,"addr":"RN 10","city":"Urrugne","cp":"64122","fuels":{"Gazole":{"p":1.795,"d":"2026-03-04"},"SP95":{"p":1.773,"d":"2026-03-04"},"E10":{"p":1.71,"d":"2026-03-04"},"SP98":{"p":1.819,"d":"2026-03-04"}}},{"id":64240006,"lat":43.386440367815,"lng":-1.313921444,"addr":"Route d'Elizaberri","city":"Hasparren","cp":"64240","fuels":{"Gazole":{"p":1.789,"d":"2026-03-04"},"E10":{"p":1.714,"d":"2026-03-04"},"SP98":{"p":1.814,"d":"2026-03-04"}}},{"id":64480004,"lat":43.372,"lng":-1.435,"addr":"Route de CAMBO","city":"LARRESSORE","cp":"64480","fuels":{"Gazole":{"p":1.86,"d":"2026-03-03"},"E10":{"p":1.82,"d":"2026-03-03"},"SP98":{"p":1.9,"d":"2026-03-03"}}},{"id":64260005,"lat":43.098,"lng":-0.416,"addr":"Avenue Aristide Briand","city":"Louvie-Juzon","cp":"64260","fuels":{"Gazole":{"p":1.789,"d":"2026-03-02"},"E10":{"p":1.729,"d":"2026-03-02"},"SP98":{"p":1.839,"d":"2026-03-02"}}},{"id":64300007,"lat":43.542533211343994,"lng":-0.6828918786267301,"addr":"ZA DE L'ESCLAUZE","city":"SAULT DE NAVAILLES","cp":"64300","fuels":{"Gazole":{"p":1.699,"d":"2026-03-02"},"E10":{"p":1.689,"d":"2026-03-02"},"SP98":{"p":1.799,"d":"2026-03-02"}}},{"id":64530002,"lat":43.186,"lng":-0.115,"addr":"ZA Le Pey","city":"PONTACQ","cp":"64530","fuels":{"Gazole":{"p":1.829,"d":"2026-03-03"},"E10":{"p":1.739,"d":"2026-03-03"},"SP98":{"p":1.849,"d":"2026-03-03"}}},{"id":64490001,"lat":42.974,"lng":-0.601,"addr":"LE BOURG","city":"Accous","cp":"64490","fuels":{"Gazole":{"p":1.689,"d":"2026-03-03"},"SP95":{"p":1.739,"d":"2026-03-03"},"SP98":{"p":1.849,"d":"2026-03-03"}}},{"id":64260002,"lat":43.109,"lng":-0.432,"addr":"22 rue du Parc National","city":"ARUDY","cp":"64260","fuels":{"Gazole":{"p":1.789,"d":"2026-03-04"},"SP95":{"p":1.792,"d":"2026-03-04"},"SP98":{"p":1.839,"d":"2026-03-04"}}},{"id":64250001,"lat":43.338,"lng":-1.405,"addr":"ZA Errobi","city":"ITXASSOU","cp":"64250","fuels":{"Gazole":{"p":1.799,"d":"2026-03-04"},"SP95":{"p":1.789,"d":"2026-03-04"},"E10":{"p":1.739,"d":"2026-03-04"},"SP98":{"p":1.819,"d":"2026-03-04"}}},{"id":64200009,"lat":43.482,"lng":-1.543,"addr":"80, AVENUE DE LA MARNE","city":"BIARRITZ","cp":"64200","fuels":{"Gazole":{"p":1.99,"d":"2026-03-04"},"E85":{"p":0.771,"d":"2026-03-04"},"E10":{"p":1.843,"d":"2026-03-04"},"SP98":{"p":1.953,"d":"2026-03-04"}}},{"id":64110004,"lat":43.279,"lng":-0.361,"addr":"Avenue du Général de Gaulle","city":"Mazères-Lezons","cp":"64110","fuels":{"Gazole":{"p":1.749,"d":"2026-03-04"},"E85":{"p":0.735,"d":"2026-03-04"},"GPLc":{"p":0.98,"d":"2026-03-04"},"E10":{"p":1.75,"d":"2026-03-04"},"SP98":{"p":1.825,"d":"2026-03-04"}}},{"id":64270005,"lat":43.527265816904,"lng":-0.91705815232016,"addr":"865 RD 817","city":"PUYOO","cp":"64270","fuels":{"Gazole":{"p":1.77,"d":"2026-03-04"},"E85":{"p":0.738,"d":"2026-03-04"},"E10":{"p":1.749,"d":"2026-03-04"}}},{"id":64780001,"lat":43.234385637161,"lng":-1.2965108393474,"addr":"Quartier Gahardou Sud","city":"Ossès","cp":"64780","fuels":{"Gazole":{"p":1.799,"d":"2026-03-04"},"E10":{"p":1.739,"d":"2026-03-04"},"SP98":{"p":1.819,"d":"2026-03-04"}}},{"id":64500004,"lat":43.39172,"lng":-1.65483,"addr":"RN 10","city":"SAINT-JEAN-DE-LUZ","cp":"64500","fuels":{"Gazole":{"p":1.99,"d":"2026-03-04"},"SP95":{"p":1.779,"d":"2025-09-19"},"E10":{"p":1.838,"d":"2026-03-04"}}},{"id":64220004,"lat":43.165,"lng":-1.234,"addr":"AV DU JAI ALAI","city":"Saint-Jean-Pied-de-Port","cp":"64220","fuels":{"Gazole":{"p":1.749,"d":"2026-03-03"},"SP95":{"p":1.76,"d":"2026-03-03"},"E85":{"p":0.856,"d":"2026-03-03"},"SP98":{"p":1.823,"d":"2026-03-03"}}},{"id":64100015,"lat":43.492,"lng":-1.459,"addr":"20 AVENUE MARECHAL JUIN","city":"BAYONNE","cp":"64100","fuels":{"Gazole":{"p":1.933,"d":"2026-03-04"},"E85":{"p":0.762,"d":"2026-03-04"},"GPLc":{"p":0.789,"d":"2026-03-04"},"E10":{"p":1.762,"d":"2026-03-04"},"SP98":{"p":1.859,"d":"2026-03-04"}}},{"id":64140007,"lat":43.329,"lng":-0.382,"addr":"Centre commercial du mail de Lons 21 Avenue Didier Daurat","city":"Lons","cp":"64140","fuels":{"Gazole":{"p":1.789,"d":"2026-03-03"},"E85":{"p":0.739,"d":"2026-02-02"},"GPLc":{"p":0.999,"d":"2025-12-21"},"E10":{"p":1.749,"d":"2026-03-03"},"SP98":{"p":1.809,"d":"2026-03-03"}}},{"id":64150004,"lat":43.374,"lng":-0.623,"addr":"Avenue Charles Moureu","city":"Mourenx","cp":"64150","fuels":{"Gazole":{"p":1.85,"d":"2026-03-03"},"SP95":{"p":1.792,"d":"2026-03-03"},"E10":{"p":1.741,"d":"2026-03-03"}}},{"id":64000007,"lat":43.339,"lng":-0.38,"addr":"34 Avenue des Martyrs du Pont Long","city":"Pau","cp":"64000","fuels":{"Gazole":{"p":1.919,"d":"2026-03-04"},"E85":{"p":0.852,"d":"2026-03-04"},"E10":{"p":1.749,"d":"2026-03-04"},"SP98":{"p":1.859,"d":"2026-03-04"}}},{"id":64110003,"lat":43.28,"lng":-0.388,"addr":"AVENUE HENRI IV","city":"Jurançon","cp":"64110","fuels":{"Gazole":{"p":1.99,"d":"2026-03-04"},"E10":{"p":1.849,"d":"2026-03-04"},"SP98":{"p":1.959,"d":"2026-03-04"}}},{"id":64220003,"lat":43.169,"lng":-1.228,"addr":"CD 933","city":"Ispoure","cp":"64220","fuels":{"Gazole":{"p":1.699,"d":"2026-02-25"},"SP95":{"p":1.759,"d":"2026-02-25"},"E10":{"p":1.689,"d":"2026-02-25"},"SP98":{"p":1.781,"d":"2026-02-25"}}},{"id":64250006,"lat":43.361990417914996,"lng":-1.4037713241495,"addr":"17 Allée Edmond Rostand","city":"CAMBO-LES-BAINS","cp":"64250","fuels":{"Gazole":{"p":1.649,"d":"2026-01-13"},"SP95":{"p":1.699,"d":"2026-01-13"},"SP98":{"p":1.769,"d":"2026-01-13"}}},{"id":64170001,"lat":43.415,"lng":-0.628,"addr":"35 Route Départementale 817","city":"LACQ","cp":"64170","fuels":{"Gazole":{"p":1.99,"d":"2026-03-03"},"E85":{"p":0.795,"d":"2026-03-03"},"E10":{"p":1.854,"d":"2026-03-03"},"SP98":{"p":1.964,"d":"2026-03-03"}}},{"id":64220002,"lat":43.165,"lng":-1.195,"addr":"1151 rte de St Jean Pied de Port","city":"SAINT-JEAN-LE-VIEUX","cp":"64220","fuels":{"Gazole":{"p":1.99,"d":"2026-03-04"},"E10":{"p":1.854,"d":"2026-03-04"},"SP98":{"p":1.964,"d":"2026-03-04"}}},{"id":64450001,"lat":43.444,"lng":-0.324,"addr":"21 ROUTE DE BORDEAUX","city":"Astis","cp":"64450","fuels":{"Gazole":{"p":1.909,"d":"2026-03-04"},"E10":{"p":1.869,"d":"2026-03-04"},"SP98":{"p":1.959,"d":"2026-03-04"}}},{"id":64170005,"lat":43.398,"lng":-0.571,"addr":"RUE DE LA PATTE D'OIE","city":"Artix","cp":"64170","fuels":{"Gazole":{"p":1.85,"d":"2026-03-03"},"SP95":{"p":1.792,"d":"2026-03-03"},"SP98":{"p":1.838,"d":"2026-03-03"}}},{"id":64450002,"lat":43.466308074834004,"lng":-0.32354437640108,"addr":"1 ROUTE DE BORDEAUX","city":"AURIAC","cp":"64450","fuels":{"Gazole":{"p":1.795,"d":"2026-03-02"},"SP95":{"p":1.839,"d":"2026-03-02"}}},{"id":64100013,"lat":43.482,"lng":-1.483,"addr":"14 Avenue Interne Jacques Loëb","city":"BAYONNE","cp":"64100","fuels":{"Gazole":{"p":2.009,"d":"2026-03-04"},"E10":{"p":1.829,"d":"2026-03-04"}}},{"id":64240003,"lat":43.385,"lng":-1.313,"addr":"Route de Cambo","city":"Hasparren","cp":"64240","fuels":{"Gazole":{"p":1.789,"d":"2026-03-04"},"E85":{"p":0.728,"d":"2026-02-26"},"E10":{"p":1.714,"d":"2026-03-04"},"SP98":{"p":1.796,"d":"2026-02-26"}}},{"id":64300003,"lat":43.489574973062,"lng":-0.7974859688961601,"addr":"419 Route de Bayonne","city":"Orthez","cp":"64300","fuels":{"Gazole":{"p":1.779,"d":"2026-03-04"},"E85":{"p":0.738,"d":"2026-03-04"},"GPLc":{"p":0.98,"d":"2026-03-04"},"E10":{"p":1.749,"d":"2026-03-04"},"SP98":{"p":1.829,"d":"2026-03-04"}}},{"id":64350003,"lat":43.450533459820996,"lng":-0.10784007597158,"addr":"Rue des Pelhans","city":"LEMBEYE","cp":"64350","fuels":{"Gazole":{"p":1.886,"d":"2026-03-03"},"SP95":{"p":1.815,"d":"2026-03-03"},"SP98":{"p":1.881,"d":"2026-03-03"}}},{"id":64480001,"lat":43.393,"lng":-1.457,"addr":"CD 932 - RUE BAZTER","city":"Ustaritz","cp":"64480","fuels":{"Gazole":{"p":1.86,"d":"2026-03-04"},"E85":{"p":0.769,"d":"2026-02-09"},"E10":{"p":1.739,"d":"2026-03-03"},"SP98":{"p":1.835,"d":"2026-03-04"}}},{"id":64604001,"lat":43.49346,"lng":-1.51826,"addr":"Boulevard du B.A.B.BP 423","city":"Anglet","cp":"64600","fuels":{"Gazole":{"p":1.86,"d":"2026-03-04"},"SP95":{"p":1.795,"d":"2026-03-04"},"E85":{"p":0.755,"d":"2026-02-21"},"E10":{"p":1.725,"d":"2026-03-04"},"SP98":{"p":1.835,"d":"2026-03-04"}}},{"id":64170014,"lat":43.392439,"lng":-0.555477,"addr":"Zone Eurolacq 2  51 RUE DES ECUREUILS","city":"ARTIX","cp":"64170","fuels":{"Gazole":{"p":1.839,"d":"2026-03-03"},"E85":{"p":0.799,"d":"2026-03-03"},"GPLc":{"p":0.999,"d":"2026-02-13"},"E10":{"p":1.755,"d":"2026-03-03"},"SP98":{"p":1.855,"d":"2026-03-03"}}}]