[{"id":66170002,"lat":42.692,"lng":2.691,"addr":"157 AVENUE JEAN JAURES","city":"MILLAS","cp":"66170","fuels":{"Gazole":{"p":1.996,"d":"2026-03-05"},"SP95":{"p":1.936,"d":"2026-03-05"},"SP98":{"p":1.966,"d":"2026-03-05"}}},{"id":66700003,"lat":42.55,"lng":3.041,"addr":"Avenue du 8 mai 1945","city":"ARGELèS-SUR-MER","cp":"66700","fuels":{"Gazole":{"p":1.849,"d":"2026-03-05"},"SP95":{"p":1.859,"d":"2026-03-05"},"E85":{"p":0.809,"d":"2026-02-02"},"GPLc":{"p":1.039,"d":"2026-02-23"},"SP98":{"p":1.899,"d":"2026-03-05"}}},{"id":66005001,"lat":42.686492490449,"lng":2.8827135110700004,"addr":"Avenue Victor Dalbiez","city":"Perpignan","cp":"66000","fuels":{"Gazole":{"p":1.799,"d":"2026-03-05"},"SP95":{"p":1.809,"d":"2026-03-05"},"E85":{"p":0.719,"d":"2026-03-05"},"SP98":{"p":1.839,"d":"2026-03-05"}}},{"id":66028001,"lat":42.668,"lng":2.884,"addr":"AVENUE D'ESPAGNE","city":"PERPIGNAN","cp":"66000","fuels":{"Gazole":{"p":1.771,"d":"2026-03-04"},"E85":{"p":0.719,"d":"2026-02-24"},"GPLc":{"p":0.939,"d":"2026-03-03"},"E10":{"p":1.729,"d":"2026-03-04"},"SP98":{"p":1.819,"d":"2026-03-04"}}},{"id":66250001,"lat":42.773,"lng":3.011,"addr":"Route du Barcarès","city":"Saint-Laurent-de-la-Salanque","cp":"66250","fuels":{"Gazole":{"p":1.99,"d":"2026-03-04"},"E10":{"p":1.866,"d":"2026-03-04"},"SP98":{"p":1.976,"d":"2026-03-04"}}},{"id":66510001,"lat":42.46292,"lng":2.63868,"addr":"Route d'Amélie les Bains","city":"Arles-sur-Tech","cp":"66150","fuels":{"Gazole":{"p":1.789,"d":"2026-02-23"},"E85":{"p":0.959,"d":"2025-05-16"},"E10":{"p":1.819,"d":"2026-02-23"},"SP98":{"p":1.919,"d":"2026-02-23"}}},{"id":66420003,"lat":42.824,"lng":3.035,"addr":"Avenue du Roussillon","city":"LE BARCARèS","cp":"66420","fuels":{"Gazole":{"p":1.809,"d":"2026-03-03"},"E85":{"p":0.792,"d":"2026-03-03"},"E10":{"p":1.782,"d":"2026-03-03"},"SP98":{"p":1.864,"d":"2026-03-03"}}},{"id":66740003,"lat":42.548,"lng":2.941,"addr":"ROUTE D ARGELES","city":"Laroque-des-Albères","cp":"66740","fuels":{"Gazole":{"p":1.849,"d":"2026-03-04"},"SP95":{"p":1.819,"d":"2026-03-04"},"E10":{"p":1.789,"d":"2026-03-04"},"SP98":{"p":1.899,"d":"2026-03-04"}}},{"id":66200001,"lat":42.607,"lng":2.977,"addr":"10, Boulevard Jacques Albert","city":"ELNE","cp":"66200","fuels":{"Gazole":{"p":1.859,"d":"2026-03-04"},"E10":{"p":1.769,"d":"2026-03-04"},"SP98":{"p":1.879,"d":"2026-03-04"}}},{"id":66300013,"lat":42.578357582464,"lng":2.8474529225529004,"addr":"A9 - AIRE DES VILLAGES CATALANS","city":"Banyuls-dels-Aspres","cp":"66300","fuels":{"Gazole":{"p":2.019,"d":"2026-03-04"},"GPLc":{"p":1.095,"d":"2026-03-04"},"E10":{"p":1.959,"d":"2026-03-04"},"SP98":{"p":2.069,"d":"2026-03-04"}}},{"id":66210005,"lat":42.507,"lng":2.123,"addr":"3 RD 66","city":"LA CABANASSE / MONT LOUIS","cp":"66210","fuels":{"Gazole":{"p":1.8,"d":"2026-01-19"},"SP95":{"p":1.89,"d":"2026-01-19"},"E85":{"p":0.892,"d":"2026-01-19"}}},{"id":66962001,"lat":42.701,"lng":2.944,"addr":"route de canet","city":"PERPIGNAN","cp":"66000","fuels":{"Gazole":{"p":1.822,"d":"2026-03-04"},"SP95":{"p":1.778,"d":"2026-03-04"},"E85":{"p":0.726,"d":"2026-03-04"},"E10":{"p":1.739,"d":"2026-03-04"},"SP98":{"p":1.85,"d":"2026-03-04"}}},{"id":66530001,"lat":42.777,"lng":2.917,"addr":"Route du Barcares","city":"CLAIRA","cp":"66530","fuels":{"Gazole":{"p":1.897,"d":"2026-03-05"},"SP95":{"p":1.808,"d":"2026-03-05"},"GPLc":{"p":0.959,"d":"2025-11-10"},"E10":{"p":1.797,"d":"2026-03-05"},"SP98":{"p":1.87,"d":"2026-03-05"}}},{"id":66420001,"lat":42.78737,"lng":3.0349,"addr":"BOULEVARD DU 14 JUILLET","city":"LE BARCARèS","cp":"66420","fuels":{"Gazole":{"p":1.789,"d":"2026-03-03"},"E10":{"p":1.759,"d":"2026-03-04"},"SP98":{"p":1.859,"d":"2026-03-03"}}},{"id":66270004,"lat":42.686090286948,"lng":2.8171065594274998,"addr":"ZA SAINTE EUGENIE","city":"LE SOLER","cp":"66270","fuels":{"Gazole":{"p":1.699,"d":"2026-03-03"},"E10":{"p":1.729,"d":"2026-03-03"},"SP98":{"p":1.859,"d":"2026-03-03"}}},{"id":66420002,"lat":42.787,"lng":3.035,"addr":"Boulevard du 14 Juillet","city":"LE BARCARèS","cp":"66420","fuels":{"Gazole":{"p":1.809,"d":"2026-03-03"},"E10":{"p":1.782,"d":"2026-03-03"},"SP98":{"p":1.864,"d":"2026-03-03"}}},{"id":66330002,"lat":42.692,"lng":2.92,"addr":"4 Rue Louis Joseph Gay-Lussac","city":"Cabestany","cp":"66330","fuels":{"SP95":{"p":1.799,"d":"2026-03-04"},"E85":{"p":0.729,"d":"2026-01-23"},"E10":{"p":1.729,"d":"2026-03-04"}}},{"id":66000003,"lat":42.684,"lng":2.865,"addr":"2060 Avenue Julien Panchot","city":"PERPIGNAN","cp":"66000","fuels":{"Gazole":{"p":1.839,"d":"2026-03-04"},"E10":{"p":1.749,"d":"2026-03-04"},"SP98":{"p":1.889,"d":"2026-03-04"}}},{"id":66650002,"lat":42.48173,"lng":3.12928,"addr":"RN 114 ZAC DE LA RECTORIE","city":"BANYULS-SUR-MER","cp":"66650","fuels":{"Gazole":{"p":1.829,"d":"2026-03-04"},"E10":{"p":1.789,"d":"2026-03-04"},"SP98":{"p":1.899,"d":"2026-03-04"}}},{"id":66210004,"lat":42.514676682713,"lng":2.0621731288780003,"addr":"D618, route de la forêt","city":"Bolquère","cp":"66210","fuels":{"Gazole":{"p":1.849,"d":"2026-03-04"},"E10":{"p":1.769,"d":"2026-03-04"},"SP98":{"p":1.859,"d":"2026-03-04"}}},{"id":66250003,"lat":42.774,"lng":2.998,"addr":"AVENUE DE LA COTE VERMEILLE","city":"SAINT-LAURENT-DE-LA-SALANQUE","cp":"66250","fuels":{"Gazole":{"p":1.72,"d":"2026-02-20"},"SP95":{"p":1.79,"d":"2026-02-20"}}},{"id":66120001,"lat":42.498,"lng":2.013,"addr":"ROND POINT D'EGAT","city":"ÉGAT","cp":"66120","fuels":{"Gazole":{"p":1.789,"d":"2026-03-03"},"E85":{"p":0.899,"d":"2026-03-03"},"E10":{"p":1.799,"d":"2026-03-03"},"SP98":{"p":1.859,"d":"2026-03-03"}}},{"id":66100002,"lat":42.68191049007,"lng":2.9105356045465998,"addr":"294, AVENUE D'ARGELES SUR MER","city":"PERPIGNAN","cp":"66100","fuels":{"Gazole":{"p":1.984,"d":"2026-03-05"},"E85":{"p":0.799,"d":"2026-03-05"},"E10":{"p":1.863,"d":"2026-03-05"},"SP98":{"p":1.973,"d":"2026-03-05"}}},{"id":66600002,"lat":42.78,"lng":2.899,"addr":"2 RUE JEANNE BARRET-MASGARRIGUE SUD","city":"RIVESALTES","cp":"66600","fuels":{"Gazole":{"p":1.879,"d":"2026-03-05"},"E85":{"p":0.762,"d":"2026-03-05"},"E10":{"p":1.767,"d":"2026-03-05"},"SP98":{"p":1.878,"d":"2026-03-05"}}},{"id":66300012,"lat":42.631,"lng":2.762,"addr":"1 AVENUE COTE VERMEILLE","city":"THUIR","cp":"66300","fuels":{"Gazole":{"p":1.789,"d":"2026-03-04"},"E10":{"p":1.759,"d":"2026-03-04"},"SP98":{"p":1.869,"d":"2026-03-04"}}},{"id":66700007,"lat":42.575,"lng":3.035,"addr":"5 ROUTE DU LITTORAL","city":"Argelès-sur-Mer","cp":"66700","fuels":{"Gazole":{"p":1.99,"d":"2026-03-04"},"E85":{"p":0.769,"d":"2026-02-14"},"E10":{"p":1.879,"d":"2026-03-04"}}},{"id":66240001,"lat":42.717,"lng":2.839,"addr":"8 Boulevard du Canigou","city":"SAINT-ESTèVE","cp":"66240","fuels":{"Gazole":{"p":1.785,"d":"2026-03-03"},"SP95":{"p":1.829,"d":"2026-03-03"},"E10":{"p":1.755,"d":"2026-03-03"}}},{"id":66140003,"lat":42.700202999999995,"lng":3.020355,"addr":"Centre commercial les alizées","city":"Canet-en-Roussillon","cp":"66140","fuels":{"Gazole":{"p":1.775,"d":"2026-03-03"},"E85":{"p":0.759,"d":"2026-03-04"},"E10":{"p":1.759,"d":"2026-03-03"},"SP98":{"p":1.859,"d":"2026-03-03"}}},{"id":66500001,"lat":42.625,"lng":2.428,"addr":"Grande Rocade","city":"Prades","cp":"66500","fuels":{"Gazole":{"p":1.829,"d":"2026-03-04"},"E85":{"p":0.719,"d":"2026-02-17"},"E10":{"p":1.749,"d":"2026-03-04"},"SP98":{"p":1.879,"d":"2026-03-04"}}},{"id":66170001,"lat":42.693,"lng":2.687,"addr":"Route de Prades","city":"Millas","cp":"66170","fuels":{"Gazole":{"p":1.849,"d":"2026-03-04"},"E85":{"p":0.759,"d":"2026-03-04"},"E10":{"p":1.759,"d":"2026-03-04"},"SP98":{"p":1.869,"d":"2026-03-04"}}},{"id":66600001,"lat":42.7577057024,"lng":2.8656329183900002,"addr":"Avenue de l'aéroport","city":"RIVESALTES","cp":"66600","fuels":{"Gazole":{"p":1.849,"d":"2026-03-04"},"E85":{"p":0.758,"d":"2026-03-04"},"E10":{"p":1.749,"d":"2026-03-04"}}},{"id":66130002,"lat":42.677,"lng":2.634,"addr":"C.COMMERCIAL DU RIBERAL","city":"ILLE-SUR-TêT","cp":"66130","fuels":{"Gazole":{"p":1.809,"d":"2026-03-04"},"E85":{"p":0.719,"d":"2026-02-04"},"GPLc":{"p":0.96,"d":"2025-04-10"},"E10":{"p":1.71,"d":"2026-03-04"},"SP98":{"p":1.85,"d":"2026-03-04"}}},{"id":66160004,"lat":42.5331814,"lng":2.8392185999999997,"addr":"9 Carrer d'en cavailles","city":"Le Boulou","cp":"66160","fuels":{"Gazole":{"p":1.886,"d":"2026-03-04"},"E10":{"p":1.759,"d":"2026-03-04"},"SP98":{"p":1.879,"d":"2026-03-04"}}},{"id":66330001,"lat":42.658,"lng":2.952,"addr":"Avenue de Perpignan","city":"SALEILLES","cp":"66280","fuels":{"Gazole":{"p":1.99,"d":"2026-03-04"},"E10":{"p":1.869,"d":"2026-03-05"},"SP98":{"p":1.979,"d":"2026-03-05"}}},{"id":66200002,"lat":42.607883503923,"lng":2.9237131744831997,"addr":"RD 612 - le pain de sucre","city":"MONTESCOT","cp":"66200","fuels":{"Gazole":{"p":1.889,"d":"2026-03-04"},"E85":{"p":0.758,"d":"2026-03-04"},"E10":{"p":1.789,"d":"2026-03-04"},"SP98":{"p":1.909,"d":"2026-03-04"}}},{"id":66660002,"lat":42.514,"lng":3.104,"addr":"ROUTE DE LA GARE","city":"Port-Vendres","cp":"66660","fuels":{"Gazole":{"p":1.706,"d":"2026-03-02"},"E85":{"p":0.754,"d":"2026-03-02"},"E10":{"p":1.725,"d":"2026-03-02"},"SP98":{"p":1.839,"d":"2026-03-02"}}},{"id":66270001,"lat":42.686,"lng":2.813,"addr":"Avenue Jean Jaurès","city":"Le Soler","cp":"66270","fuels":{"Gazole":{"p":1.706,"d":"2026-03-03"},"E10":{"p":1.734,"d":"2026-03-03"}}},{"id":66750004,"lat":42.6355120543,"lng":3.03407473298,"addr":"74 BOULEVARD DESNOYER","city":"Saint-Cyprien","cp":"66750","fuels":{"Gazole":{"p":1.885,"d":"2026-03-05"},"E85":{"p":0.765,"d":"2026-03-05"},"E10":{"p":1.769,"d":"2026-03-05"},"SP98":{"p":1.885,"d":"2026-03-05"}}},{"id":66000010,"lat":42.689,"lng":2.894,"addr":"43 Avenue du Général Guillaut","city":"Perpignan","cp":"66000","fuels":{"Gazole":{"p":1.879,"d":"2026-03-05"},"E85":{"p":0.846,"d":"2026-03-05"},"E10":{"p":1.759,"d":"2026-03-05"},"SP98":{"p":1.886,"d":"2026-03-05"}}},{"id":66380001,"lat":42.749,"lng":2.895,"addr":"KM 6 ROUTE NATIONALE 9","city":"Pia","cp":"66380","fuels":{"Gazole":{"p":1.879,"d":"2026-03-05"},"E10":{"p":1.767,"d":"2026-03-05"},"SP98":{"p":1.878,"d":"2026-03-05"}}},{"id":66000020,"lat":42.726622344591,"lng":2.8992196288361,"addr":"Impasse Jacques de Noëll","city":"PERPIGNAN","cp":"66000","fuels":{"Gazole":{"p":1.879,"d":"2026-03-05"},"E85":{"p":0.796,"d":"2026-02-03"},"E10":{"p":1.759,"d":"2026-03-05"},"SP98":{"p":1.869,"d":"2026-03-05"}}},{"id":66300015,"lat":42.626,"lng":2.767,"addr":"DEP 612 - LIEU DIT LE SALAOU","city":"LLUPIA","cp":"66300","fuels":{"Gazole":{"p":1.639,"d":"2026-02-22"},"E85":{"p":0.754,"d":"2026-01-12"},"E10":{"p":1.679,"d":"2026-02-22"},"SP98":{"p":1.798,"d":"2026-02-22"}}},{"id":66000012,"lat":42.689,"lng":2.878,"addr":"855 Avenue Julien Panchot","city":"PERPIGNAN","cp":"66000","fuels":{"Gazole":{"p":1.866,"d":"2026-03-03"},"SP95":{"p":1.874,"d":"2026-03-03"},"E10":{"p":1.844,"d":"2026-03-03"}}},{"id":66690001,"lat":42.553,"lng":2.977,"addr":"CD 618 LIEU DIT COULOUMES","city":"Saint-André","cp":"66690","fuels":{"Gazole":{"p":1.879,"d":"2026-03-05"},"E85":{"p":0.758,"d":"2026-03-04"},"E10":{"p":1.779,"d":"2026-03-05"},"SP98":{"p":1.899,"d":"2026-03-05"}}},{"id":66220001,"lat":42.809,"lng":2.5,"addr":"Lotissement le Pla","city":"SAINT-PAUL-DE-FENOUILLET","cp":"66220","fuels":{"Gazole":{"p":1.799,"d":"2026-03-04"},"E10":{"p":1.749,"d":"2026-03-04"},"SP98":{"p":1.849,"d":"2026-03-04"}}},{"id":66624001,"lat":42.716,"lng":2.844,"addr":"14 rue des grillons","city":"Saint-Estève","cp":"66240","fuels":{"Gazole":{"p":1.91,"d":"2026-03-04"},"SP95":{"p":1.9,"d":"2026-03-04"},"E85":{"p":0.86,"d":"2026-03-04"},"SP98":{"p":1.95,"d":"2026-03-04"}}},{"id":66530002,"lat":42.777,"lng":2.951,"addr":"RD 83 borne 12","city":"CLAIRA","cp":"66530","fuels":{"Gazole":{"p":1.899,"d":"2026-03-04"},"E85":{"p":0.779,"d":"2026-03-03"},"E10":{"p":1.799,"d":"2026-03-03"}}},{"id":66201001,"lat":42.611,"lng":2.962,"addr":"72 ROUTE DE PERPIGNAN","city":"Elne","cp":"66200","fuels":{"Gazole":{"p":1.8,"d":"2026-03-04"},"SP95":{"p":1.87,"d":"2026-03-04"},"E10":{"p":1.83,"d":"2026-03-04"}}},{"id":66160001,"lat":42.532,"lng":2.84,"addr":"Route de Perpignan","city":"LE BOULOU","cp":"66160","fuels":{"Gazole":{"p":1.771,"d":"2026-03-05"},"E85":{"p":0.719,"d":"2026-03-05"},"E10":{"p":1.729,"d":"2026-03-05"},"SP98":{"p":1.819,"d":"2026-03-05"}}},{"id":66000005,"lat":42.71,"lng":2.885,"addr":"21 Boulevard Docteur Joseph Dénoyes","city":"PERPIGNAN","cp":"66000","fuels":{"Gazole":{"p":1.889,"d":"2026-03-04"},"SP95":{"p":1.829,"d":"2026-03-04"},"E10":{"p":1.739,"d":"2026-03-04"},"SP98":{"p":1.869,"d":"2026-03-04"}}},{"id":66450001,"lat":42.641,"lng":2.877,"addr":"Lieu dit La Devèze","city":"POLLESTRES","cp":"66450","fuels":{"Gazole":{"p":1.899,"d":"2026-03-05"},"SP95":{"p":1.879,"d":"2026-03-05"},"E85":{"p":0.759,"d":"2026-03-05"},"E10":{"p":1.799,"d":"2026-03-05"}}},{"id":66430002,"lat":42.721427735008,"lng":2.9340018281029003,"addr":"ROUTE DE TORREILLES","city":"BOMPAS","cp":"66430","fuels":{"Gazole":{"p":1.879,"d":"2026-03-04"},"SP95":{"p":1.839,"d":"2026-03-03"},"SP98":{"p":1.879,"d":"2026-03-03"}}},{"id":66250002,"lat":42.774,"lng":3.014,"addr":"Route du Barcarès","city":"Saint-Laurent-de-la-Salanque","cp":"66250","fuels":{"Gazole":{"p":1.839,"d":"2026-03-04"},"E85":{"p":0.728,"d":"2026-02-21"},"E10":{"p":1.739,"d":"2026-03-04"}}},{"id":66200003,"lat":42.609517496565005,"lng":3.0095001852417,"addr":"avenue de Saint Cyprien","city":"Latour-Bas-Elne","cp":"66200","fuels":{"Gazole":{"p":1.859,"d":"2026-03-04"},"E85":{"p":0.758,"d":"2026-03-04"},"E10":{"p":1.769,"d":"2026-03-04"},"SP98":{"p":1.879,"d":"2026-03-04"}}},{"id":66000021,"lat":42.666794065493,"lng":2.8953289633491,"addr":"AVENUE ANDRE TOURNE","city":"PERPIGNAN","cp":"66000","fuels":{"Gazole":{"p":1.889,"d":"2026-03-04"},"E10":{"p":1.765,"d":"2026-03-04"},"SP98":{"p":1.885,"d":"2026-03-04"}}},{"id":66300014,"lat":42.64,"lng":2.757,"addr":"chemin de Camalens av de la padrouze","city":"THUIR","cp":"66300","fuels":{"Gazole":{"p":1.829,"d":"2026-03-05"},"E85":{"p":0.728,"d":"2026-02-26"},"E10":{"p":1.749,"d":"2026-03-05"},"SP98":{"p":1.879,"d":"2026-03-05"}}},{"id":66680001,"lat":42.663,"lng":2.846,"addr":"Rue Couloumine","city":"Canohès","cp":"66680","fuels":{"Gazole":{"p":1.899,"d":"2026-03-05"},"E85":{"p":0.728,"d":"2026-03-05"},"E10":{"p":1.799,"d":"2026-03-05"},"SP98":{"p":1.909,"d":"2026-03-05"}}},{"id":66000016,"lat":42.679,"lng":2.852,"addr":"3170, Avenue Julien Panchot","city":"Perpignan","cp":"66000","fuels":{"Gazole":{"p":1.879,"d":"2026-03-05"},"E85":{"p":0.789,"d":"2026-02-04"},"E10":{"p":1.759,"d":"2026-03-05"},"SP98":{"p":1.886,"d":"2026-03-05"}}},{"id":66300017,"lat":42.591422,"lng":2.842523,"addr":"1 RUE DE LA COMMANDERIE","city":"VILLEMOLAQUE","cp":"66300","fuels":{"Gazole":{"p":1.699,"d":"2026-02-27"},"E10":{"p":1.729,"d":"2026-02-27"}}},{"id":66200005,"lat":42.609543969102,"lng":2.9985217187759,"addr":"Zac des Aspres - Av. Lou Torrent","city":"Latour-Bas-Elne","cp":"66200","fuels":{"Gazole":{"p":1.859,"d":"2026-03-04"},"E10":{"p":1.769,"d":"2026-03-04"},"SP98":{"p":1.879,"d":"2026-03-04"}}},{"id":66400004,"lat":42.501,"lng":2.758,"addr":"3 rue Batère","city":"CéRET","cp":"66400","fuels":{"Gazole":{"p":1.732,"d":"2026-03-05"},"E85":{"p":0.728,"d":"2026-03-04"},"E10":{"p":1.728,"d":"2026-03-05"},"SP98":{"p":1.845,"d":"2026-03-04"}}},{"id":66140002,"lat":42.707,"lng":3.015,"addr":"2 Boulevard Las Bigues","city":"Canet-en-Roussillon","cp":"66140","fuels":{"Gazole":{"p":1.775,"d":"2026-03-03"},"E85":{"p":0.759,"d":"2026-03-04"},"E10":{"p":1.759,"d":"2026-03-03"},"SP98":{"p":1.859,"d":"2026-03-03"}}},{"id":66700001,"lat":42.557,"lng":3.01,"addr":"ROUTE DE PERPIGNAN","city":"ARGELèS-SUR-MER","cp":"66700","fuels":{"Gazole":{"p":1.859,"d":"2026-03-04"},"SP95":{"p":1.829,"d":"2026-03-04"},"E10":{"p":1.759,"d":"2026-03-04"}}},{"id":66000006,"lat":42.692,"lng":2.842,"addr":"3387 Avenue de Prades","city":"Perpignan","cp":"66000","fuels":{"Gazole":{"p":1.749,"d":"2026-02-18"},"E10":{"p":1.791,"d":"2026-02-18"},"SP98":{"p":1.901,"d":"2026-02-18"}}},{"id":66962002,"lat":42.742,"lng":2.892,"addr":"2130 avenue du Languedoc","city":"Perpignan","cp":"66962","fuels":{"Gazole":{"p":1.799,"d":"2026-03-05"},"SP95":{"p":1.809,"d":"2026-03-05"},"E85":{"p":0.719,"d":"2026-03-05"},"GPLc":{"p":0.959,"d":"2026-03-05"},"SP98":{"p":1.849,"d":"2026-03-05"}}},{"id":66820001,"lat":42.557,"lng":2.384,"addr":"Avenue Clemenceau","city":"VERNET-LES-BAINS","cp":"66820","fuels":{"Gazole":{"p":1.969,"d":"2026-03-04"},"E10":{"p":1.819,"d":"2026-03-04"},"SP98":{"p":1.929,"d":"2026-03-04"}}},{"id":66360001,"lat":42.553539623093,"lng":2.2678783322119,"addr":"109 avenue du général de gaulle","city":"Olette","cp":"66360","fuels":{"Gazole":{"p":1.899,"d":"2026-03-04"},"E10":{"p":1.829,"d":"2026-03-04"}}},{"id":66470002,"lat":42.732195074947,"lng":3.0252647534558004,"addr":"12 RUE GUSTAVE EIFFEL","city":"SAINTE MARIE LA MER","cp":"66470","fuels":{"Gazole":{"p":1.959,"d":"2026-03-04"},"E85":{"p":0.925,"d":"2026-03-04"},"E10":{"p":1.855,"d":"2026-03-04"},"SP98":{"p":1.999,"d":"2026-03-04"}}},{"id":66400006,"lat":42.49,"lng":2.751,"addr":"place de la resistance","city":"ceret","cp":"66400","fuels":{"Gazole":{"p":1.879,"d":"2026-03-04"},"SP95":{"p":1.849,"d":"2026-03-04"},"SP98":{"p":1.919,"d":"2026-03-04"}}},{"id":66310002,"lat":42.774847,"lng":2.712237,"addr":"1 Rue Marbigo","city":"ESTAGEL","cp":"66310","fuels":{"Gazole":{"p":1.849,"d":"2026-03-04"},"E85":{"p":0.759,"d":"2026-03-04"},"E10":{"p":1.759,"d":"2026-03-04"},"SP98":{"p":1.859,"d":"2026-03-04"}}}]