[{"id":72380001,"lat":48.145,"lng":0.17,"addr":"zone artisanale Prairie des Moulins","city":"SAINTE-JAMME-SUR-SARTHE","cp":"72380","fuels":{"Gazole":{"p":1.999,"d":"2026-03-05"},"SP95":{"p":1.829,"d":"2026-03-05"},"E10":{"p":1.749,"d":"2026-03-05"},"SP98":{"p":1.869,"d":"2026-03-05"}}},{"id":72110002,"lat":48.277,"lng":0.461,"addr":"3 rue du Perche","city":"Saint-Cosme-en-Vairais","cp":"72110","fuels":{"Gazole":{"p":1.999,"d":"2026-03-05"},"E10":{"p":1.799,"d":"2026-03-05"},"SP98":{"p":1.899,"d":"2026-03-05"}}},{"id":72400017,"lat":48.124964192082,"lng":0.62210350597264,"addr":"AUT A11 AIRE DE LA FERTE BERNARD","city":"Villaines-la-Gonais","cp":"72400","fuels":{"Gazole":{"p":2.164,"d":"2026-03-05"},"GPLc":{"p":1.099,"d":"2026-03-05"},"E10":{"p":2.094,"d":"2026-03-05"},"SP98":{"p":2.164,"d":"2026-03-05"}}},{"id":72190003,"lat":48.055086609731,"lng":0.25282942866116,"addr":"A11 - AIRE SARTHE SARGE LE MANS SUD","city":"Sargé-lès-le-Mans","cp":"72190","fuels":{"Gazole":{"p":1.99,"d":"2026-03-05"},"E85":{"p":0.999,"d":"2026-03-05"},"GPLc":{"p":0.999,"d":"2026-03-05"},"E10":{"p":1.969,"d":"2026-03-05"},"SP98":{"p":1.99,"d":"2026-03-05"}}},{"id":72440001,"lat":47.972,"lng":0.556,"addr":"129 RUE NATIONALE","city":"BOULOIRE","cp":"72440","fuels":{"Gazole":{"p":1.899,"d":"2026-03-04"},"SP95":{"p":1.829,"d":"2026-03-04"},"SP98":{"p":1.859,"d":"2026-03-04"}}},{"id":72320005,"lat":48.068127000000004,"lng":0.731916,"addr":"route de la ferte bernard","city":"vibraye","cp":"72320","fuels":{"Gazole":{"p":1.699,"d":"2025-06-28"},"SP98":{"p":1.799,"d":"2025-06-28"}}},{"id":72360002,"lat":47.762,"lng":0.275,"addr":"33 avenue du 14 juillet","city":"Mayet","cp":"72360","fuels":{"Gazole":{"p":1.899,"d":"2026-03-05"},"E10":{"p":1.769,"d":"2026-03-05"},"SP98":{"p":1.889,"d":"2026-03-05"}}},{"id":72650002,"lat":48.021,"lng":0.108,"addr":"RN 157 - LE RELAIS DE LA LANDE","city":"TRANGé","cp":"72650","fuels":{"Gazole":{"p":1.99,"d":"2026-03-04"},"E10":{"p":1.841,"d":"2026-03-05"},"SP98":{"p":1.951,"d":"2026-03-05"}}},{"id":72300010,"lat":47.731906524016,"lng":-0.23805428567193002,"addr":"2 AVENUE DU POIRIER ROUGE","city":"La Chapelle-d'Aligné","cp":"72300","fuels":{"Gazole":{"p":1.799,"d":"2026-03-04"},"SP95":{"p":1.719,"d":"2026-03-04"}}},{"id":72360001,"lat":47.757,"lng":0.272,"addr":"3 rue la croix beudet","city":"Mayet","cp":"72360","fuels":{"Gazole":{"p":2.22,"d":"2026-03-04"},"SP95":{"p":2.047,"d":"2026-03-04"},"SP98":{"p":2.05,"d":"2026-03-04"}}},{"id":72000014,"lat":47.997,"lng":0.228,"addr":"284 Avenue Léon Bollée","city":"Le Mans","cp":"72000","fuels":{"Gazole":{"p":1.889,"d":"2026-03-04"},"SP95":{"p":1.849,"d":"2026-03-04"},"E10":{"p":1.749,"d":"2026-03-04"},"SP98":{"p":1.848,"d":"2026-03-04"}}},{"id":72300003,"lat":47.83052,"lng":-0.31316,"addr":"Route de la Flèche","city":"SABLé-SUR-SARTHE","cp":"72300","fuels":{"Gazole":{"p":1.885,"d":"2026-03-04"},"SP95":{"p":1.89,"d":"2026-03-04"},"E10":{"p":1.775,"d":"2026-03-04"}}},{"id":72440002,"lat":47.975,"lng":0.546,"addr":"1 Rue Nationale","city":"BOULOIRE","cp":"72440","fuels":{"Gazole":{"p":1.99,"d":"2026-03-05"},"E10":{"p":1.839,"d":"2026-03-05"},"SP98":{"p":1.949,"d":"2026-03-05"}}},{"id":72140001,"lat":48.181243877499995,"lng":-0.12340474894799999,"addr":"ROUTE DU MANS","city":"SAINT-RéMY-DE-SILLé","cp":"72140","fuels":{"Gazole":{"p":1.899,"d":"2026-03-05"},"SP95":{"p":1.806,"d":"2026-03-05"},"E10":{"p":1.725,"d":"2026-03-05"},"SP98":{"p":1.839,"d":"2026-03-05"}}},{"id":72170001,"lat":48.229,"lng":0.128,"addr":"RUE HENRI DE NAVARRE","city":"Beaumont-sur-Sarthe","cp":"72170","fuels":{"Gazole":{"p":1.889,"d":"2026-03-04"},"SP95":{"p":1.799,"d":"2026-03-03"},"E10":{"p":1.749,"d":"2026-03-04"},"SP98":{"p":1.859,"d":"2026-03-03"}}},{"id":72400006,"lat":48.178,"lng":0.663,"addr":"49 ROUTE DE SAINT CALAIS","city":"La Ferté-Bernard","cp":"72400","fuels":{"Gazole":{"p":1.989,"d":"2026-03-05"},"SP95":{"p":1.827,"d":"2026-03-05"},"GPLc":{"p":0.919,"d":"2026-03-05"},"E10":{"p":1.739,"d":"2026-03-05"},"SP98":{"p":1.847,"d":"2026-03-05"}}},{"id":72100013,"lat":47.948,"lng":0.195,"addr":"RN 23 - AERODROME","city":"LE MANS","cp":"72100","fuels":{"Gazole":{"p":1.909,"d":"2026-03-05"},"E85":{"p":0.779,"d":"2026-03-05"},"GPLc":{"p":0.881,"d":"2026-03-05"},"E10":{"p":1.742,"d":"2026-03-05"},"SP98":{"p":1.849,"d":"2026-03-05"}}},{"id":72200001,"lat":47.701,"lng":-0.094,"addr":"ROUTE DES MOLLANS","city":"La Flèche","cp":"72200","fuels":{"Gazole":{"p":1.889,"d":"2026-03-05"},"E85":{"p":0.729,"d":"2026-03-05"},"E10":{"p":1.759,"d":"2026-03-05"},"SP98":{"p":1.859,"d":"2026-03-05"}}},{"id":72310001,"lat":47.842,"lng":0.756,"addr":"LES SABLONNIERES","city":"Bessé-sur-Braye","cp":"72310","fuels":{"Gazole":{"p":1.842,"d":"2026-03-03"},"E10":{"p":1.739,"d":"2026-03-03"},"SP98":{"p":1.853,"d":"2026-03-03"}}},{"id":72200004,"lat":47.701,"lng":-0.056,"addr":"7 Rue Henri Dunant","city":"La Flèche","cp":"72200","fuels":{"Gazole":{"p":1.989,"d":"2026-03-05"},"E85":{"p":0.729,"d":"2026-02-24"},"GPLc":{"p":0.962,"d":"2025-10-04"},"E10":{"p":1.769,"d":"2026-03-05"},"SP98":{"p":1.889,"d":"2026-03-05"}}},{"id":72500002,"lat":47.651,"lng":0.469,"addr":"AUT A28 - AIRE DE SARTHE TOURAINE","city":"DISSAY-SOUS-COURCILLON","cp":"72500","fuels":{"Gazole":{"p":2.306,"d":"2026-03-05"},"GPLc":{"p":1.108,"d":"2026-03-05"},"E10":{"p":2.167,"d":"2026-03-05"},"SP98":{"p":2.317,"d":"2026-03-05"}}},{"id":72300007,"lat":47.838,"lng":-0.3,"addr":"Rue du Mans","city":"SABLé-SUR-SARTHE","cp":"72300","fuels":{"Gazole":{"p":1.929,"d":"2026-03-05"},"E85":{"p":0.769,"d":"2026-03-05"},"GPLc":{"p":1.005,"d":"2026-03-05"},"E10":{"p":1.689,"d":"2026-03-05"},"SP98":{"p":1.829,"d":"2026-03-05"}}},{"id":72000019,"lat":48.023,"lng":0.183,"addr":"314 AV RHIN ET DANUBE","city":"LE MANS","cp":"72000","fuels":{"Gazole":{"p":1.902,"d":"2026-03-05"},"GPLc":{"p":0.879,"d":"2026-03-05"},"E10":{"p":1.749,"d":"2026-03-05"},"SP98":{"p":1.855,"d":"2026-03-05"}}},{"id":72000022,"lat":48.027,"lng":0.181,"addr":"362 AVENUE RHIN ET DANUBE","city":"LE MANS","cp":"72000","fuels":{"Gazole":{"p":1.859,"d":"2026-03-04"},"SP95":{"p":1.889,"d":"2026-03-04"},"E85":{"p":0.899,"d":"2026-03-04"},"GPLc":{"p":0.999,"d":"2025-08-19"},"SP98":{"p":1.939,"d":"2026-03-04"}}},{"id":72000015,"lat":48.02762387,"lng":0.18186484,"addr":"Avenue Georges Duhamel","city":"Le Mans","cp":"72000","fuels":{"Gazole":{"p":1.949,"d":"2026-03-05"},"E85":{"p":0.758,"d":"2026-03-04"},"E10":{"p":1.749,"d":"2026-03-05"},"SP98":{"p":1.849,"d":"2026-03-05"}}},{"id":72220002,"lat":47.840732388504,"lng":0.26260409465559004,"addr":"LE SOLEIL","city":"ÉCOMMOY","cp":"72220","fuels":{"Gazole":{"p":1.894,"d":"2026-03-05"}}},{"id":72100002,"lat":47.99687,"lng":0.17957,"addr":"66 Avenue Olivier Heuzé","city":"Le Mans","cp":"72000","fuels":{"Gazole":{"p":1.879,"d":"2026-03-05"},"E85":{"p":0.899,"d":"2026-03-04"},"E10":{"p":1.769,"d":"2026-03-04"},"SP98":{"p":1.879,"d":"2026-03-04"}}},{"id":72300005,"lat":47.807,"lng":-0.167,"addr":"AUT A 11 - AIRE DE PARCE OUEST","city":"Parcé-sur-Sarthe","cp":"72300","fuels":{"Gazole":{"p":2.306,"d":"2026-03-05"},"GPLc":{"p":1.108,"d":"2026-03-05"},"E10":{"p":2.167,"d":"2026-03-05"},"SP98":{"p":2.317,"d":"2026-03-05"}}},{"id":72230002,"lat":47.914,"lng":0.244,"addr":"Avenue de Bönen","city":"MULSANNE","cp":"72230","fuels":{"Gazole":{"p":1.849,"d":"2026-03-05"},"E10":{"p":1.749,"d":"2026-03-05"},"SP98":{"p":1.879,"d":"2026-03-05"}}},{"id":72016001,"lat":48.022,"lng":0.228,"addr":"Route de Bonnetable","city":"LE MANS","cp":"72000","fuels":{"Gazole":{"p":1.941,"d":"2026-03-05"},"E10":{"p":1.73,"d":"2026-03-05"},"SP98":{"p":1.835,"d":"2026-03-05"}}},{"id":72000021,"lat":48.017,"lng":0.142,"addr":"ROUTE DE LAVAL","city":"LE MANS","cp":"72000","fuels":{"Gazole":{"p":1.909,"d":"2026-03-05"},"SP98":{"p":1.859,"d":"2026-03-05"}}},{"id":72230006,"lat":47.934,"lng":0.187,"addr":"22 Avenue Nationale","city":"ARNAGE","cp":"72230","fuels":{"Gazole":{"p":1.899,"d":"2026-03-04"},"E85":{"p":0.799,"d":"2026-01-15"},"E10":{"p":1.819,"d":"2026-03-03"},"SP98":{"p":1.949,"d":"2026-03-03"}}},{"id":72260001,"lat":48.254,"lng":0.314,"addr":"15 Rue Mohain","city":"MAROLLES-LES-BRAULTS","cp":"72260","fuels":{"Gazole":{"p":1.919,"d":"2026-03-04"},"E10":{"p":1.749,"d":"2026-03-04"},"SP98":{"p":1.859,"d":"2026-03-04"}}},{"id":72110001,"lat":48.172,"lng":0.42,"addr":"43 AVENUE DU 8 MAI 1945","city":"BONNETABLE","cp":"72110","fuels":{"Gazole":{"p":1.899,"d":"2026-03-05"},"E85":{"p":0.749,"d":"2026-03-05"},"E10":{"p":1.739,"d":"2026-03-05"},"SP98":{"p":1.879,"d":"2026-03-05"}}},{"id":72310002,"lat":47.83,"lng":0.75,"addr":"47 rue du bal de braye","city":"Besse sur braye","cp":"72310","fuels":{"Gazole":{"p":1.92,"d":"2024-03-01"},"SP95":{"p":1.95,"d":"2024-03-01"}}},{"id":72100012,"lat":47.98,"lng":0.221,"addr":"146 AVENUE DU DR JEAN MAC","city":"LE MANS","cp":"72100","fuels":{"Gazole":{"p":1.909,"d":"2026-03-05"},"GPLc":{"p":0.894,"d":"2026-03-05"},"SP98":{"p":1.859,"d":"2026-03-05"}}},{"id":72000003,"lat":48.002,"lng":0.185,"addr":"186 Avenue de la Libération","city":"LE MANS","cp":"72000","fuels":{"Gazole":{"p":1.962,"d":"2026-03-04"},"SP95":{"p":1.866,"d":"2026-03-04"},"E10":{"p":1.831,"d":"2026-03-04"}}},{"id":72000010,"lat":48.017669122099996,"lng":0.218862233456,"addr":"44 Rue de Bonnétable","city":"LE MANS","cp":"72000","fuels":{"Gazole":{"p":1.99,"d":"2026-03-04"},"E10":{"p":1.844,"d":"2026-03-04"},"SP98":{"p":1.954,"d":"2026-03-04"}}},{"id":72540001,"lat":47.993,"lng":-0.154,"addr":"27, rue de la Libération","city":"Loué","cp":"72540","fuels":{"Gazole":{"p":1.709,"d":"2026-02-18"},"SP95":{"p":1.705,"d":"2026-02-18"},"SP98":{"p":1.775,"d":"2026-01-12"}}},{"id":72610001,"lat":48.40802,"lng":0.08612,"addr":"Route du Mans","city":"ARçONNAY","cp":"72610","fuels":{"Gazole":{"p":1.919,"d":"2026-03-05"},"SP95":{"p":1.789,"d":"2026-03-05"},"E85":{"p":0.749,"d":"2026-02-21"},"GPLc":{"p":0.999,"d":"2025-12-02"},"E10":{"p":1.709,"d":"2026-03-05"},"SP98":{"p":1.809,"d":"2026-03-04"}}},{"id":72130006,"lat":48.299,"lng":0.097,"addr":"6 AVENUE DIVISION LECLERC","city":"Saint-Germain-sur-Sarthe","cp":"72130","fuels":{"Gazole":{"p":1.99,"d":"2026-03-05"},"E10":{"p":1.835,"d":"2026-03-05"},"SP98":{"p":1.945,"d":"2026-03-05"}}},{"id":72430002,"lat":47.859877366746005,"lng":-0.10324861539621999,"addr":"ZA LE TERTRE","city":"Noyen-sur-Sarthe","cp":"72430","fuels":{"Gazole":{"p":1.909,"d":"2026-03-04"},"SP95":{"p":1.869,"d":"2026-03-04"},"SP98":{"p":1.949,"d":"2026-03-04"}}},{"id":72400016,"lat":48.124970999999995,"lng":0.6221519999999999,"addr":"AUT A11 AIRE DE VILLAINES LA GONAIS","city":"VILLAINES-LA-GONAIS","cp":"72400","fuels":{"Gazole":{"p":2.144,"d":"2026-03-05"},"GPLc":{"p":1.099,"d":"2026-03-05"},"E10":{"p":2.094,"d":"2026-03-05"},"SP98":{"p":2.164,"d":"2026-03-05"}}},{"id":72550002,"lat":48.024,"lng":0.066,"addr":"RELAIS DE LA COLOMBERIE LA GROIE RD357","city":"Chaufour-Notre-Dame","cp":"72550","fuels":{"Gazole":{"p":1.928,"d":"2026-03-05"},"E10":{"p":1.825,"d":"2026-03-05"},"SP98":{"p":1.897,"d":"2026-03-05"}}},{"id":72150002,"lat":47.87,"lng":0.467,"addr":"La Florière","city":"Le Grand-Lucé","cp":"72150","fuels":{"Gazole":{"p":1.999,"d":"2026-03-05"},"E10":{"p":1.789,"d":"2026-03-05"},"SP98":{"p":1.859,"d":"2026-03-05"}}},{"id":72330001,"lat":47.83,"lng":0.077,"addr":"62 Rue Nationale","city":"CéRANS-FOULLETOURTE","cp":"72330","fuels":{"Gazole":{"p":1.899,"d":"2026-03-05"},"SP95":{"p":1.819,"d":"2026-03-04"},"SP98":{"p":1.899,"d":"2026-03-04"}}},{"id":72190004,"lat":48.05557327,"lng":0.25581708999999997,"addr":"A11-AIRE SARTHE SARGE LE MANS NORD","city":"Sargé-lès-le-Mans","cp":"72190","fuels":{"Gazole":{"p":1.99,"d":"2026-03-05"},"E85":{"p":0.999,"d":"2026-03-05"},"GPLc":{"p":0.999,"d":"2026-03-05"},"E10":{"p":1.99,"d":"2026-03-05"},"SP98":{"p":1.99,"d":"2026-03-05"}}},{"id":72700007,"lat":47.973277870149,"lng":0.15860629408471,"addr":"2 AV GENERAL DE GAULLE","city":"ALLONNES","cp":"72700","fuels":{"Gazole":{"p":1.915,"d":"2026-03-05"},"E85":{"p":0.778,"d":"2026-02-21"},"E10":{"p":1.739,"d":"2026-03-05"},"SP98":{"p":1.839,"d":"2026-03-04"}}},{"id":72200003,"lat":47.695899208639005,"lng":-0.09810089300197,"addr":"Avenue de Verdun","city":"LA FLèCHE","cp":"72200","fuels":{"Gazole":{"p":1.99,"d":"2026-03-05"},"E85":{"p":0.779,"d":"2026-03-05"},"E10":{"p":1.849,"d":"2026-03-05"}}},{"id":72470004,"lat":48.016,"lng":0.328,"addr":"RN 23 - LES FOSSES","city":"CHAMPAGNE","cp":"72470","fuels":{"Gazole":{"p":1.909,"d":"2026-03-05"},"E10":{"p":1.755,"d":"2026-03-05"},"SP98":{"p":1.855,"d":"2026-03-05"}}},{"id":72000012,"lat":47.972,"lng":0.217,"addr":"309 Avenue Georges Durand","city":"LE MANS","cp":"72100","fuels":{"Gazole":{"p":1.829,"d":"2026-03-04"},"SP95":{"p":1.769,"d":"2026-03-04"},"E10":{"p":1.779,"d":"2026-03-04"},"SP98":{"p":1.849,"d":"2026-03-04"}}},{"id":72600002,"lat":48.3429714881,"lng":0.37026499106800004,"addr":"Route de la Ferté Bernard","city":"SAINT-RéMY-DES-MONTS","cp":"72600","fuels":{"Gazole":{"p":1.837,"d":"2026-03-03"},"SP95":{"p":1.816,"d":"2026-03-03"},"E85":{"p":0.728,"d":"2026-02-16"},"GPLc":{"p":0.999,"d":"2025-12-16"},"E10":{"p":1.738,"d":"2026-03-03"}}},{"id":72400005,"lat":48.175,"lng":0.653,"addr":"RD 323","city":"CHERRE","cp":"72400","fuels":{"Gazole":{"p":1.949,"d":"2026-03-04"},"E85":{"p":0.899,"d":"2025-10-20"},"GPLc":{"p":0.949,"d":"2025-12-03"},"E10":{"p":1.839,"d":"2026-03-04"},"SP98":{"p":1.899,"d":"2026-03-04"}}},{"id":72000002,"lat":47.992,"lng":0.225,"addr":"BOULEVARD WINSTON CHURCHILL","city":"LE MANS","cp":"72100","fuels":{"Gazole":{"p":1.799,"d":"2026-03-04"},"E10":{"p":1.769,"d":"2026-03-04"},"SP98":{"p":1.879,"d":"2026-03-04"}}},{"id":72300004,"lat":47.803,"lng":-0.168,"addr":"AUT A11 - AIRE DE PARCE EST","city":"Parcé-sur-Sarthe","cp":"72300","fuels":{"Gazole":{"p":2.306,"d":"2026-03-05"},"GPLc":{"p":1.108,"d":"2026-03-05"},"E10":{"p":2.167,"d":"2026-03-05"},"SP98":{"p":2.317,"d":"2026-03-05"}}},{"id":72470005,"lat":48.015893,"lng":0.3315612,"addr":"LA CHESNAIE RTE DE FATINES","city":"CHAMPAGNE","cp":"72470","fuels":{"Gazole":{"p":1.887,"d":"2026-03-04"},"E10":{"p":1.746,"d":"2026-03-04"},"SP98":{"p":1.854,"d":"2026-03-04"}}},{"id":72170004,"lat":48.197533,"lng":0.16889,"addr":"GARE DE PEAGE MARESCHE A28","city":"Maresché","cp":"72170","fuels":{"Gazole":{"p":1.99,"d":"2026-03-05"},"E10":{"p":1.835,"d":"2026-03-05"}}},{"id":72700002,"lat":47.976245864270005,"lng":0.15674966213108,"addr":"Route de la Suze","city":"ALLONNES","cp":"72700","fuels":{"Gazole":{"p":1.915,"d":"2026-03-05"},"SP95":{"p":1.809,"d":"2026-03-05"},"E85":{"p":0.778,"d":"2026-02-21"},"GPLc":{"p":0.908,"d":"2026-02-21"},"E10":{"p":1.739,"d":"2026-03-05"}}},{"id":72650001,"lat":48.04,"lng":0.176,"addr":"ZAC du Moulin aux Moines","city":"La Chapelle-Saint-Aubin","cp":"72650","fuels":{"Gazole":{"p":1.891,"d":"2026-03-05"},"E85":{"p":0.758,"d":"2026-03-04"},"GPLc":{"p":0.87,"d":"2025-12-22"},"E10":{"p":1.737,"d":"2026-03-05"},"SP98":{"p":1.83,"d":"2026-03-05"}}},{"id":72400002,"lat":48.194,"lng":0.669,"addr":"AVENUE DE VERDUN","city":"La Ferté-Bernard","cp":"72400","fuels":{"Gazole":{"p":1.888,"d":"2026-03-04"},"E10":{"p":1.741,"d":"2026-03-04"},"SP98":{"p":1.849,"d":"2026-03-04"}}},{"id":72800002,"lat":47.64,"lng":0.154,"addr":"Avenue de Saumur","city":"LE LUDE","cp":"72800","fuels":{"Gazole":{"p":1.939,"d":"2026-03-05"},"E10":{"p":1.72,"d":"2026-03-05"},"SP98":{"p":1.826,"d":"2026-03-05"}}},{"id":72100001,"lat":47.985,"lng":0.186,"addr":"168 Rue d'Arnage","city":"LE MANS","cp":"72100","fuels":{"Gazole":{"p":1.909,"d":"2026-03-05"},"GPLc":{"p":0.919,"d":"2026-03-05"},"E10":{"p":1.769,"d":"2026-03-05"},"SP98":{"p":1.879,"d":"2026-03-05"}}},{"id":72450001,"lat":48.052,"lng":0.419,"addr":"Rue des Violettes","city":"MONTFORT-LE-GESNOIS","cp":"72450","fuels":{"Gazole":{"p":1.899,"d":"2026-03-04"},"E10":{"p":1.749,"d":"2026-03-04"},"SP98":{"p":1.859,"d":"2026-03-04"}}},{"id":72220001,"lat":47.8396825321,"lng":0.262623079173,"addr":"CENTRE COMMERCIAL LE BELINOIS","city":"ÉCOMMOY","cp":"72220","fuels":{"Gazole":{"p":1.899,"d":"2026-03-04"},"E85":{"p":0.768,"d":"2026-01-14"},"GPLc":{"p":0.919,"d":"2025-04-08"},"E10":{"p":1.749,"d":"2026-03-03"},"SP98":{"p":1.859,"d":"2026-03-04"}}},{"id":72120004,"lat":47.927,"lng":0.727,"addr":"RN 157","city":"SAINT-CALAIS","cp":"72120","fuels":{"Gazole":{"p":1.85,"d":"2026-03-03"},"SP95":{"p":1.85,"d":"2026-03-03"},"E85":{"p":0.85,"d":"2026-03-03"}}},{"id":72130001,"lat":48.28681,"lng":0.02218,"addr":"RUE ABBE LELIEVRE","city":"FRESNAY-SUR-SARTHE","cp":"72130","fuels":{"Gazole":{"p":1.98,"d":"2026-03-05"},"SP95":{"p":1.84,"d":"2026-03-05"},"E10":{"p":1.76,"d":"2026-03-05"},"SP98":{"p":1.88,"d":"2026-03-05"}}},{"id":72120001,"lat":47.919,"lng":0.766,"addr":"ZA DU PRESSOIR","city":"SAINT-CALAIS","cp":"72120","fuels":{"Gazole":{"p":1.74,"d":"2026-03-03"},"SP95":{"p":1.75,"d":"2026-03-03"},"SP98":{"p":1.817,"d":"2026-03-03"}}},{"id":72240001,"lat":48.12,"lng":-0.011,"addr":"ROUTE DU MANS","city":"Conlie","cp":"72240","fuels":{"Gazole":{"p":1.999,"d":"2026-03-05"},"SP95":{"p":1.826,"d":"2026-03-05"},"SP98":{"p":1.865,"d":"2026-03-05"}}},{"id":72120003,"lat":47.918,"lng":0.746,"addr":"7 Avenue Charles de Gaulle","city":"SAINT-CALAIS","cp":"72120","fuels":{"Gazole":{"p":1.99,"d":"2026-03-04"},"SP95":{"p":1.922,"d":"2026-03-04"}}},{"id":72160002,"lat":48.061,"lng":0.497,"addr":"Rue de Paris","city":"CONNERRé","cp":"72160","fuels":{"Gazole":{"p":1.869,"d":"2026-03-03"},"GPLc":{"p":0.919,"d":"2025-12-11"},"E10":{"p":1.779,"d":"2026-03-03"},"SP98":{"p":1.889,"d":"2026-03-03"}}},{"id":72000001,"lat":48.017,"lng":0.219,"addr":"2 Rue de Bonnétable","city":"LE MANS","cp":"72000","fuels":{"Gazole":{"p":1.849,"d":"2026-03-04"},"E10":{"p":1.749,"d":"2026-03-03"},"SP98":{"p":1.859,"d":"2026-03-03"}}},{"id":72250001,"lat":47.9404382707,"lng":0.354735227494,"addr":"LE RUISSEAU","city":"PARIGNé-L'ÉVêQUE","cp":"72250","fuels":{"Gazole":{"p":1.999,"d":"2026-03-05"},"SP95":{"p":1.829,"d":"2026-03-05"},"E85":{"p":0.769,"d":"2026-03-05"},"E10":{"p":1.789,"d":"2026-03-05"},"SP98":{"p":1.859,"d":"2026-03-05"}}},{"id":72100004,"lat":47.964,"lng":0.201,"addr":"AVENUE FELIX GENESLAY","city":"LE MANS","cp":"72100","fuels":{"Gazole":{"p":1.99,"d":"2026-03-04"},"E10":{"p":1.841,"d":"2026-03-05"},"SP98":{"p":1.951,"d":"2026-03-05"}}},{"id":72600001,"lat":48.351,"lng":0.386,"addr":"ROUTE BELLEME","city":"MAMERS","cp":"72600","fuels":{"Gazole":{"p":1.839,"d":"2026-03-03"},"SP95":{"p":1.819,"d":"2026-03-03"},"GPLc":{"p":1.019,"d":"2026-03-02"},"E10":{"p":1.739,"d":"2026-03-03"},"SP98":{"p":1.849,"d":"2026-03-03"}}},{"id":72350001,"lat":47.974,"lng":-0.231,"addr":"ROUTE DE SILLE","city":"BRûLON","cp":"72350","fuels":{"Gazole":{"p":1.99,"d":"2026-03-05"},"E10":{"p":1.824,"d":"2026-03-05"},"SP98":{"p":1.934,"d":"2026-03-05"}}},{"id":72220005,"lat":47.876,"lng":0.216,"addr":"4 Rue de Touraine","city":"Saint-Gervais-en-Belin","cp":"72220","fuels":{"Gazole":{"p":1.699,"d":"2026-02-28"},"SP95":{"p":1.789,"d":"2026-02-28"}}},{"id":72500001,"lat":47.687,"lng":0.433,"addr":"zac du chêne vert","city":"Montval sur Loir","cp":"72500","fuels":{"Gazole":{"p":1.99,"d":"2026-03-05"},"SP95":{"p":1.822,"d":"2026-03-03"},"E85":{"p":0.718,"d":"2026-02-25"},"GPLc":{"p":0.919,"d":"2025-10-20"},"E10":{"p":1.738,"d":"2026-03-03"},"SP98":{"p":1.852,"d":"2026-03-03"}}},{"id":72560001,"lat":47.981,"lng":0.278,"addr":"Lieu-dit Le Grand Pin","city":"Changé","cp":"72560","fuels":{"Gazole":{"p":1.999,"d":"2026-03-05"},"SP95":{"p":1.829,"d":"2026-03-04"},"E10":{"p":1.789,"d":"2026-03-04"},"SP98":{"p":1.859,"d":"2026-03-04"}}},{"id":72340001,"lat":47.74,"lng":0.583,"addr":"LA MALADRERIE","city":"La Chartre-sur-le-Loir","cp":"72340","fuels":{"Gazole":{"p":1.842,"d":"2026-03-03"},"E10":{"p":1.739,"d":"2026-03-03"},"SP98":{"p":1.853,"d":"2026-03-03"}}},{"id":72190005,"lat":48.032748895413995,"lng":0.19674858185650998,"addr":"chemin de la pointe","city":"Saint-Pavace","cp":"72190","fuels":{"Gazole":{"p":1.999,"d":"2026-03-05"},"E85":{"p":0.839,"d":"2026-03-03"},"GPLc":{"p":0.89,"d":"2025-12-31"},"E10":{"p":1.769,"d":"2026-03-03"},"SP98":{"p":1.859,"d":"2026-03-03"}}},{"id":72230005,"lat":48.023,"lng":-0.324,"addr":"AUTOROUTE A 81","city":"Saint-Denis-d'Orques","cp":"72350","fuels":{"Gazole":{"p":2.01,"d":"2026-03-04"},"GPLc":{"p":0.999,"d":"2026-03-04"},"E10":{"p":1.999,"d":"2026-03-04"},"SP98":{"p":2.109,"d":"2026-03-04"}}},{"id":72130009,"lat":48.317274120676,"lng":-0.025157910999999998,"addr":"CC - Rue des érables","city":"Sougé-le-Ganelon","cp":"72130","fuels":{"Gazole":{"p":1.909,"d":"2026-03-05"},"SP95":{"p":1.839,"d":"2026-03-05"},"SP98":{"p":1.909,"d":"2026-03-05"}}},{"id":72400001,"lat":48.182,"lng":0.662,"addr":"AVENUE PIERRE BRULE","city":"LA FERTé-BERNARD","cp":"72400","fuels":{"Gazole":{"p":1.999,"d":"2026-03-05"},"E10":{"p":1.779,"d":"2026-03-05"},"SP98":{"p":1.889,"d":"2026-03-05"}}},{"id":72300009,"lat":47.856344215874,"lng":-0.36064983612302,"addr":"LE PETIT ERABLE, ROUTE DE LAVAL","city":"Sablé-sur-Sarthe","cp":"72300","fuels":{"Gazole":{"p":1.977,"d":"2026-03-05"},"E85":{"p":0.779,"d":"2026-03-05"},"E10":{"p":1.795,"d":"2026-03-05"},"SP98":{"p":1.905,"d":"2026-03-05"}}},{"id":72460005,"lat":48.07585400000001,"lng":0.295894,"addr":"73 Grande rue","city":"Savigné-l'Évêque","cp":"72460","fuels":{"Gazole":{"p":1.995,"d":"2026-03-04"},"SP95":{"p":1.955,"d":"2026-03-04"},"SP98":{"p":2.055,"d":"2026-03-04"}}},{"id":72301001,"lat":47.835,"lng":-0.298,"addr":"Avenue Jean Monnet","city":"SABLE-SOLESMES","cp":"72300","fuels":{"Gazole":{"p":1.971,"d":"2026-03-05"},"E10":{"p":1.799,"d":"2026-03-05"},"SP98":{"p":1.909,"d":"2026-03-05"}}},{"id":72230007,"lat":47.94,"lng":0.184,"addr":"C. C. RIVE SUD","city":"ARNAGE","cp":"72230","fuels":{"Gazole":{"p":1.919,"d":"2026-03-05"},"SP95":{"p":1.809,"d":"2026-03-05"},"E85":{"p":0.778,"d":"2026-03-03"},"GPLc":{"p":0.899,"d":"2026-02-05"},"E10":{"p":1.739,"d":"2026-03-05"},"SP98":{"p":1.849,"d":"2026-03-04"}}},{"id":72650004,"lat":48.091,"lng":0.157,"addr":"11 avenue du mans","city":"La Bazoge","cp":"72650","fuels":{"Gazole":{"p":1.999,"d":"2026-03-05"},"SP95":{"p":1.859,"d":"2026-03-05"},"SP98":{"p":1.899,"d":"2026-03-05"}}},{"id":72290003,"lat":48.169448020613,"lng":0.23587713704613,"addr":"RUE SAINT LAURENT","city":"BALLON ST MARS","cp":"72290","fuels":{"Gazole":{"p":1.809,"d":"2026-03-04"},"SP95":{"p":1.839,"d":"2026-03-04"},"E10":{"p":1.769,"d":"2026-03-04"},"SP98":{"p":1.899,"d":"2026-03-04"}}},{"id":72000020,"lat":47.997,"lng":0.218,"addr":"162, AVENUE BOLLEE","city":"LE MANS","cp":"72000","fuels":{"Gazole":{"p":1.904,"d":"2026-03-05"},"E85":{"p":0.774,"d":"2026-03-05"},"E10":{"p":1.733,"d":"2026-03-05"},"SP98":{"p":1.849,"d":"2026-03-05"}}},{"id":72540002,"lat":47.988,"lng":-0.163,"addr":"La Grange, Route de Loué","city":"Mareil-en-Champagne","cp":"72540","fuels":{"Gazole":{"p":1.92,"d":"2026-03-04"},"E85":{"p":0.755,"d":"2026-01-13"},"E10":{"p":1.749,"d":"2026-03-03"},"SP98":{"p":1.86,"d":"2026-03-03"}}},{"id":72210001,"lat":47.892,"lng":0.047,"addr":"Route des Trunetières","city":"LA SUZE-SUR-SARTHE","cp":"72210","fuels":{"Gazole":{"p":1.919,"d":"2026-03-05"},"SP95":{"p":1.819,"d":"2026-03-04"},"E10":{"p":1.749,"d":"2026-03-04"},"SP98":{"p":1.839,"d":"2026-03-04"}}},{"id":72800003,"lat":47.647,"lng":0.146,"addr":"9936 AVENUE DE TALHOUET","city":"LE LUDE","cp":"72800","fuels":{"Gazole":{"p":1.989,"d":"2026-03-05"},"E10":{"p":1.819,"d":"2026-03-05"},"SP98":{"p":1.929,"d":"2026-03-05"}}},{"id":72110004,"lat":48.177568,"lng":0.43724199999999996,"addr":"87 AVENUE DE LA FORET","city":"BONNETABLE","cp":"72110","fuels":{"Gazole":{"p":1.97,"d":"2026-03-05"},"SP95":{"p":1.91,"d":"2026-03-05"},"SP98":{"p":1.93,"d":"2026-03-05"}}},{"id":72100014,"lat":47.997,"lng":0.187,"addr":"110 -112 BLD DEMORIEUX","city":"LE MANS","cp":"72100","fuels":{"Gazole":{"p":1.914,"d":"2026-03-05"},"E10":{"p":1.749,"d":"2026-03-05"},"SP98":{"p":1.859,"d":"2026-03-05"}}},{"id":72300006,"lat":47.852,"lng":-0.353,"addr":"route de LAVAL","city":"Sablé-sur-Sarthe","cp":"72300","fuels":{"Gazole":{"p":1.88,"d":"2026-03-04"},"E10":{"p":1.715,"d":"2026-03-04"},"SP98":{"p":1.819,"d":"2026-03-04"}}}]