[{"id":77141003,"lat":48.6840914,"lng":3.0871627000000004,"addr":"RN4 route de Pecy, lieu dit Lugins","city":"Vaudoy-en-Brie","cp":"77141","fuels":{"Gazole":{"p":1.899,"d":"2026-03-03"},"E85":{"p":0.999,"d":"2025-12-31"},"E10":{"p":1.979,"d":"2026-03-03"},"SP98":{"p":1.999,"d":"2026-03-03"}}},{"id":77680004,"lat":48.79,"lng":2.642,"addr":"Place Robert Schuman","city":"Roissy-en-Brie","cp":"77680","fuels":{"Gazole":{"p":1.951,"d":"2026-03-04"},"SP95":{"p":1.752,"d":"2026-03-04"},"E10":{"p":1.793,"d":"2026-03-04"},"SP98":{"p":1.875,"d":"2026-03-04"}}},{"id":77550004,"lat":48.6257047881,"lng":2.630067987,"addr":"AUTOROUTE A5B - AIRE DE GALANDE-LA-MARE-LAROCHE","city":"REAU","cp":"77550","fuels":{"Gazole":{"p":1.841,"d":"2026-03-04"},"E85":{"p":0.989,"d":"2026-03-04"},"E10":{"p":1.848,"d":"2026-03-04"},"SP98":{"p":1.968,"d":"2026-03-04"}}},{"id":77230001,"lat":49.033,"lng":2.635,"addr":"ROUTE DE PARIS","city":"Villeneuve-sous-Dammartin","cp":"77230","fuels":{"Gazole":{"p":1.99,"d":"2026-03-04"},"GPLc":{"p":0.96,"d":"2026-02-20"},"E10":{"p":1.909,"d":"2026-03-04"},"SP98":{"p":1.99,"d":"2026-03-04"}}},{"id":77210001,"lat":48.417,"lng":2.723,"addr":"73 Avenue du Président Franklin Roosevelt","city":"Avon","cp":"77210","fuels":{"Gazole":{"p":1.727,"d":"2026-03-02"},"E85":{"p":0.83,"d":"2026-03-02"},"E10":{"p":1.716,"d":"2026-03-02"},"SP98":{"p":1.821,"d":"2026-03-02"}}},{"id":77160002,"lat":48.548,"lng":3.292,"addr":"Avenue de la Voulzie","city":"Provins","cp":"77160","fuels":{"Gazole":{"p":1.801,"d":"2026-03-04"},"SP95":{"p":1.787,"d":"2026-03-04"},"E85":{"p":0.725,"d":"2026-03-04"},"E10":{"p":1.756,"d":"2026-03-04"},"SP98":{"p":1.861,"d":"2026-03-04"}}},{"id":77380001,"lat":48.649,"lng":2.563,"addr":"Rue Charles FABRY","city":"COMBS-LA-VILLE","cp":"77380","fuels":{"Gazole":{"p":1.899,"d":"2026-03-04"},"SP95":{"p":1.829,"d":"2026-03-04"},"E85":{"p":0.759,"d":"2026-03-04"},"GPLc":{"p":0.959,"d":"2026-02-03"},"E10":{"p":1.759,"d":"2026-03-04"},"SP98":{"p":1.869,"d":"2026-03-04"}}},{"id":77910001,"lat":49.00096,"lng":2.92102,"addr":"17 Avenue des Américains","city":"Varreddes","cp":"77910","fuels":{"Gazole":{"p":1.99,"d":"2026-03-04"},"SP95":{"p":1.924,"d":"2026-03-04"}}},{"id":77165006,"lat":49.03354,"lng":2.80467,"addr":"RN 330 - ROUTE DE MEAUX","city":"ST SOUPPLETS","cp":"77165","fuels":{"Gazole":{"p":1.99,"d":"2026-03-04"},"E85":{"p":0.772,"d":"2026-03-04"},"GPLc":{"p":0.975,"d":"2026-03-04"},"E10":{"p":1.861,"d":"2026-03-04"},"SP98":{"p":1.971,"d":"2026-03-04"}}},{"id":77515001,"lat":48.8,"lng":2.986,"addr":"PARC D'ACTIVITES PRES DES BOURDEAUX","city":"FAREMOUTIERS","cp":"77515","fuels":{"Gazole":{"p":1.789,"d":"2026-03-03"},"SP95":{"p":1.819,"d":"2026-03-03"},"SP98":{"p":1.859,"d":"2026-03-03"}}},{"id":77140010,"lat":48.261701654868,"lng":2.7220366668700997,"addr":"Autoroute du Soleil - AIRE DE NEMOURS OUEST","city":"NEMOURS","cp":"77140","fuels":{"Gazole":{"p":2.307,"d":"2026-03-04"},"E10":{"p":2.156,"d":"2026-03-04"},"SP98":{"p":2.306,"d":"2026-03-04"}}},{"id":77100009,"lat":48.95848,"lng":2.9173,"addr":"Rue Georges Claude","city":"Meaux","cp":"77100","fuels":{"Gazole":{"p":1.861,"d":"2026-03-04"},"E85":{"p":0.747,"d":"2026-03-04"},"E10":{"p":1.737,"d":"2026-03-04"},"SP98":{"p":1.859,"d":"2026-03-04"}}},{"id":77260010,"lat":48.96384,"lng":3.05281,"addr":"AIRE DE CHANGIS-SUR-MARNE A4","city":"Ussy sur marne","cp":"77260","fuels":{"Gazole":{"p":1.875,"d":"2026-03-04"},"E85":{"p":0.999,"d":"2026-03-04"},"GPLc":{"p":1.068,"d":"2024-10-12"},"E10":{"p":1.883,"d":"2026-03-04"},"SP98":{"p":1.983,"d":"2026-03-04"}}},{"id":77150002,"lat":48.853,"lng":2.584,"addr":"Avenue des Pyramides","city":"CHAMPS-SUR-MARNE","cp":"77420","fuels":{"Gazole":{"p":1.849,"d":"2026-03-04"},"SP95":{"p":1.8,"d":"2026-03-04"},"E85":{"p":0.709,"d":"2026-03-04"},"E10":{"p":1.782,"d":"2026-03-04"},"SP98":{"p":1.87,"d":"2026-03-04"}}},{"id":77260011,"lat":48.97,"lng":3.064,"addr":"Aire de Ussy sur Marne - Autoroute A4","city":"Ussy sur Marne","cp":"77260","fuels":{"Gazole":{"p":1.915,"d":"2026-03-04"},"E85":{"p":0.999,"d":"2026-03-04"},"GPLc":{"p":1.029,"d":"2026-03-04"},"E10":{"p":1.923,"d":"2026-03-04"},"SP98":{"p":2.023,"d":"2026-03-04"}}},{"id":77370003,"lat":48.55,"lng":3,"addr":"Route de Fontainebleau","city":"Nangis","cp":"77370","fuels":{"Gazole":{"p":1.899,"d":"2026-03-04"},"SP95":{"p":1.809,"d":"2026-03-04"},"E85":{"p":0.758,"d":"2026-03-04"},"E10":{"p":1.739,"d":"2026-03-04"},"SP98":{"p":1.859,"d":"2026-03-04"}}},{"id":77690001,"lat":48.336,"lng":2.732,"addr":"22 RUE DU POIRIER DE FROMIE","city":"MONTIGNY SUR LOING","cp":"77690","fuels":{"Gazole":{"p":1.885,"d":"2026-03-04"},"SP95":{"p":1.836,"d":"2026-03-04"},"E85":{"p":0.868,"d":"2026-03-04"},"E10":{"p":1.819,"d":"2026-03-04"},"SP98":{"p":1.929,"d":"2026-03-04"}}},{"id":77350005,"lat":48.5430139632,"lng":2.63315746474,"addr":"AV MAURICE DAUVERGNE","city":"LE MEE SUR SEINE","cp":"77350","fuels":{"Gazole":{"p":1.929,"d":"2026-03-04"},"E10":{"p":1.774,"d":"2026-03-04"},"SP98":{"p":1.859,"d":"2026-03-04"}}},{"id":77190006,"lat":48.518,"lng":2.628,"addr":"AVENUE DES LYS","city":"Dammarie-les-Lys","cp":"77190","fuels":{"Gazole":{"p":1.929,"d":"2026-03-04"},"E10":{"p":1.771,"d":"2026-03-04"},"SP98":{"p":1.861,"d":"2026-03-04"}}},{"id":77250004,"lat":48.369354347807004,"lng":2.8275599738244,"addr":"11 Rue de l'Orvanne","city":"Moret-Loing-et-Orvanne","cp":"77250","fuels":{"Gazole":{"p":1.791,"d":"2026-03-03"},"E10":{"p":1.729,"d":"2026-03-03"},"SP98":{"p":1.831,"d":"2026-03-03"}}},{"id":77184004,"lat":48.809,"lng":2.615,"addr":"4 Boulevard Olof Palme","city":"ÉMERAINVILLE","cp":"77184","fuels":{"Gazole":{"p":1.997,"d":"2026-03-04"},"E85":{"p":0.759,"d":"2026-03-04"},"E10":{"p":1.897,"d":"2026-03-04"},"SP98":{"p":1.989,"d":"2026-03-04"}}},{"id":77300005,"lat":48.408,"lng":2.688,"addr":"CARREFOUR DE LA LIBERATION","city":"Fontainebleau","cp":"77300","fuels":{"Gazole":{"p":2.049,"d":"2026-03-04"},"E85":{"p":1.019,"d":"2026-03-04"},"GPLc":{"p":1.179,"d":"2026-03-04"},"E10":{"p":1.889,"d":"2026-03-04"},"SP98":{"p":2.039,"d":"2026-03-04"}}},{"id":77230004,"lat":49.06414392,"lng":2.5978657800000002,"addr":"Route de Vémars","city":"MOUSSY-LE-NEUF","cp":"77230","fuels":{"Gazole":{"p":1.795,"d":"2026-03-03"},"SP95":{"p":1.795,"d":"2026-03-03"},"SP98":{"p":1.829,"d":"2026-03-03"}}},{"id":77240002,"lat":48.586955815752,"lng":2.5964565667331,"addr":"Rte Nationale 6 centre cial Boissénart","city":"CESSON","cp":"77240","fuels":{"Gazole":{"p":1.989,"d":"2026-03-04"},"E85":{"p":0.75,"d":"2026-03-04"},"GPLc":{"p":0.9,"d":"2026-03-04"},"E10":{"p":1.759,"d":"2026-03-04"},"SP98":{"p":1.889,"d":"2026-03-04"}}},{"id":77340007,"lat":48.816,"lng":2.623,"addr":"N104 LA FRANCILIENNE - AIRE PRE DE L'AULNES ET DE LA GDE MAR","city":"PONTAULT COMBAULT","cp":"77340","fuels":{"Gazole":{"p":1.929,"d":"2026-03-04"},"E85":{"p":0.773,"d":"2026-03-04"},"GPLc":{"p":0.906,"d":"2026-03-04"}}},{"id":77508002,"lat":48.944,"lng":2.681,"addr":"Route Nationale 3","city":"CLAYE-SOUILLY","cp":"77410","fuels":{"Gazole":{"p":1.853,"d":"2026-03-04"},"SP95":{"p":1.766,"d":"2026-03-04"},"E85":{"p":0.758,"d":"2026-03-04"},"E10":{"p":1.722,"d":"2026-03-04"},"SP98":{"p":1.83,"d":"2026-03-04"}}},{"id":77171003,"lat":48.535,"lng":3.361,"addr":"38, RUE DE PARIS","city":"SOURDUN","cp":"77171","fuels":{"Gazole":{"p":1.903,"d":"2026-03-04"},"E85":{"p":0.749,"d":"2026-03-04"},"E10":{"p":1.759,"d":"2026-03-04"},"SP98":{"p":1.864,"d":"2026-03-04"}}},{"id":77500001,"lat":48.869,"lng":2.59,"addr":"Avenue Sylvie - ZI Belle-Ile","city":"CHELLES","cp":"77500","fuels":{"Gazole":{"p":1.948,"d":"2026-03-04"},"E85":{"p":0.719,"d":"2026-03-04"},"E10":{"p":1.799,"d":"2026-03-04"},"SP98":{"p":1.874,"d":"2026-03-04"}}},{"id":77310006,"lat":48.532,"lng":2.535,"addr":"Lotissement des Bordes, RN 7","city":"Saint-Fargeau-Ponthierry","cp":"77310","fuels":{"Gazole":{"p":2.039,"d":"2026-03-04"},"E10":{"p":1.869,"d":"2026-03-04"},"SP98":{"p":2.019,"d":"2026-03-04"}}},{"id":77700002,"lat":48.89666,"lng":2.80162,"addr":"Rue d'Esbly","city":"Coupvray","cp":"77700","fuels":{"Gazole":{"p":1.784,"d":"2026-03-03"},"E10":{"p":1.744,"d":"2026-03-03"},"SP98":{"p":1.845,"d":"2026-03-03"}}},{"id":77160004,"lat":48.559,"lng":3.286,"addr":"16 AV GENERAL DE GAULLE","city":"PROVINS","cp":"77160","fuels":{"Gazole":{"p":1.929,"d":"2026-03-03"},"E85":{"p":0.849,"d":"2026-03-03"},"E10":{"p":1.849,"d":"2026-03-03"},"SP98":{"p":1.949,"d":"2026-03-03"}}},{"id":77190005,"lat":48.518812310533995,"lng":2.654305293398,"addr":"936 AVENUE DU GENERAL LECLERC","city":"Dammarie-les-Lys","cp":"77190","fuels":{"Gazole":{"p":1.914,"d":"2026-03-04"},"E85":{"p":0.753,"d":"2026-03-04"},"GPLc":{"p":0.972,"d":"2026-03-04"},"E10":{"p":1.756,"d":"2026-03-04"},"SP98":{"p":1.861,"d":"2026-03-04"}}},{"id":77410008,"lat":48.905,"lng":2.644,"addr":"AIRE DE VILLEVAUDE AUTOROUTE A 104","city":"Claye-Souilly","cp":"77410","fuels":{"Gazole":{"p":2.029,"d":"2026-03-04"},"GPLc":{"p":1.159,"d":"2026-03-04"},"E10":{"p":1.879,"d":"2026-03-04"},"SP98":{"p":2.049,"d":"2026-03-04"}}},{"id":77130003,"lat":48.402,"lng":2.936,"addr":"RN 105","city":"Forges","cp":"77130","fuels":{"Gazole":{"p":1.903,"d":"2026-03-03"},"SP95":{"p":1.839,"d":"2026-03-03"},"E10":{"p":1.839,"d":"2026-03-03"},"SP98":{"p":1.949,"d":"2026-03-03"}}},{"id":77290003,"lat":48.995636952778,"lng":2.6491095556006,"addr":"AERODROME DE MITRY","city":"COMPANS","cp":"77290","fuels":{"Gazole":{"p":2.141,"d":"2026-03-04"}}},{"id":77290002,"lat":48.981,"lng":2.72,"addr":"46 Rue de Villeparisis","city":"MITRY-MORY","cp":"77290","fuels":{"Gazole":{"p":1.908,"d":"2026-03-04"},"SP95":{"p":1.826,"d":"2026-03-04"},"SP98":{"p":1.854,"d":"2026-03-04"}}},{"id":77195001,"lat":48.501,"lng":2.579,"addr":"RN7 BP23","city":"Dammarie-les-Lys","cp":"77190","fuels":{"Gazole":{"p":1.869,"d":"2026-03-04"},"SP95":{"p":1.789,"d":"2026-03-03"},"E85":{"p":0.753,"d":"2026-03-04"},"E10":{"p":1.738,"d":"2026-03-04"},"SP98":{"p":1.846,"d":"2026-03-04"}}},{"id":77120005,"lat":48.814,"lng":3.081,"addr":"5 Rue Abel Prouharam","city":"COULOMMIERS","cp":"77120","fuels":{"Gazole":{"p":1.898,"d":"2026-03-04"},"E10":{"p":1.738,"d":"2026-03-04"},"SP98":{"p":1.858,"d":"2026-03-04"}}},{"id":77760001,"lat":48.324,"lng":2.577,"addr":"Rue de l'Avenir","city":"LA CHAPELLE-LA-REINE","cp":"77760","fuels":{"Gazole":{"p":1.899,"d":"2026-03-03"},"SP95":{"p":1.979,"d":"2026-03-03"},"SP98":{"p":1.999,"d":"2026-03-03"}}},{"id":77150004,"lat":48.739,"lng":2.607,"addr":"AV DES HYVERNAUX - RD 51","city":"LESIGNY","cp":"77150","fuels":{"Gazole":{"p":1.934,"d":"2026-03-04"},"E85":{"p":0.799,"d":"2026-03-04"},"E10":{"p":1.776,"d":"2026-03-04"},"SP98":{"p":1.861,"d":"2026-03-04"}}},{"id":77500008,"lat":48.882,"lng":2.6,"addr":"20 Avenue de Claye","city":"CHELLES","cp":"77500","fuels":{"Gazole":{"p":2.019,"d":"2026-03-04"},"GPLc":{"p":1.019,"d":"2026-03-04"},"E10":{"p":1.839,"d":"2026-03-04"},"SP98":{"p":2.009,"d":"2026-03-04"}}},{"id":77880001,"lat":48.322,"lng":2.686,"addr":"RN 7","city":"Grez-sur-Loing","cp":"77880","fuels":{"Gazole":{"p":1.99,"d":"2026-03-04"},"E10":{"p":1.859,"d":"2026-03-04"},"SP98":{"p":1.969,"d":"2026-03-04"}}},{"id":77510001,"lat":48.84615,"lng":3.23114,"addr":"ZAC PRE ANCEL","city":"REBAIS","cp":"77510","fuels":{"Gazole":{"p":1.829,"d":"2026-03-04"},"SP95":{"p":1.809,"d":"2026-03-04"},"SP98":{"p":1.889,"d":"2026-03-04"}}},{"id":77090001,"lat":48.838446872,"lng":2.66161659318,"addr":"CENTRE COMMERCIAL BAY 2","city":"COLLéGIEN","cp":"77090","fuels":{"Gazole":{"p":1.946,"d":"2026-03-04"},"E85":{"p":0.76,"d":"2026-03-04"},"GPLc":{"p":0.855,"d":"2026-02-28"},"SP98":{"p":1.87,"d":"2026-03-04"}}},{"id":77480002,"lat":48.414,"lng":3.242,"addr":"82 AVENUE DE LA LIBERATION","city":"BRAY-SUR-SEINE","cp":"77480","fuels":{"Gazole":{"p":1.809,"d":"2026-03-04"},"SP95":{"p":1.87,"d":"2026-03-04"},"SP98":{"p":1.9,"d":"2026-03-04"}}},{"id":77170005,"lat":48.69424,"lng":2.61673,"addr":"25 Rue Pasteur","city":"Brie-Comte-Robert","cp":"77170","fuels":{"Gazole":{"p":1.929,"d":"2026-03-04"},"SP95":{"p":1.839,"d":"2026-03-04"},"E10":{"p":1.779,"d":"2026-03-04"},"SP98":{"p":1.879,"d":"2026-03-04"}}},{"id":77220004,"lat":48.73913,"lng":2.72084,"addr":"Boulevard Victor Hugo","city":"GRETZ-ARMAINVILLIERS","cp":"77220","fuels":{"Gazole":{"p":1.839,"d":"2026-03-04"},"E10":{"p":1.739,"d":"2026-03-04"},"SP98":{"p":1.849,"d":"2026-03-04"}}},{"id":77430001,"lat":48.39575,"lng":2.79896,"addr":"2 RUE JEAN COCTEAU","city":"CHAMPAGNE-SUR-SEINE","cp":"77430","fuels":{"Gazole":{"p":1.791,"d":"2026-03-03"},"E10":{"p":1.729,"d":"2026-03-03"},"SP98":{"p":1.831,"d":"2026-03-03"}}},{"id":77120004,"lat":48.81675,"lng":3.05222,"addr":"RN 34","city":"Mouroux","cp":"77120","fuels":{"Gazole":{"p":1.919,"d":"2026-03-04"},"SP95":{"p":1.845,"d":"2026-03-04"},"SP98":{"p":1.93,"d":"2026-03-04"}}},{"id":77116001,"lat":48.362118139041996,"lng":2.5744144437015,"addr":"AIRE DE ACHERES EST A6","city":"URY","cp":"77760","fuels":{"Gazole":{"p":1.761,"d":"2026-03-03"},"E85":{"p":0.999,"d":"2026-03-03"},"GPLc":{"p":1.009,"d":"2026-03-03"},"E10":{"p":1.768,"d":"2026-03-03"},"SP98":{"p":1.878,"d":"2026-03-03"}}},{"id":77390005,"lat":48.635962863929,"lng":2.7811196141947003,"addr":"RD 619","city":"Yèbles","cp":"77390","fuels":{"Gazole":{"p":1.949,"d":"2026-03-04"},"E85":{"p":0.761,"d":"2026-03-04"},"E10":{"p":1.789,"d":"2026-03-04"},"SP98":{"p":1.869,"d":"2026-03-04"}}},{"id":77620001,"lat":48.177,"lng":2.872,"addr":"ROUTE DE LORREZ","city":"ÉGREVILLE","cp":"77620","fuels":{"Gazole":{"p":1.849,"d":"2026-03-02"},"SP95":{"p":1.819,"d":"2026-03-02"},"E85":{"p":0.729,"d":"2026-01-16"},"SP98":{"p":1.849,"d":"2026-03-02"}}},{"id":77140011,"lat":48.26687,"lng":2.70651,"addr":"10 AVENUE DU GENERAL DE GAULLE","city":"NEMOURS","cp":"77140","fuels":{"Gazole":{"p":1.99,"d":"2026-03-04"},"E85":{"p":0.765,"d":"2026-03-04"},"GPLc":{"p":0.946,"d":"2026-03-04"},"E10":{"p":1.852,"d":"2026-03-04"},"SP98":{"p":1.962,"d":"2026-03-04"}}},{"id":77500009,"lat":48.8782,"lng":2.60782,"addr":"119 AV DU GENDARME CASTERMANT","city":"CHELLES","cp":"77500","fuels":{"Gazole":{"p":1.99,"d":"2026-03-04"},"E85":{"p":0.784,"d":"2026-03-04"},"GPLc":{"p":0.997,"d":"2026-03-04"},"E10":{"p":1.879,"d":"2026-03-04"},"SP98":{"p":1.989,"d":"2026-03-04"}}},{"id":77144001,"lat":48.877,"lng":2.751,"addr":"1 boulevard Charles de GAULLE","city":"MONTéVRAIN","cp":"77144","fuels":{"Gazole":{"p":1.859,"d":"2026-03-04"},"E85":{"p":0.758,"d":"2026-03-04"},"E10":{"p":1.769,"d":"2026-03-03"},"SP98":{"p":1.869,"d":"2026-03-04"}}},{"id":77740002,"lat":48.884,"lng":2.841,"addr":"62 ROUTE DE PARIS / RN 34","city":"Saint-Germain-sur-Morin","cp":"77860","fuels":{"Gazole":{"p":1.939,"d":"2026-03-04"},"E85":{"p":0.756,"d":"2026-03-04"},"GPLc":{"p":0.979,"d":"2026-03-04"},"E10":{"p":1.769,"d":"2026-03-04"}}},{"id":77140006,"lat":48.269,"lng":2.701,"addr":"1 rue JM JACQUARD","city":"NEMOURS","cp":"77140","fuels":{"Gazole":{"p":1.841,"d":"2026-03-04"},"E10":{"p":1.745,"d":"2026-03-04"},"SP98":{"p":1.812,"d":"2026-03-04"}}},{"id":77470001,"lat":48.958,"lng":2.959,"addr":"86 Avenue de Verdun","city":"TRILPORT","cp":"77470","fuels":{"Gazole":{"p":1.92,"d":"2026-03-04"},"SP95":{"p":1.89,"d":"2026-03-04"},"SP98":{"p":1.9,"d":"2026-03-04"}}},{"id":77820003,"lat":48.492,"lng":2.796,"addr":"5 rue des Grands Champs","city":"LE CHÂTELET-EN-BRIE","cp":"77820","fuels":{"Gazole":{"p":1.879,"d":"2026-03-04"},"SP95":{"p":1.789,"d":"2026-03-04"},"E10":{"p":1.719,"d":"2026-03-03"},"SP98":{"p":1.829,"d":"2026-03-03"}}},{"id":77410001,"lat":48.952,"lng":2.666,"addr":"CHEMIN DE COMPANS","city":"Claye-Souilly","cp":"77410","fuels":{"Gazole":{"p":1.99,"d":"2026-03-03"},"E85":{"p":0.789,"d":"2026-02-25"},"E10":{"p":1.869,"d":"2026-03-03"},"SP98":{"p":1.979,"d":"2026-03-03"}}},{"id":77124001,"lat":48.97462,"lng":2.87015,"addr":"ZAC DES VIGNES","city":"CRéGY-LèS-MEAUX","cp":"77124","fuels":{"Gazole":{"p":1.899,"d":"2026-03-04"},"SP95":{"p":1.835,"d":"2026-03-04"},"SP98":{"p":1.909,"d":"2026-03-04"}}},{"id":77124002,"lat":48.962,"lng":2.862,"addr":"11 av Roland Moréno","city":"Chauconin-Neufmontiers","cp":"77124","fuels":{"Gazole":{"p":1.859,"d":"2026-03-04"},"E85":{"p":0.728,"d":"2026-03-03"},"E10":{"p":1.737,"d":"2026-03-04"},"SP98":{"p":1.849,"d":"2026-03-04"}}},{"id":77340006,"lat":48.79836,"lng":2.60505,"addr":"6 A 10 AV CHARLES ROUXEL","city":"Pontault-Combault","cp":"77340","fuels":{"Gazole":{"p":1.951,"d":"2026-03-04"},"E10":{"p":1.793,"d":"2026-03-04"},"SP98":{"p":1.875,"d":"2026-03-04"}}},{"id":77186001,"lat":48.841,"lng":2.62,"addr":"4 Avenue Pierre Mendès France","city":"NOISIEL","cp":"77186","fuels":{"Gazole":{"p":1.99,"d":"2026-03-04"},"E10":{"p":1.879,"d":"2026-03-04"},"SP98":{"p":1.989,"d":"2026-03-04"}}},{"id":77610002,"lat":48.71,"lng":2.86,"addr":"Rue Bertaux","city":"FONTENAY-TRéSIGNY","cp":"77610","fuels":{"Gazole":{"p":1.859,"d":"2026-03-04"},"E10":{"p":1.719,"d":"2026-03-04"}}},{"id":77000011,"lat":48.541,"lng":2.678,"addr":"RN 5 BIS RTE DE NANGIS (ANGLE)","city":"MELUN","cp":"77000","fuels":{"Gazole":{"p":1.99,"d":"2026-03-04"},"GPLc":{"p":0.997,"d":"2026-03-04"},"E10":{"p":1.851,"d":"2026-03-04"},"SP98":{"p":1.961,"d":"2026-03-04"}}},{"id":77270001,"lat":48.95355016926,"lng":2.6068766680146,"addr":"Avenue Roger Salengro","city":"VILLEPARISIS","cp":"77270","fuels":{"Gazole":{"p":1.916,"d":"2026-03-04"},"SP95":{"p":1.824,"d":"2026-03-04"},"E10":{"p":1.745,"d":"2026-03-04"},"SP98":{"p":1.853,"d":"2026-03-04"}}},{"id":77300001,"lat":48.417,"lng":2.708,"addr":"44 Boulevard du Maréchal Foch","city":"Fontainebleau","cp":"77300","fuels":{"Gazole":{"p":1.799,"d":"2026-02-20"},"E10":{"p":1.779,"d":"2026-02-20"},"SP98":{"p":1.889,"d":"2026-02-20"}}},{"id":77144002,"lat":48.853,"lng":2.761,"addr":"34 ROUTE DE PROVINS","city":"MONTEVRAIN","cp":"77144","fuels":{"Gazole":{"p":1.99,"d":"2026-03-03"},"E10":{"p":1.883,"d":"2026-03-03"},"SP98":{"p":1.99,"d":"2026-03-03"}}},{"id":77170013,"lat":48.701,"lng":2.601,"addr":"5 RUE DU GÉNÉRAL LECLERC","city":"Brie-Comte-Robert","cp":"77170","fuels":{"Gazole":{"p":1.933,"d":"2026-03-04"},"E85":{"p":0.759,"d":"2026-03-04"},"E10":{"p":1.774,"d":"2026-03-04"},"SP98":{"p":1.865,"d":"2026-03-04"}}},{"id":77176001,"lat":48.597,"lng":2.573,"addr":"8 avenue du 8 mai 1945","city":"SAVIGNY-LE-TEMPLE","cp":"77176","fuels":{"Gazole":{"p":1.99,"d":"2026-03-04"},"E85":{"p":0.809,"d":"2026-03-04"},"E10":{"p":1.866,"d":"2026-03-04"},"SP98":{"p":1.976,"d":"2026-03-04"}}},{"id":77610003,"lat":48.698,"lng":2.889,"addr":"7 rue Marguerite Perey","city":"Fontenay-Trésigny","cp":"77610","fuels":{"Gazole":{"p":1.859,"d":"2026-03-03"},"E85":{"p":0.709,"d":"2026-03-02"},"E10":{"p":1.709,"d":"2026-03-02"},"SP98":{"p":1.815,"d":"2026-03-02"}}},{"id":77190004,"lat":48.509,"lng":2.604,"addr":"544 Avenue André Ampère","city":"DAMMARIE-LES-LYS","cp":"77190","fuels":{"Gazole":{"p":1.869,"d":"2026-03-04"},"SP95":{"p":1.789,"d":"2026-03-04"},"GPLc":{"p":0.972,"d":"2026-03-04"},"E10":{"p":1.719,"d":"2026-03-04"},"SP98":{"p":1.839,"d":"2026-03-04"}}},{"id":77400007,"lat":48.869,"lng":2.675,"addr":"Avenue de la Courtillière","city":"SAINT-THIBAULT-DES-VIGNES","cp":"77400","fuels":{"Gazole":{"p":1.899,"d":"2026-03-04"},"E85":{"p":0.729,"d":"2026-01-28"},"E10":{"p":1.769,"d":"2026-03-04"},"SP98":{"p":1.869,"d":"2026-03-04"}}},{"id":77260004,"lat":48.9383414,"lng":3.1277923,"addr":"Avenue de Rebais","city":"LA FERTé-SOUS-JOUARRE","cp":"77260","fuels":{"Gazole":{"p":1.861,"d":"2026-03-04"},"E85":{"p":0.719,"d":"2026-03-04"},"E10":{"p":1.737,"d":"2026-03-04"},"SP98":{"p":1.859,"d":"2026-03-04"}}},{"id":77210002,"lat":48.4149444259,"lng":2.71959190391,"addr":"36 Avenue du Président Franklin Roosevelt","city":"AVON","cp":"77210","fuels":{"Gazole":{"p":1.869,"d":"2026-03-04"},"E10":{"p":1.719,"d":"2026-03-04"},"SP98":{"p":1.839,"d":"2026-03-04"}}},{"id":77280001,"lat":49.073,"lng":2.671,"addr":"Rue du 8 Mai 1945","city":"Othis","cp":"77280","fuels":{"Gazole":{"p":1.716,"d":"2026-03-02"},"SP95":{"p":1.742,"d":"2026-03-02"},"E85":{"p":0.758,"d":"2026-03-04"},"SP98":{"p":1.799,"d":"2026-03-02"}}},{"id":77780003,"lat":48.328,"lng":2.687,"addr":"RN 7","city":"Bourron-Marlotte","cp":"77780","fuels":{"Gazole":{"p":1.905,"d":"2026-03-04"},"E85":{"p":0.757,"d":"2026-03-04"},"E10":{"p":1.763,"d":"2026-03-04"},"SP98":{"p":1.864,"d":"2026-03-04"}}},{"id":77200001,"lat":48.851,"lng":2.656,"addr":"11 Rue de Paris","city":"Torcy","cp":"77200","fuels":{"Gazole":{"p":1.99,"d":"2026-03-04"},"E10":{"p":1.879,"d":"2026-03-04"},"SP98":{"p":1.989,"d":"2026-03-04"}}},{"id":77230006,"lat":49.070142347799994,"lng":2.71523931506,"addr":"RN 2 ROUTE DE SOISSONS","city":"ROUVRES","cp":"77230","fuels":{"Gazole":{"p":1.919,"d":"2026-03-04"},"E85":{"p":0.756,"d":"2026-03-04"},"E10":{"p":1.769,"d":"2026-03-04"},"SP98":{"p":1.869,"d":"2026-03-04"}}},{"id":77340005,"lat":48.793,"lng":2.619,"addr":"CHEMIN DÉPARTEMENTAL 51 - RUE DES BERCHÈRES","city":"Pontault-Combault","cp":"77340","fuels":{"Gazole":{"p":1.99,"d":"2026-03-04"},"E85":{"p":0.784,"d":"2026-03-04"},"GPLc":{"p":0.934,"d":"2026-03-04"},"E10":{"p":1.875,"d":"2026-03-04"},"SP98":{"p":1.985,"d":"2026-03-04"}}},{"id":77870002,"lat":48.434,"lng":2.753,"addr":"44 ROUTE D HERICY","city":"VULAINES-SUR-SEINE","cp":"77870","fuels":{"Gazole":{"p":1.876,"d":"2026-03-04"},"E10":{"p":1.763,"d":"2026-03-04"},"SP98":{"p":1.864,"d":"2026-03-04"}}},{"id":77340009,"lat":48.778,"lng":2.591,"addr":"Zac Les 4 Chênes, 35 Rte de Paris","city":"Pontault Combault","cp":"77340","fuels":{"Gazole":{"p":1.679,"d":"2026-03-04"},"E10":{"p":1.677,"d":"2026-03-04"},"SP98":{"p":1.78,"d":"2026-03-04"}}},{"id":77000005,"lat":48.55,"lng":2.666,"addr":"48 Avenue de Meaux","city":"MELUN","cp":"77000","fuels":{"Gazole":{"p":1.99,"d":"2026-03-03"},"E10":{"p":1.851,"d":"2026-03-03"},"SP98":{"p":1.961,"d":"2026-03-03"}}},{"id":77400015,"lat":48.871,"lng":2.683,"addr":"127 Avenue du Général Leclerc","city":"LAGNY SUR MARNE","cp":"77400","fuels":{"Gazole":{"p":1.908,"d":"2026-03-04"},"E10":{"p":1.778,"d":"2026-03-04"},"SP98":{"p":1.878,"d":"2026-03-04"}}},{"id":77260005,"lat":48.945449460411,"lng":3.1116057603906,"addr":"RN 3 ZI DU HAINAULT.","city":"SEPT-SORTS","cp":"77260","fuels":{"Gazole":{"p":1.739,"d":"2026-03-02"},"E85":{"p":0.729,"d":"2026-01-15"},"E10":{"p":1.709,"d":"2026-03-02"},"SP98":{"p":1.819,"d":"2026-02-23"}}},{"id":77860001,"lat":48.872599637190994,"lng":2.8718865694261,"addr":"61 AVENUE DE L'ENSOLEILLEE","city":"COUILLY-PONT-AUX-DAMES","cp":"77860","fuels":{"Gazole":{"p":1.892,"d":"2026-03-04"},"E85":{"p":0.675,"d":"2026-03-04"},"E10":{"p":1.717,"d":"2026-03-04"},"SP98":{"p":1.831,"d":"2026-03-04"}}},{"id":77100023,"lat":48.95742,"lng":2.93791,"addr":"334 AVENUE DE LA VICTOIRE","city":"MEAUX","cp":"77100","fuels":{"Gazole":{"p":1.899,"d":"2026-03-04"},"E85":{"p":0.762,"d":"2026-03-04"},"E10":{"p":1.749,"d":"2026-03-04"},"SP98":{"p":1.861,"d":"2026-03-04"}}},{"id":77000014,"lat":48.541,"lng":2.68,"addr":"27 ROUTE DE MONTEREAU","city":"Vaux-le-Pénil","cp":"77000","fuels":{"Gazole":{"p":1.869,"d":"2026-03-04"},"SP95":{"p":1.799,"d":"2026-03-04"},"E85":{"p":0.759,"d":"2026-03-04"},"GPLc":{"p":0.999,"d":"2025-11-14"},"E10":{"p":1.719,"d":"2026-03-04"},"SP98":{"p":1.839,"d":"2026-03-04"}}},{"id":77120007,"lat":48.8160809795,"lng":3.08307394086,"addr":"19-29 AV. VICTOR HUGO","city":"COULOMMIERS","cp":"77120","fuels":{"Gazole":{"p":1.899,"d":"2026-03-04"},"E85":{"p":0.759,"d":"2026-03-04"},"E10":{"p":1.739,"d":"2026-03-04"},"SP98":{"p":1.859,"d":"2026-03-04"}}},{"id":77100022,"lat":48.949037155409,"lng":2.8797154887761,"addr":"30/34 RUE FRANCOIS DE TESSAN","city":"MEAUX","cp":"77100","fuels":{"Gazole":{"p":1.909,"d":"2026-03-04"},"E85":{"p":0.749,"d":"2026-03-04"},"GPLc":{"p":0.919,"d":"2026-03-04"},"E10":{"p":1.752,"d":"2026-03-04"},"SP98":{"p":1.865,"d":"2026-03-04"}}},{"id":77100021,"lat":48.953673788900005,"lng":2.89673896765,"addr":"1-5 AVENUE DE MELUN","city":"Nanteuil-lès-Meaux","cp":"77100","fuels":{"Gazole":{"p":1.909,"d":"2026-03-04"},"E10":{"p":1.752,"d":"2026-03-04"},"SP98":{"p":1.865,"d":"2026-03-04"}}},{"id":77330004,"lat":48.766943966835996,"lng":2.6511255845880997,"addr":"RN4 LIEUDIT L ERABLE","city":"Ozoir-la-Ferrière","cp":"77330","fuels":{"Gazole":{"p":1.99,"d":"2026-03-04"},"E85":{"p":0.785,"d":"2026-03-04"},"GPLc":{"p":0.933,"d":"2026-03-04"},"E10":{"p":1.869,"d":"2026-03-04"},"SP98":{"p":1.979,"d":"2026-03-04"}}},{"id":77450005,"lat":48.89966,"lng":2.8111,"addr":"2, AVENUE CHARLES DE GAULLE","city":"ESBLY","cp":"77450","fuels":{"Gazole":{"p":1.99,"d":"2026-03-04"},"E85":{"p":0.779,"d":"2026-03-04"},"E10":{"p":1.881,"d":"2026-03-04"},"SP98":{"p":1.99,"d":"2026-03-04"}}},{"id":77600003,"lat":48.829492394000006,"lng":2.74003485613,"addr":"AUTOROUTE A4 - AIRE DE BUSSY ST GEORGES","city":"Bussy-Saint-Georges","cp":"77600","fuels":{"Gazole":{"p":1.731,"d":"2026-03-04"},"E85":{"p":0.999,"d":"2026-03-04"},"GPLc":{"p":0.979,"d":"2026-03-04"},"E10":{"p":1.738,"d":"2026-03-04"},"SP98":{"p":1.848,"d":"2026-03-04"}}},{"id":77680001,"lat":48.796,"lng":2.643,"addr":"BLD DE LA MALIBRAN","city":"Roissy-en-Brie","cp":"77680","fuels":{"Gazole":{"p":1.951,"d":"2026-03-04"},"E10":{"p":1.793,"d":"2026-03-04"},"SP98":{"p":1.875,"d":"2026-03-04"}}},{"id":77120006,"lat":48.801,"lng":3.087,"addr":"AVENUE DE STRASBOURG","city":"COULOMMIERS","cp":"77120","fuels":{"Gazole":{"p":1.899,"d":"2026-03-04"},"E10":{"p":1.739,"d":"2026-03-04"},"SP98":{"p":1.859,"d":"2026-03-04"}}},{"id":77440001,"lat":49.027,"lng":3.022,"addr":"16 Avenue du Chemin Noir","city":"Lizy-sur-Ourcq","cp":"77440","fuels":{"Gazole":{"p":1.809,"d":"2026-03-03"},"E85":{"p":0.759,"d":"2026-03-04"},"E10":{"p":1.739,"d":"2026-03-03"},"SP98":{"p":1.849,"d":"2026-03-03"}}},{"id":77310009,"lat":48.540827353740994,"lng":2.5220939606196,"addr":"RN 7","city":"ST FARGEAU PONTHIERRY","cp":"77310","fuels":{"Gazole":{"p":1.929,"d":"2026-03-04"},"GPLc":{"p":0.889,"d":"2026-03-04"},"E10":{"p":1.771,"d":"2026-03-04"},"SP98":{"p":1.861,"d":"2026-03-04"}}},{"id":77183001,"lat":48.828,"lng":2.644,"addr":"Boulevard Georges Bidault","city":"Croissy-Beaubourg","cp":"77183","fuels":{"Gazole":{"p":1.897,"d":"2026-03-04"},"E85":{"p":0.759,"d":"2026-03-04"},"E10":{"p":1.769,"d":"2026-03-03"}}},{"id":77320003,"lat":48.783,"lng":3.295,"addr":"Avenue de la Maison-Blanche","city":"LA FERTé-GAUCHER","cp":"77320","fuels":{"Gazole":{"p":1.899,"d":"2026-03-04"},"E85":{"p":0.727,"d":"2026-02-21"},"E10":{"p":1.789,"d":"2026-03-04"},"SP98":{"p":1.889,"d":"2026-03-04"}}},{"id":77181002,"lat":48.91061,"lng":2.62339,"addr":"ROUTE DE CHELLES","city":"LE PIN","cp":"77181","fuels":{"Gazole":{"p":1.934,"d":"2026-03-04"},"E85":{"p":0.756,"d":"2026-03-04"},"E10":{"p":1.762,"d":"2026-03-04"},"SP98":{"p":1.871,"d":"2026-03-04"}}},{"id":77130013,"lat":48.429176472519,"lng":2.9317977798399997,"addr":"A5 Aire des Jonchets Les Récompenses","city":"Forges","cp":"77130","fuels":{"Gazole":{"p":1.814,"d":"2026-03-03"},"SP95":{"p":1.787,"d":"2026-02-20"},"E10":{"p":1.799,"d":"2026-03-03"},"SP98":{"p":1.826,"d":"2026-03-03"}}},{"id":77450007,"lat":48.897,"lng":2.815,"addr":"53 avenue Joffre","city":"Esbly","cp":"77450","fuels":{"Gazole":{"p":1.868,"d":"2026-03-04"},"E10":{"p":1.778,"d":"2026-03-04"},"SP98":{"p":1.878,"d":"2026-03-04"}}},{"id":77340003,"lat":48.7768,"lng":2.59631,"addr":"Route de Paris","city":"Pontault-Combault","cp":"77340","fuels":{"Gazole":{"p":1.879,"d":"2026-03-04"},"GPLc":{"p":0.95,"d":"2026-03-02"},"E10":{"p":1.729,"d":"2026-03-02"},"SP98":{"p":1.835,"d":"2026-03-02"}}},{"id":77860002,"lat":48.897546218528,"lng":2.8644722322041,"addr":"94 AVENUE DU MARECHAL FOCH","city":"Quincy-Voisins","cp":"77860","fuels":{"SP95":{"p":1.92,"d":"2026-03-03"}}},{"id":77186003,"lat":48.851,"lng":2.631,"addr":"COURS DE L'ARCHE GUEDON","city":"NOISIEL","cp":"77186","fuels":{"Gazole":{"p":1.99,"d":"2026-03-04"},"E10":{"p":1.879,"d":"2026-03-04"},"SP98":{"p":1.989,"d":"2026-03-04"}}},{"id":77460005,"lat":48.184,"lng":2.742,"addr":"VAL DE LOING","city":"Souppes-sur-Loing","cp":"77460","fuels":{"Gazole":{"p":1.899,"d":"2026-03-03"},"SP95":{"p":1.949,"d":"2026-03-03"},"E10":{"p":1.919,"d":"2026-03-03"},"SP98":{"p":1.999,"d":"2026-03-03"}}},{"id":77165002,"lat":49.037,"lng":2.801,"addr":"Avenue du Maréchal Gallieni","city":"SAINT-SOUPPLETS","cp":"77165","fuels":{"Gazole":{"p":1.899,"d":"2026-03-04"},"E10":{"p":1.759,"d":"2026-03-04"},"SP98":{"p":1.859,"d":"2026-03-04"}}},{"id":77480001,"lat":48.414,"lng":3.239,"addr":"RUE DE LA SUCRERIE","city":"Mousseaux-lès-Bray","cp":"77480","fuels":{"Gazole":{"p":1.899,"d":"2026-03-03"},"SP95":{"p":1.949,"d":"2026-03-03"},"E10":{"p":1.919,"d":"2026-03-03"},"SP98":{"p":1.979,"d":"2026-03-03"}}},{"id":77550005,"lat":48.62473,"lng":2.59212,"addr":"AUTOROUTE A5A - AIRE DU PLESSIS-PICARD","city":"REAU","cp":"77550","fuels":{"Gazole":{"p":1.841,"d":"2026-03-04"},"E85":{"p":0.989,"d":"2026-03-04"},"GPLc":{"p":0.999,"d":"2026-03-04"},"E10":{"p":1.848,"d":"2026-03-04"},"SP98":{"p":1.968,"d":"2026-03-04"}}},{"id":77320002,"lat":48.78355,"lng":3.30653,"addr":"Avenue du Général Leclerc","city":"LA FERTé-GAUCHER","cp":"77320","fuels":{"Gazole":{"p":1.795,"d":"2026-03-03"},"E85":{"p":0.728,"d":"2026-02-25"},"E10":{"p":1.795,"d":"2026-03-03"},"SP98":{"p":1.829,"d":"2026-03-03"}}},{"id":77500004,"lat":48.89216,"lng":2.58113,"addr":"route de Montfermeil","city":"CHELLES","cp":"77500","fuels":{"Gazole":{"p":1.869,"d":"2026-03-04"},"E85":{"p":0.758,"d":"2026-03-04"},"E10":{"p":1.725,"d":"2026-03-04"},"SP98":{"p":1.838,"d":"2026-03-04"}}},{"id":77540002,"lat":48.677,"lng":2.969,"addr":"56 rue de vilpré","city":"Rozay-en-Brie","cp":"77540","fuels":{"Gazole":{"p":1.845,"d":"2026-03-04"},"E10":{"p":1.768,"d":"2026-03-03"},"SP98":{"p":1.878,"d":"2026-03-03"}}},{"id":77650001,"lat":48.521,"lng":3.233,"addr":"RUE DE LA CROIX BROUILLARD","city":"LONGUEVILLE","cp":"77650","fuels":{"Gazole":{"p":1.879,"d":"2026-03-03"},"E85":{"p":0.759,"d":"2026-03-03"},"E10":{"p":1.739,"d":"2026-03-03"},"SP98":{"p":1.849,"d":"2026-03-03"}}},{"id":77100016,"lat":48.94,"lng":2.878,"addr":"30 MAIL DE LA GRANDE HAIE","city":"Mareuil-lès-Meaux","cp":"77100","fuels":{"Gazole":{"p":1.854,"d":"2026-03-03"},"SP95":{"p":1.817,"d":"2026-03-03"},"E10":{"p":1.737,"d":"2026-03-03"},"SP98":{"p":1.852,"d":"2026-03-03"}}},{"id":77127001,"lat":48.617,"lng":2.548,"addr":"C.COMMERCIAL CARRE SENART","city":"Lieusaint","cp":"77127","fuels":{"Gazole":{"p":1.857,"d":"2026-03-04"},"E85":{"p":0.75,"d":"2026-03-04"},"E10":{"p":1.753,"d":"2026-03-04"},"SP98":{"p":1.887,"d":"2026-03-04"}}},{"id":77346001,"lat":48.776,"lng":2.605,"addr":"RN 4 77346 Pontault-Combault","city":"PONTAULT-COMBAULT","cp":"77340","fuels":{"Gazole":{"p":1.879,"d":"2026-03-04"},"SP95":{"p":1.785,"d":"2026-03-04"},"E85":{"p":0.773,"d":"2026-03-04"},"GPLc":{"p":1.948,"d":"2026-03-04"},"E10":{"p":1.739,"d":"2026-03-04"},"SP98":{"p":1.843,"d":"2026-03-04"}}},{"id":77130008,"lat":48.375,"lng":2.943,"addr":"route du bréau","city":"VARENNES-SUR-SEINE","cp":"77130","fuels":{"Gazole":{"p":1.837,"d":"2026-03-04"},"E85":{"p":0.748,"d":"2026-03-04"},"E10":{"p":1.735,"d":"2026-03-04"},"SP98":{"p":1.831,"d":"2026-03-04"}}},{"id":77570001,"lat":48.14461,"lng":2.6942,"addr":"Rue de Nisceville","city":"CHâTEAU-LANDON","cp":"77570","fuels":{"Gazole":{"p":1.799,"d":"2026-03-03"},"SP95":{"p":1.819,"d":"2026-03-03"},"SP98":{"p":1.889,"d":"2026-03-03"}}},{"id":77580001,"lat":48.86,"lng":2.908,"addr":"26 Avenue Charles de Gaulle","city":"CRéCY-LA-CHAPELLE","cp":"77580","fuels":{"Gazole":{"p":1.99,"d":"2026-03-04"},"SP95":{"p":1.924,"d":"2026-03-04"},"SP98":{"p":1.99,"d":"2026-03-04"}}},{"id":77810001,"lat":48.408,"lng":2.791,"addr":"Chemin des Prés","city":"THOMERY","cp":"77810","fuels":{"Gazole":{"p":1.791,"d":"2026-03-04"},"E85":{"p":0.728,"d":"2026-03-04"},"E10":{"p":1.729,"d":"2026-03-04"},"SP98":{"p":1.831,"d":"2026-03-04"}}},{"id":77141001,"lat":48.693,"lng":3.082,"addr":"RD 231, STATION TOTAL","city":"VAUDOY EN BRIE","cp":"77141","fuels":{"Gazole":{"p":1.99,"d":"2026-03-04"},"E10":{"p":1.851,"d":"2026-03-04"},"SP98":{"p":1.961,"d":"2026-03-04"}}},{"id":77000003,"lat":48.52528,"lng":2.69402349348,"addr":"RUE DES TROIS RODES","city":"VAUX-LE-PéNIL","cp":"77000","fuels":{"Gazole":{"p":1.869,"d":"2026-03-04"},"SP95":{"p":1.799,"d":"2026-03-04"},"E10":{"p":1.719,"d":"2026-03-04"},"SP98":{"p":1.839,"d":"2026-03-04"}}},{"id":77140012,"lat":48.264,"lng":2.722,"addr":"Aire de Darvault A6","city":"Darvault","cp":"77140","fuels":{"Gazole":{"p":2.307,"d":"2026-03-04"},"E10":{"p":2.156,"d":"2026-03-04"},"SP98":{"p":2.306,"d":"2026-03-04"}}},{"id":77230009,"lat":49.041,"lng":2.686,"addr":"5 avenue des deux Moulins","city":"Saint-Mard","cp":"77230","fuels":{"Gazole":{"p":1.842,"d":"2026-03-03"},"SP95":{"p":1.854,"d":"2026-03-03"},"E85":{"p":0.757,"d":"2026-03-03"},"E10":{"p":1.814,"d":"2026-03-03"},"SP98":{"p":1.926,"d":"2026-03-03"}}},{"id":77350004,"lat":48.54,"lng":2.612,"addr":"Avenue Jean Monnet","city":"BOISSISE-LA-BERTRAND","cp":"77350","fuels":{"Gazole":{"p":1.799,"d":"2026-03-04"},"E85":{"p":0.759,"d":"2026-03-04"},"E10":{"p":1.729,"d":"2026-03-03"},"SP98":{"p":1.819,"d":"2026-03-03"}}},{"id":77140003,"lat":48.268,"lng":2.676,"addr":"Route de Larchant","city":"SAINT-PIERRE-LèS-NEMOURS","cp":"77140","fuels":{"Gazole":{"p":1.719,"d":"2026-02-27"},"SP95":{"p":1.746,"d":"2026-02-27"},"SP98":{"p":1.813,"d":"2026-02-27"}}},{"id":77100015,"lat":48.93756,"lng":2.8801,"addr":"Avenue de la Foulée","city":"Nanteuil-lès-Meaux","cp":"77100","fuels":{"Gazole":{"p":1.832,"d":"2026-03-04"},"E10":{"p":1.743,"d":"2026-03-04"},"SP98":{"p":1.852,"d":"2026-03-04"}}},{"id":77760003,"lat":48.3615736,"lng":2.5730022,"addr":"AIRE DE ACHERES LA FORET OUEST A6","city":"Achères-la-Forêt","cp":"77760","fuels":{"Gazole":{"p":1.761,"d":"2026-03-03"},"E85":{"p":0.999,"d":"2026-03-03"},"GPLc":{"p":1.009,"d":"2026-03-03"},"E10":{"p":1.768,"d":"2026-03-03"},"SP98":{"p":1.878,"d":"2026-03-03"}}},{"id":77000013,"lat":48.5228144311,"lng":2.65389046258,"addr":"27 BIS AVENUE DU GENERAL LECLERC","city":"LA ROCHETTE","cp":"77000","fuels":{"Gazole":{"p":1.914,"d":"2026-03-04"},"E10":{"p":1.756,"d":"2026-03-04"},"SP98":{"p":1.861,"d":"2026-03-04"}}},{"id":77130012,"lat":48.426413433117,"lng":2.9286144113189,"addr":"A5 Aire des Jonchets Grande Paroisse","city":"Forges","cp":"77130","fuels":{"Gazole":{"p":1.814,"d":"2026-03-03"},"E10":{"p":1.799,"d":"2026-03-03"},"SP98":{"p":1.898,"d":"2026-03-03"}}},{"id":77950001,"lat":48.5527528221,"lng":2.67091809609,"addr":"Rue du Perré","city":"RUBELLES","cp":"77950","fuels":{"Gazole":{"p":1.879,"d":"2026-03-04"},"SP95":{"p":1.809,"d":"2026-03-04"},"SP98":{"p":1.869,"d":"2026-03-04"}}},{"id":77130005,"lat":48.37,"lng":2.939,"addr":"Avenue du 8 Mai 1945","city":"VARENNES-SUR-SEINE","cp":"77130","fuels":{"Gazole":{"p":1.849,"d":"2026-03-03"},"SP95":{"p":1.809,"d":"2026-03-03"},"E10":{"p":1.729,"d":"2026-03-03"},"SP98":{"p":1.849,"d":"2026-03-03"}}},{"id":77330002,"lat":48.773,"lng":2.676,"addr":"2 Avenue Édouard Gourdon","city":"Ozoir-la-Ferrière","cp":"77330","fuels":{"Gazole":{"p":2.089,"d":"2026-03-03"},"E10":{"p":2.029,"d":"2026-03-03"},"SP98":{"p":2.089,"d":"2026-03-03"}}},{"id":77100010,"lat":48.957,"lng":2.904,"addr":"81 Avenue Président Roosevelt","city":"MEAUX","cp":"77100","fuels":{"Gazole":{"p":1.99,"d":"2026-03-04"},"E10":{"p":1.859,"d":"2026-03-04"},"SP98":{"p":1.969,"d":"2026-03-04"}}},{"id":77250007,"lat":48.363,"lng":2.857,"addr":"RD 606 - SENS PROVINCE PARIS","city":"ECUELLES","cp":"77250","fuels":{"Gazole":{"p":1.909,"d":"2026-03-04"},"E10":{"p":1.752,"d":"2026-03-04"},"SP98":{"p":1.856,"d":"2026-03-04"}}},{"id":77120003,"lat":48.804,"lng":3.091,"addr":"Boulevard de la Marne","city":"COULOMMIERS","cp":"77120","fuels":{"Gazole":{"p":1.897,"d":"2026-03-04"},"E85":{"p":0.757,"d":"2026-03-04"},"E10":{"p":1.737,"d":"2026-03-04"},"SP98":{"p":1.857,"d":"2026-03-04"}}},{"id":77250006,"lat":48.364,"lng":2.853,"addr":"RD 606","city":"MORET-LOING-ET-ORVANNE","cp":"77250","fuels":{"Gazole":{"p":1.909,"d":"2026-03-04"},"E85":{"p":0.754,"d":"2026-03-04"},"GPLc":{"p":0.959,"d":"2026-03-04"},"E10":{"p":1.754,"d":"2026-03-04"},"SP98":{"p":1.861,"d":"2026-03-04"}}},{"id":77130006,"lat":48.39853918239999,"lng":2.95158027595,"addr":"BOULEVARD DIDEROT","city":"MONTEREAU-FAULT-YONNE","cp":"77130","fuels":{"Gazole":{"p":1.837,"d":"2026-03-04"},"E10":{"p":1.766,"d":"2026-03-03"},"SP98":{"p":1.875,"d":"2026-03-03"}}},{"id":77150003,"lat":48.744,"lng":2.612,"addr":"Centre commercial de la Fontaine","city":"LéSIGNY","cp":"77150","fuels":{"Gazole":{"p":1.81,"d":"2026-03-03"},"E10":{"p":1.78,"d":"2026-03-03"}}},{"id":77390003,"lat":48.63502,"lng":2.799,"addr":"L OREE DE GUIGNES","city":"GUIGNES","cp":"77390","fuels":{"Gazole":{"p":1.785,"d":"2026-03-04"},"E10":{"p":1.712,"d":"2026-03-04"},"SP98":{"p":1.815,"d":"2026-03-02"}}},{"id":77700001,"lat":48.856,"lng":2.777,"addr":"14 Cours du Danube","city":"Serris","cp":"77700","fuels":{"Gazole":{"p":1.879,"d":"2026-03-04"},"E85":{"p":0.728,"d":"2026-03-04"},"E10":{"p":1.794,"d":"2026-03-04"},"SP98":{"p":1.895,"d":"2026-03-04"}}},{"id":77600004,"lat":48.8291488545,"lng":2.74177363716,"addr":"AUTOROUTE A4 - AIRE DE FERRIÈRES","city":"Bussy-Saint-Georges","cp":"77600","fuels":{"Gazole":{"p":1.731,"d":"2026-03-04"},"GPLc":{"p":0.979,"d":"2026-03-04"},"E10":{"p":1.738,"d":"2026-03-04"},"SP98":{"p":1.848,"d":"2026-03-04"}}},{"id":77370001,"lat":48.558094704,"lng":3.02534519556,"addr":"Avenue de Verdun","city":"NANGIS","cp":"77370","fuels":{"Gazole":{"p":1.809,"d":"2026-03-03"},"E85":{"p":0.728,"d":"2026-01-20"},"E10":{"p":1.751,"d":"2026-03-03"},"SP98":{"p":1.851,"d":"2026-03-03"}}},{"id":77680003,"lat":48.78203,"lng":2.65712,"addr":"ROUTE D'OZOIR","city":"Roissy-en-Brie","cp":"77680","fuels":{"Gazole":{"p":1.854,"d":"2026-03-03"},"E85":{"p":0.74,"d":"2026-02-26"},"E10":{"p":1.74,"d":"2026-03-03"},"SP98":{"p":1.857,"d":"2026-03-03"}}},{"id":77508001,"lat":48.878,"lng":2.609,"addr":"Avenue du Gendarme Castermant","city":"CHELLES","cp":"77500","fuels":{"Gazole":{"p":1.775,"d":"2026-03-04"},"E10":{"p":1.71,"d":"2026-03-04"},"SP98":{"p":1.84,"d":"2026-03-04"}}},{"id":77440002,"lat":49.022,"lng":3.033,"addr":"8, route des platanes","city":"Lizy-sur-Ourcq","cp":"77440","fuels":{"Gazole":{"p":1.849,"d":"2026-03-04"},"E10":{"p":1.779,"d":"2026-03-04"},"SP98":{"p":1.879,"d":"2026-03-04"}}},{"id":77700004,"lat":48.85,"lng":2.819,"addr":"17 Place de l'Europe","city":"Bailly-Romainvilliers","cp":"77700","fuels":{"Gazole":{"p":1.768,"d":"2026-02-27"},"SP95":{"p":1.746,"d":"2026-02-27"},"SP98":{"p":1.849,"d":"2026-02-27"}}},{"id":77400008,"lat":48.896,"lng":2.716,"addr":"17 allée des rousselets Zac des vallières","city":"THORIGNY-SUR-MARNE","cp":"77400","fuels":{"Gazole":{"p":1.849,"d":"2026-03-04"},"SP95":{"p":1.849,"d":"2026-03-04"},"E85":{"p":0.729,"d":"2026-01-15"},"GPLc":{"p":0.989,"d":"2026-03-04"},"E10":{"p":1.779,"d":"2026-03-04"},"SP98":{"p":1.869,"d":"2026-03-04"}}},{"id":77520002,"lat":48.476368,"lng":3.139413,"addr":"2 RUE MONTPENSIER","city":"DONNEMARIE DONTILLY","cp":"77520","fuels":{"Gazole":{"p":1.695,"d":"2026-02-27"},"E85":{"p":0.729,"d":"2026-02-13"},"E10":{"p":1.685,"d":"2026-02-27"},"SP98":{"p":1.786,"d":"2026-02-27"}}},{"id":77700003,"lat":48.872,"lng":2.798,"addr":"1 Avenue Robert Schuman","city":"COUPVRAY","cp":"77700","fuels":{"Gazole":{"p":1.769,"d":"2026-03-02"},"GPLc":{"p":0.979,"d":"2026-03-02"},"E10":{"p":1.788,"d":"2026-03-02"},"SP98":{"p":1.868,"d":"2026-03-02"}}},{"id":77100008,"lat":48.957,"lng":2.885,"addr":"AV PRESIDENT SALVADOR ALLENDE","city":"Meaux","cp":"77100","fuels":{"Gazole":{"p":1.909,"d":"2026-03-04"},"E10":{"p":1.752,"d":"2026-03-04"},"SP98":{"p":1.865,"d":"2026-03-04"}}},{"id":77140013,"lat":48.268,"lng":2.713,"addr":"28 avenue du Général de Gaulle","city":"Nemours","cp":"77140","fuels":{"E85":{"p":0.725,"d":"2025-09-29"}}},{"id":77260009,"lat":48.944,"lng":3.121,"addr":"42 AVENUE FRANKLIN ROOSEVELT","city":"LA FERTE SOUS JOUARRE","cp":"77260","fuels":{"Gazole":{"p":1.99,"d":"2026-03-04"},"E85":{"p":0.766,"d":"2026-02-24"},"GPLc":{"p":1.07,"d":"2025-10-27"},"E10":{"p":1.859,"d":"2026-03-04"},"SP98":{"p":1.969,"d":"2026-03-04"}}},{"id":77760002,"lat":48.32,"lng":2.575,"addr":"36 Avenue de Fontainebleau","city":"La Chapelle-la-Reine","cp":"77760","fuels":{"Gazole":{"p":1.953,"d":"2026-03-04"},"E10":{"p":1.843,"d":"2026-03-04"},"SP98":{"p":1.99,"d":"2026-03-04"}}},{"id":77330003,"lat":48.757,"lng":2.7,"addr":"84 Rue François de Tessan","city":"OZOIR-LA-FERRIèRE","cp":"77330","fuels":{"Gazole":{"p":1.854,"d":"2026-03-03"},"E10":{"p":1.74,"d":"2026-03-03"},"SP98":{"p":1.857,"d":"2026-03-03"}}},{"id":77360001,"lat":48.874,"lng":2.641,"addr":"Place du Général de Gaulle","city":"VAIRES-SUR-MARNE","cp":"77360","fuels":{"Gazole":{"p":1.899,"d":"2026-03-04"},"SP95":{"p":1.859,"d":"2026-03-04"},"E10":{"p":1.799,"d":"2026-03-04"},"SP98":{"p":1.909,"d":"2026-03-04"}}},{"id":77710001,"lat":48.251,"lng":2.874,"addr":"Chemin du Berceau","city":"Lorrez-le-Bocage-Préaux","cp":"77710","fuels":{"Gazole":{"p":1.852,"d":"2026-03-03"},"SP95":{"p":1.796,"d":"2026-03-03"},"E10":{"p":1.724,"d":"2026-03-03"},"SP98":{"p":1.832,"d":"2026-03-03"}}},{"id":77400012,"lat":48.865,"lng":2.676,"addr":"AVENUE ST GERMAIN DES NOYERS","city":"Saint-Thibault-des-Vignes","cp":"77400","fuels":{"Gazole":{"p":1.999,"d":"2026-03-04"},"GPLc":{"p":1.089,"d":"2026-03-04"},"E10":{"p":1.829,"d":"2026-03-04"},"SP98":{"p":1.979,"d":"2026-03-04"}}},{"id":77164002,"lat":48.827475189366,"lng":2.7031953919577,"addr":"ZAC DES HAUTS DE FERRIERES - PARC DES MERLETTES","city":"FERRIERES EN BRIE","cp":"77164","fuels":{"Gazole":{"p":1.898,"d":"2026-03-04"},"E10":{"p":1.753,"d":"2026-03-04"},"SP98":{"p":1.866,"d":"2026-03-04"}}},{"id":77170004,"lat":48.70075943685,"lng":2.600879926279,"addr":"7 Rue du Général Leclerc","city":"BRIE-COMTE-ROBERT","cp":"77170","fuels":{"Gazole":{"p":1.99,"d":"2026-03-04"},"GPLc":{"p":0.96,"d":"2026-03-04"},"E10":{"p":1.869,"d":"2026-03-04"},"SP98":{"p":1.979,"d":"2026-03-04"}}},{"id":77400011,"lat":48.877,"lng":2.729,"addr":"RN 34","city":"Lagny-sur-Marne","cp":"77400","fuels":{"Gazole":{"p":1.946,"d":"2026-03-04"},"E85":{"p":0.759,"d":"2026-03-04"},"E10":{"p":1.789,"d":"2026-03-04"},"SP98":{"p":1.869,"d":"2026-03-04"}}},{"id":77410009,"lat":48.905201156416005,"lng":2.6412004299141003,"addr":"AUTOROUTE N104 - AIRE DE VILLEVAUDÉ","city":"VILLEVAUDE","cp":"77410","fuels":{"Gazole":{"p":1.929,"d":"2026-03-04"},"GPLc":{"p":0.959,"d":"2026-03-04"},"E10":{"p":1.772,"d":"2026-03-04"},"SP98":{"p":1.866,"d":"2026-03-04"}}},{"id":77590001,"lat":48.48338,"lng":2.69601,"addr":"Rue Gallieni","city":"Chartrettes","cp":"77590","fuels":{"Gazole":{"p":1.834,"d":"2026-03-04"},"SP95":{"p":1.789,"d":"2026-03-04"},"SP98":{"p":1.854,"d":"2026-03-04"}}},{"id":77250002,"lat":48.375482965623,"lng":2.8113895223141,"addr":"2 Avenue de la Gare","city":"Moret-Loing-et-Orvanne","cp":"77250","fuels":{"Gazole":{"p":1.778,"d":"2026-03-03"},"E85":{"p":0.728,"d":"2026-01-16"},"E10":{"p":1.729,"d":"2026-03-03"},"SP98":{"p":1.831,"d":"2026-03-03"}}},{"id":77229001,"lat":48.613,"lng":2.885,"addr":"CC E.Leclerc - RN19 « Les Chaumes »","city":"Mormant","cp":"77720","fuels":{"Gazole":{"p":1.859,"d":"2026-03-04"},"E10":{"p":1.709,"d":"2026-03-04"},"SP98":{"p":1.815,"d":"2026-03-04"}}},{"id":77220005,"lat":48.74,"lng":2.777,"addr":"RUE DE LA LIBERATION","city":"Tournan-en-Brie","cp":"77220","fuels":{"Gazole":{"p":1.899,"d":"2026-03-04"},"E85":{"p":0.725,"d":"2026-03-04"},"E10":{"p":1.789,"d":"2026-03-04"},"SP98":{"p":1.879,"d":"2026-03-04"}}},{"id":77100025,"lat":48.954,"lng":2.912,"addr":"42 ALLÉE JEAN LOUIS BARRAULT","city":"MEAUX","cp":"77100","fuels":{"Gazole":{"p":1.879,"d":"2026-03-04"},"SP95":{"p":1.729,"d":"2026-03-04"},"E10":{"p":1.749,"d":"2026-03-04"}}},{"id":77170006,"lat":48.703,"lng":2.6,"addr":"12 Rue Gustave Eiffel","city":"BRIE-COMTE-ROBERT","cp":"77170","fuels":{"Gazole":{"p":1.902,"d":"2026-03-04"},"E10":{"p":1.741,"d":"2026-03-04"},"SP98":{"p":1.849,"d":"2026-03-04"}}},{"id":77460001,"lat":48.183,"lng":2.736,"addr":"115 Avenue du Maréchal Leclerc","city":"SOUPPES-SUR-LOING","cp":"77460","fuels":{"Gazole":{"p":1.99,"d":"2026-03-04"},"E10":{"p":1.871,"d":"2026-03-04"},"SP98":{"p":1.981,"d":"2026-03-04"}}},{"id":77160003,"lat":48.559,"lng":3.309,"addr":"15 Avenue du Maréchal de Lattre de Tassigny","city":"Provins","cp":"77160","fuels":{"Gazole":{"p":1.757,"d":"2026-03-03"},"E85":{"p":0.728,"d":"2026-01-16"}}},{"id":77580002,"lat":48.86,"lng":2.9,"addr":"Avenue de Villiers","city":"CRéCY-LA-CHAPELLE","cp":"77580","fuels":{"Gazole":{"p":1.849,"d":"2026-03-03"},"E85":{"p":0.729,"d":"2026-02-28"},"E10":{"p":1.716,"d":"2026-03-04"},"SP98":{"p":1.83,"d":"2026-03-04"}}},{"id":77370005,"lat":48.559,"lng":3.021,"addr":"RN 19 , AVENUE DU GENERAL DE GAU","city":"NANGIS","cp":"77370","fuels":{"Gazole":{"p":1.929,"d":"2026-03-04"},"E10":{"p":1.771,"d":"2026-03-04"},"SP98":{"p":1.871,"d":"2026-03-04"}}}]