[{"id":93380009,"lat":48.9660970452,"lng":2.36413094302,"addr":"42, BOULEVARD JEAN MERMOZ","city":"Pierrefitte-sur-Seine","cp":"93380","fuels":{"Gazole":{"p":1.944,"d":"2026-03-05"},"E85":{"p":0.789,"d":"2026-03-05"},"E10":{"p":1.795,"d":"2026-03-05"},"SP98":{"p":1.875,"d":"2026-03-05"}}},{"id":93150009,"lat":48.935,"lng":2.473,"addr":"140 AVENUE DE LA REPUBLIQUE","city":"Le Blanc-Mesnil","cp":"93150","fuels":{"Gazole":{"p":1.99,"d":"2026-03-05"},"E85":{"p":0.779,"d":"2026-03-05"},"E10":{"p":1.899,"d":"2026-03-05"},"SP98":{"p":1.99,"d":"2026-03-05"}}},{"id":93160006,"lat":48.845,"lng":2.528,"addr":"4 Boulevard du Maréchal Foch","city":"NOISY LE GRAND","cp":"93160","fuels":{"Gazole":{"p":1.809,"d":"2026-03-04"},"SP95":{"p":1.807,"d":"2026-03-04"},"E10":{"p":1.755,"d":"2026-03-04"},"SP98":{"p":1.841,"d":"2026-03-04"}}},{"id":93100014,"lat":48.86885,"lng":2.47055,"addr":"48-54 BOULEVARD THEOPHILE SUEUR","city":"MONTREUIL","cp":"93100","fuels":{"Gazole":{"p":1.954,"d":"2026-03-05"},"E85":{"p":0.829,"d":"2026-03-05"},"E10":{"p":1.799,"d":"2026-03-05"},"SP98":{"p":1.879,"d":"2026-03-05"}}},{"id":93140002,"lat":48.906,"lng":2.481,"addr":"108 Avenue Gallieni","city":"Bondy","cp":"93140","fuels":{"Gazole":{"p":1.954,"d":"2026-03-05"},"E10":{"p":1.795,"d":"2026-03-05"},"SP98":{"p":1.875,"d":"2026-03-05"}}},{"id":93160004,"lat":48.843,"lng":2.577,"addr":"2 Rue des Hauts-Châteaux","city":"Noisy-le-Grand","cp":"93160","fuels":{"Gazole":{"p":1.957,"d":"2026-03-05"},"E10":{"p":1.808,"d":"2026-03-05"},"SP98":{"p":1.883,"d":"2026-03-05"}}},{"id":93140003,"lat":48.907,"lng":2.489,"addr":"205 Avenue Gallieni","city":"Bondy","cp":"93140","fuels":{"Gazole":{"p":1.954,"d":"2026-03-05"},"E10":{"p":1.795,"d":"2026-03-05"},"SP98":{"p":1.875,"d":"2026-03-05"}}},{"id":93160005,"lat":48.851,"lng":2.535,"addr":"22 Route de Neuilly","city":"Noisy-le-Grand","cp":"93160","fuels":{"Gazole":{"p":1.938,"d":"2026-03-05"},"E10":{"p":1.792,"d":"2026-03-05"},"SP98":{"p":1.874,"d":"2026-03-05"}}},{"id":93800003,"lat":48.96,"lng":2.304,"addr":"86 Avenue de Lattre de Tassigny","city":"Épinay-sur-Seine","cp":"93800","fuels":{"Gazole":{"p":1.951,"d":"2026-03-04"},"E10":{"p":1.789,"d":"2026-03-04"},"SP98":{"p":1.879,"d":"2026-03-04"}}},{"id":93410002,"lat":48.935,"lng":2.567,"addr":"64 Rue de Meaux","city":"Vaujours","cp":"93410","fuels":{"Gazole":{"p":2.059,"d":"2026-03-04"},"GPLc":{"p":1.069,"d":"2026-03-04"},"E10":{"p":1.969,"d":"2026-03-04"},"SP98":{"p":2.119,"d":"2026-03-04"}}},{"id":93300001,"lat":48.918,"lng":2.379,"addr":"43 Avenue du Président Roosevelt","city":"Aubervilliers","cp":"93300","fuels":{"Gazole":{"p":2.049,"d":"2026-03-05"},"E10":{"p":1.909,"d":"2026-03-05"},"SP98":{"p":2.059,"d":"2026-03-05"}}},{"id":93290003,"lat":48.9467460327,"lng":2.57048818541,"addr":"AV GILBERT BERGER","city":"TREMBLAY-EN-FRANCE","cp":"93290","fuels":{"Gazole":{"p":1.916,"d":"2026-03-04"},"SP95":{"p":1.84,"d":"2026-03-04"},"E10":{"p":1.805,"d":"2026-03-04"}}},{"id":93210003,"lat":48.912,"lng":2.358,"addr":"207-213 AVENUE DU PDT WILSON","city":"La plaine-saint-denis","cp":"93210","fuels":{"Gazole":{"p":1.99,"d":"2026-03-05"},"E10":{"p":1.905,"d":"2026-03-05"}}},{"id":93150012,"lat":48.928,"lng":2.474,"addr":"60 - 68 PAUL VAILLANT COUTURIER","city":"Le Blanc-Mesnil","cp":"93150","fuels":{"Gazole":{"p":2.079,"d":"2026-03-04"},"GPLc":{"p":0.979,"d":"2026-03-04"},"E10":{"p":1.909,"d":"2026-03-04"},"SP98":{"p":2.059,"d":"2026-03-04"}}},{"id":93110005,"lat":48.878,"lng":2.482,"addr":"12/14 BD.GABRIEL PERI - TOTAL","city":"Rosny-sous-Bois","cp":"93110","fuels":{"Gazole":{"p":1.99,"d":"2026-03-05"},"E85":{"p":0.834,"d":"2026-03-05"},"GPLc":{"p":0.999,"d":"2026-03-05"},"E10":{"p":1.905,"d":"2026-03-05"},"SP98":{"p":1.99,"d":"2026-03-05"}}},{"id":93290005,"lat":48.984,"lng":2.55,"addr":"DEVIATION CD 88 - 1 ROUTE DE ROI","city":"Tremblay-en-France","cp":"93290","fuels":{"Gazole":{"p":1.99,"d":"2026-03-05"},"SP98":{"p":1.984,"d":"2026-03-05"}}},{"id":93360002,"lat":48.862,"lng":2.51,"addr":"3 CHEMIN DE MEAUX","city":"Neuilly-Plaisance","cp":"93360","fuels":{"Gazole":{"p":1.84,"d":"2026-02-13"},"SP98":{"p":1.96,"d":"2026-02-13"}}},{"id":93190006,"lat":48.912,"lng":2.519,"addr":"69, AVENUE ARISTIDE BRIAND","city":"LIVRY GARGAN","cp":"93190","fuels":{"Gazole":{"p":2.019,"d":"2026-03-04"},"GPLc":{"p":1.079,"d":"2026-03-04"},"E10":{"p":1.929,"d":"2026-03-04"},"SP98":{"p":2.079,"d":"2026-03-04"}}},{"id":93300003,"lat":48.919,"lng":2.394,"addr":"100 RUE CHARLES TILLON","city":"AUBERVILLIERS","cp":"93300","fuels":{"Gazole":{"p":2.079,"d":"2026-03-04"},"E10":{"p":1.969,"d":"2026-03-04"},"SP98":{"p":2.169,"d":"2026-03-04"}}},{"id":93140004,"lat":48.907,"lng":2.485,"addr":"175 AV MAL GALLIENI","city":"BONDY","cp":"93140","fuels":{"Gazole":{"p":2.049,"d":"2026-03-05"},"E10":{"p":1.959,"d":"2026-03-05"},"SP98":{"p":2.109,"d":"2026-03-05"}}},{"id":93800005,"lat":48.954,"lng":2.335,"addr":"159 Route de Saint-Leu","city":"EPINAY SUR SEINE","cp":"93800","fuels":{"Gazole":{"p":1.834,"d":"2026-03-05"},"E85":{"p":0.669,"d":"2026-03-05"},"E10":{"p":1.707,"d":"2026-03-05"},"SP98":{"p":1.81,"d":"2026-03-05"}}},{"id":93600016,"lat":48.953,"lng":2.497,"addr":"BLD MARC CHAGALL","city":"Aulnay-sous-Bois","cp":"93600","fuels":{"Gazole":{"p":1.99,"d":"2026-03-05"},"E10":{"p":1.899,"d":"2026-03-05"},"SP98":{"p":1.99,"d":"2026-03-05"}}},{"id":93120004,"lat":48.933921662064,"lng":2.3899556342881003,"addr":"AUTOROUTE A1 - AIRE DE LA COURNEUVE EST","city":"LA COURNEUVE","cp":"93120","fuels":{"Gazole":{"p":1.99,"d":"2026-03-04"},"E85":{"p":0.949,"d":"2026-03-04"},"GPLc":{"p":0.989,"d":"2026-03-04"},"E10":{"p":1.889,"d":"2026-03-04"},"SP98":{"p":1.99,"d":"2026-03-04"}}},{"id":93200008,"lat":48.935,"lng":2.368,"addr":"112 AV P. VAILLANT COUTURIER","city":"Saint-Denis","cp":"93200","fuels":{"Gazole":{"p":2.139,"d":"2026-03-05"},"E85":{"p":1.039,"d":"2026-03-05"},"E10":{"p":2.029,"d":"2026-03-05"},"SP98":{"p":2.199,"d":"2026-03-05"}}},{"id":93000001,"lat":48.906,"lng":2.456,"addr":"300 Avenue Paul Vaillant-Couturier","city":"Bobigny","cp":"93000","fuels":{"Gazole":{"p":2.059,"d":"2026-03-05"},"GPLc":{"p":1.129,"d":"2026-03-05"},"E10":{"p":1.899,"d":"2026-03-05"},"SP98":{"p":2.049,"d":"2026-03-05"}}},{"id":93420004,"lat":48.975,"lng":2.496,"addr":"Rue des Buttes","city":"Villepinte","cp":"93420","fuels":{"Gazole":{"p":2.039,"d":"2026-03-05"},"E10":{"p":1.869,"d":"2026-03-05"},"SP98":{"p":2.039,"d":"2026-03-05"}}},{"id":93260007,"lat":48.88021,"lng":2.41759,"addr":"238 RUE DE PARIS","city":"LES LILAS","cp":"93260","fuels":{"Gazole":{"p":1.954,"d":"2026-03-05"},"E85":{"p":0.828,"d":"2026-03-05"},"E10":{"p":1.801,"d":"2026-03-05"},"SP98":{"p":1.881,"d":"2026-03-05"}}},{"id":93270006,"lat":48.939,"lng":2.527,"addr":"29 Avenue du Général Leclerc","city":"SEVRAN","cp":"93270","fuels":{"Gazole":{"p":2.129,"d":"2026-03-04"},"E10":{"p":1.939,"d":"2026-03-04"},"SP98":{"p":2.089,"d":"2026-03-04"}}},{"id":93800006,"lat":48.949,"lng":2.343,"addr":"53 ROUTE DE SAINT LEU","city":"Épinay-sur-Seine","cp":"93800","fuels":{"Gazole":{"p":1.99,"d":"2026-03-05"},"E85":{"p":0.764,"d":"2026-03-05"},"GPLc":{"p":0.996,"d":"2026-03-05"},"E10":{"p":1.893,"d":"2026-03-05"},"SP98":{"p":1.99,"d":"2026-03-05"}}},{"id":93000011,"lat":48.906,"lng":2.445,"addr":"19 AV JEAN JAURES","city":"BOBIGNY","cp":"93000","fuels":{"Gazole":{"p":2.029,"d":"2026-03-05"},"E85":{"p":0.939,"d":"2026-03-05"},"E10":{"p":1.869,"d":"2026-03-05"},"SP98":{"p":2.019,"d":"2026-03-05"}}},{"id":93290006,"lat":48.96372,"lng":2.56421,"addr":"62-68 ROUTE DES PETITS PONTS","city":"Tremblay-en-France","cp":"93290","fuels":{"Gazole":{"p":1.934,"d":"2026-03-05"},"E85":{"p":0.749,"d":"2026-03-05"},"E10":{"p":1.785,"d":"2026-03-05"},"SP98":{"p":1.869,"d":"2026-03-05"}}},{"id":93130011,"lat":48.888,"lng":2.46,"addr":"107 RUE DE BREMENT","city":"Noisy-le-Sec","cp":"93130","fuels":{"Gazole":{"p":2.039,"d":"2026-03-04"},"E85":{"p":0.969,"d":"2026-03-04"},"E10":{"p":1.869,"d":"2026-03-04"},"SP98":{"p":2.019,"d":"2026-03-04"}}},{"id":93190004,"lat":48.914,"lng":2.526,"addr":"137 Avenue Aristide Briand","city":"LIVRY-GARGAN","cp":"93190","fuels":{"Gazole":{"p":2.039,"d":"2026-03-05"},"E85":{"p":1.009,"d":"2026-03-05"},"E10":{"p":1.949,"d":"2026-03-05"},"SP98":{"p":2.119,"d":"2026-03-05"}}},{"id":93130007,"lat":48.88,"lng":2.457,"addr":"Rue de la Chasse","city":"Noisy-le-Sec","cp":"93130","fuels":{"Gazole":{"p":2.089,"d":"2026-03-05"},"SP95":{"p":1.849,"d":"2025-07-28"},"E10":{"p":2.009,"d":"2026-03-05"},"SP98":{"p":2.159,"d":"2026-03-05"}}},{"id":93600018,"lat":48.953,"lng":2.486,"addr":"RUE MICHEL ANGE ROUTE N 370","city":"AULNAY SOUS BOIS","cp":"93600","fuels":{"Gazole":{"p":2.039,"d":"2026-03-05"},"GPLc":{"p":0.999,"d":"2026-03-05"},"E10":{"p":1.949,"d":"2026-03-05"},"SP98":{"p":2.149,"d":"2026-03-05"}}},{"id":93270008,"lat":48.936,"lng":2.515,"addr":"50 avenue john fitzgerald kennedy","city":"SEVRAN","cp":"93270","fuels":{"Gazole":{"p":2.099,"d":"2026-03-04"},"SP95":{"p":1.939,"d":"2026-03-04"},"E10":{"p":1.939,"d":"2026-03-04"},"SP98":{"p":2.089,"d":"2026-03-04"}}},{"id":93390001,"lat":48.907,"lng":2.532,"addr":"12 Allée de la Fosse-Maussoin","city":"CLICHY-SOUS-BOIS","cp":"93390","fuels":{"Gazole":{"p":1.852,"d":"2026-03-05"},"SP95":{"p":1.765,"d":"2026-03-05"},"E10":{"p":1.709,"d":"2026-03-05"},"SP98":{"p":1.814,"d":"2026-03-05"}}},{"id":93500008,"lat":48.9,"lng":2.411,"addr":"130-132 AVENUE DU GENERAL LECLERC","city":"PANTIN","cp":"93500","fuels":{"Gazole":{"p":1.744,"d":"2026-02-28"},"E10":{"p":1.741,"d":"2026-02-28"},"SP98":{"p":1.821,"d":"2026-02-28"}}},{"id":93420008,"lat":48.957,"lng":2.56,"addr":"AVENUE G CLEMENCEAU CD 40","city":"VILLEPINTE","cp":"93420","fuels":{"Gazole":{"p":1.999,"d":"2026-03-05"},"GPLc":{"p":1.009,"d":"2026-03-05"},"E10":{"p":1.849,"d":"2026-03-05"},"SP98":{"p":1.999,"d":"2026-03-05"}}},{"id":93240008,"lat":48.95763,"lng":2.38253,"addr":"17 AVENUE MARCEL CACHIN","city":"STAINS","cp":"93240","fuels":{"Gazole":{"p":1.939,"d":"2026-03-05"},"E10":{"p":1.797,"d":"2026-03-05"},"SP98":{"p":1.877,"d":"2026-03-05"}}},{"id":93160008,"lat":48.838125330120995,"lng":2.547563329687,"addr":"Rue du Centre Centre Reg Mont D'Est","city":"Noisy-le-Grand","cp":"93160","fuels":{"Gazole":{"p":1.99,"d":"2026-03-05"},"E85":{"p":0.779,"d":"2026-03-05"},"E10":{"p":1.899,"d":"2026-03-05"},"SP98":{"p":1.99,"d":"2026-03-05"}}},{"id":93320002,"lat":48.91,"lng":2.51,"addr":"262 AVENUE ARISTIDE BRIAND","city":"Les Pavillons-sous-Bois","cp":"93320","fuels":{"Gazole":{"p":1.99,"d":"2026-03-05"},"E85":{"p":0.815,"d":"2026-03-05"},"E10":{"p":1.899,"d":"2026-03-05"},"SP98":{"p":1.99,"d":"2026-03-05"}}},{"id":93170002,"lat":48.86205,"lng":2.4165,"addr":"44-48 AVENUE DE LA REPUBLIQUE","city":"BAGNOLET","cp":"93170","fuels":{"Gazole":{"p":1.99,"d":"2026-03-05"},"E10":{"p":1.909,"d":"2026-03-05"},"SP98":{"p":1.99,"d":"2026-03-05"}}},{"id":93350003,"lat":48.942,"lng":2.432,"addr":"7/9 AV DU 8 MAI 1945","city":"LE BOURGET","cp":"93350","fuels":{"Gazole":{"p":1.931,"d":"2026-03-05"},"E85":{"p":0.779,"d":"2026-03-05"},"E10":{"p":1.791,"d":"2026-03-05"},"SP98":{"p":1.871,"d":"2026-03-05"}}},{"id":93380010,"lat":48.973,"lng":2.366,"addr":"185 BD JEAN MERMOZ","city":"Pierrefitte-sur-Seine","cp":"93380","fuels":{"Gazole":{"p":1.942,"d":"2026-03-05"},"E85":{"p":0.789,"d":"2026-03-05"},"GPLc":{"p":0.929,"d":"2026-03-05"},"E10":{"p":1.793,"d":"2026-03-05"},"SP98":{"p":1.873,"d":"2026-03-05"}}},{"id":93400010,"lat":48.908,"lng":2.344,"addr":"56-74 AVENUE MICHELET","city":"Saint-Ouen","cp":"93400","fuels":{"Gazole":{"p":1.99,"d":"2026-03-05"},"E10":{"p":1.909,"d":"2026-03-05"},"SP98":{"p":1.99,"d":"2026-03-05"}}},{"id":93100015,"lat":48.857,"lng":2.43,"addr":"86 RUE DE PARIS","city":"MONTREUIL","cp":"93100","fuels":{"Gazole":{"p":1.99,"d":"2026-03-05"},"E85":{"p":0.834,"d":"2026-03-05"},"E10":{"p":1.909,"d":"2026-03-05"},"SP98":{"p":1.99,"d":"2026-03-05"}}},{"id":93160001,"lat":48.83,"lng":2.561,"addr":"33 Avenue Médéric","city":"Noisy-le-Grand","cp":"93160","fuels":{"Gazole":{"p":1.99,"d":"2026-03-04"},"E10":{"p":1.909,"d":"2026-03-04"},"SP98":{"p":1.99,"d":"2026-03-04"}}},{"id":93000010,"lat":48.914,"lng":2.441,"addr":"54 AVENUE LOUIS ARAGON","city":"BOBIGNY","cp":"93000","fuels":{"Gazole":{"p":1.954,"d":"2026-03-05"},"E10":{"p":1.795,"d":"2026-03-05"},"SP98":{"p":1.879,"d":"2026-03-05"}}},{"id":93250009,"lat":48.885,"lng":2.505,"addr":"32 AV DE ROSNY","city":"VILLEMOMBLE","cp":"93250","fuels":{"Gazole":{"p":2.109,"d":"2026-03-05"},"E85":{"p":1.039,"d":"2026-03-05"},"GPLc":{"p":1.029,"d":"2026-03-05"},"E10":{"p":2.029,"d":"2026-03-05"},"SP98":{"p":2.199,"d":"2026-03-05"}}},{"id":93300010,"lat":48.912,"lng":2.38,"addr":"126 Avenue Victor Hugo","city":"Aubervilliers","cp":"93300","fuels":{"Gazole":{"p":2.069,"d":"2026-03-04"},"E10":{"p":1.959,"d":"2026-03-04"},"SP98":{"p":2.159,"d":"2026-03-04"}}},{"id":93700006,"lat":48.913,"lng":2.463,"addr":"274 avenue Jean-Jaures","city":"DRANCY","cp":"93700","fuels":{"Gazole":{"p":2.039,"d":"2026-03-05"},"E10":{"p":1.879,"d":"2026-03-05"},"SP98":{"p":2.049,"d":"2026-03-05"}}},{"id":93330005,"lat":48.85427,"lng":2.52019,"addr":"9 TER BD MARECHAL FOCH","city":"Neuilly-sur-Marne","cp":"93330","fuels":{"Gazole":{"p":1.99,"d":"2026-03-05"},"E85":{"p":0.789,"d":"2026-03-05"},"E10":{"p":1.889,"d":"2026-03-05"},"SP98":{"p":1.99,"d":"2026-03-05"}}},{"id":93330004,"lat":48.865836168664,"lng":2.56269534165,"addr":"AVENUE JEAN JAURES","city":"Neuilly-sur-Marne","cp":"93330","fuels":{"Gazole":{"p":1.948,"d":"2026-03-04"},"SP95":{"p":1.884,"d":"2026-03-04"},"E10":{"p":1.799,"d":"2026-03-05"},"SP98":{"p":1.89,"d":"2026-03-05"}}},{"id":93420007,"lat":48.953965389285,"lng":2.533686306402,"addr":"BD ROBERT BALLANGER D115","city":"VILLEPINTE","cp":"93420","fuels":{"Gazole":{"p":1.938,"d":"2026-03-05"},"GPLc":{"p":0.956,"d":"2026-03-05"},"E10":{"p":1.792,"d":"2026-03-05"},"SP98":{"p":1.872,"d":"2026-03-05"}}},{"id":93700004,"lat":48.91625,"lng":2.44355,"addr":"35-39 AVENUE HENRI BARBUSSE","city":"DRANCY","cp":"93700","fuels":{"Gazole":{"p":1.99,"d":"2026-03-05"},"E85":{"p":0.814,"d":"2026-03-05"},"E10":{"p":1.899,"d":"2026-03-05"},"SP98":{"p":1.99,"d":"2026-03-05"}}},{"id":93300009,"lat":48.909,"lng":2.386,"addr":"62-64 AVENUE DE LA REPUBLIQUE","city":"AUBERVILLIERS","cp":"93300","fuels":{"Gazole":{"p":1.99,"d":"2026-03-05"},"E85":{"p":0.834,"d":"2026-03-05"},"E10":{"p":1.909,"d":"2026-03-05"},"SP98":{"p":1.99,"d":"2026-03-05"}}},{"id":93100017,"lat":48.863,"lng":2.464,"addr":"151, RUE NOUVELLE France","city":"MONTREUIL","cp":"93100","fuels":{"Gazole":{"p":2.029,"d":"2026-03-04"},"E10":{"p":1.869,"d":"2026-03-04"},"SP98":{"p":2.019,"d":"2026-03-04"}}},{"id":93240007,"lat":48.9487499536,"lng":2.3798807028,"addr":"21 AV.DE STALINGRAD - COURS ST L","city":"STAINS","cp":"93240","fuels":{"Gazole":{"p":1.99,"d":"2026-03-05"},"E10":{"p":1.899,"d":"2026-03-05"},"SP98":{"p":1.99,"d":"2026-03-05"}}},{"id":93270001,"lat":48.951,"lng":2.528,"addr":"ROUTE DES PETITS PONTS","city":"Sevran","cp":"93270","fuels":{"Gazole":{"p":1.952,"d":"2026-03-04"},"SP95":{"p":1.798,"d":"2026-03-04"},"E10":{"p":1.753,"d":"2026-03-04"},"SP98":{"p":1.89,"d":"2026-03-04"}}},{"id":93300008,"lat":48.91,"lng":2.38,"addr":"55 Rue de la Commune de Paris","city":"AUBERVILLIERS","cp":"93300","fuels":{"Gazole":{"p":1.974,"d":"2026-03-04"},"SP95":{"p":1.825,"d":"2026-03-04"},"E10":{"p":1.815,"d":"2026-03-04"},"SP98":{"p":1.902,"d":"2026-03-04"}}},{"id":93700003,"lat":48.918,"lng":2.418,"addr":"80, rue Saint Stenay","city":"DRANCY","cp":"93700","fuels":{"Gazole":{"p":1.993,"d":"2026-03-04"},"SP95":{"p":1.848,"d":"2026-03-04"},"E85":{"p":0.842,"d":"2026-03-04"},"E10":{"p":1.805,"d":"2026-03-04"},"SP98":{"p":1.927,"d":"2026-03-04"}}},{"id":93190002,"lat":48.9055105953,"lng":2.52200168155,"addr":"70 Boulevard Marx Dormoy","city":"LIVRY-GARGAN","cp":"93190","fuels":{"Gazole":{"p":1.919,"d":"2026-03-04"},"SP95":{"p":1.869,"d":"2026-03-04"},"E10":{"p":1.829,"d":"2026-03-04"}}},{"id":93130009,"lat":48.888,"lng":2.455,"addr":"20-30 RUE JULES AUFFRET","city":"Noisy-le-Sec","cp":"93130","fuels":{"Gazole":{"p":1.953,"d":"2026-03-05"},"E10":{"p":1.797,"d":"2026-03-05"},"SP98":{"p":1.877,"d":"2026-03-05"}}},{"id":93150011,"lat":48.940912442423006,"lng":2.4458337339048,"addr":"192 Avenue Charles Floquet","city":"Le Blanc-Mesnil","cp":"93150","fuels":{"Gazole":{"p":1.999,"d":"2026-03-05"},"SP95":{"p":1.852,"d":"2026-03-05"},"E10":{"p":1.771,"d":"2026-03-05"},"SP98":{"p":1.86,"d":"2026-03-05"}}},{"id":93420001,"lat":48.955,"lng":2.537,"addr":"Boulevard Robert Ballanger","city":"VILLEPINTE","cp":"93420","fuels":{"Gazole":{"p":1.833,"d":"2026-03-04"},"E85":{"p":0.75,"d":"2026-03-04"},"E10":{"p":1.722,"d":"2026-03-04"},"SP98":{"p":1.817,"d":"2026-03-04"}}},{"id":93600006,"lat":48.93022,"lng":2.51132,"addr":"Rue Isaac Newton","city":"AULNAY-SOUS-BOIS","cp":"93600","fuels":{"Gazole":{"p":1.909,"d":"2026-03-04"},"E85":{"p":0.758,"d":"2026-03-04"},"E10":{"p":1.759,"d":"2026-03-04"},"SP98":{"p":1.879,"d":"2026-03-04"}}},{"id":93190001,"lat":48.929,"lng":2.555,"addr":"2 allée de l est","city":"LIVRY-GARGAN","cp":"93190","fuels":{"Gazole":{"p":1.853,"d":"2026-03-04"},"E85":{"p":0.758,"d":"2026-03-04"},"GPLc":{"p":0.956,"d":"2026-03-04"},"E10":{"p":1.71,"d":"2026-03-04"},"SP98":{"p":1.821,"d":"2026-03-04"}}},{"id":93190007,"lat":48.928,"lng":2.549,"addr":"41/45 BOULEVARD ROBERT SCHUMAN","city":"Livry-Gargan","cp":"93190","fuels":{"Gazole":{"p":1.799,"d":"2026-03-04"},"E85":{"p":0.759,"d":"2026-03-04"},"E10":{"p":1.749,"d":"2026-03-04"},"SP98":{"p":1.839,"d":"2026-03-04"}}},{"id":93160009,"lat":48.82908,"lng":2.56861,"addr":"104/106 AV MEDERIC","city":"Noisy-le-Grand","cp":"93160","fuels":{"Gazole":{"p":1.99,"d":"2026-03-05"},"E85":{"p":0.769,"d":"2026-03-05"},"E10":{"p":1.896,"d":"2026-03-05"}}},{"id":93606001,"lat":48.955,"lng":2.476,"addr":"ZONE DE PARINOR SECTEUR N°2","city":"AULNAY-SOUS-BOIS","cp":"93600","fuels":{"Gazole":{"p":1.915,"d":"2026-03-04"},"SP95":{"p":1.846,"d":"2026-03-04"},"E85":{"p":0.762,"d":"2026-03-04"},"GPLc":{"p":0.95,"d":"2026-03-04"},"E10":{"p":1.806,"d":"2026-03-04"},"SP98":{"p":1.919,"d":"2026-03-04"}}},{"id":93150008,"lat":48.948,"lng":2.467,"addr":"1 Avenue Armand Esders","city":"LE BLANC-MESNIL","cp":"93150","fuels":{"Gazole":{"p":1.999,"d":"2026-03-05"},"SP95":{"p":1.852,"d":"2026-03-05"},"E10":{"p":1.771,"d":"2026-03-05"},"SP98":{"p":1.86,"d":"2026-03-05"}}},{"id":93240001,"lat":48.949,"lng":2.385,"addr":"80 BOULEVARD MAXIME GORKI","city":"STAINS","cp":"93240","fuels":{"Gazole":{"p":1.939,"d":"2026-03-05"},"SP95":{"p":1.94,"d":"2026-03-05"},"E85":{"p":0.789,"d":"2026-03-05"},"E10":{"p":1.797,"d":"2026-03-05"},"SP98":{"p":1.877,"d":"2026-03-05"}}},{"id":93150007,"lat":48.948,"lng":2.438,"addr":"2 AV DU 8 MAI 1945","city":"Le Blanc-Mesnil","cp":"93150","fuels":{"Gazole":{"p":1.921,"d":"2026-03-05"},"E85":{"p":0.85,"d":"2026-03-05"},"E10":{"p":1.791,"d":"2026-03-05"},"SP98":{"p":1.871,"d":"2026-03-05"}}},{"id":93100011,"lat":48.869,"lng":2.448,"addr":"16 Boulevard Aristide Briand","city":"Montreuil","cp":"93100","fuels":{"Gazole":{"p":2.029,"d":"2026-03-04"},"E10":{"p":1.869,"d":"2026-03-04"},"SP98":{"p":2.019,"d":"2026-03-04"}}},{"id":93240009,"lat":48.959,"lng":2.398,"addr":"201-203 avenue de Stalingrad, 93240 Stains","city":"Stains","cp":"93240","fuels":{"Gazole":{"p":1.929,"d":"2026-03-03"},"E10":{"p":1.889,"d":"2026-03-03"},"SP98":{"p":1.979,"d":"2026-03-03"}}},{"id":93120005,"lat":48.935,"lng":2.394,"addr":"AUTOROUTE A1 - AIRE DE LA COURNEUVE OUEST - SENS LILLE/PARIS","city":"LA COURNEUVE","cp":"93120","fuels":{"Gazole":{"p":1.909,"d":"2026-03-05"},"E85":{"p":0.929,"d":"2026-03-05"},"E10":{"p":1.762,"d":"2026-03-05"},"SP98":{"p":1.852,"d":"2026-03-05"}}},{"id":93330006,"lat":48.855,"lng":2.525,"addr":"29-33 BLD DU MARECHAL FOCH","city":"Neuilly-sur-Marne","cp":"93330","fuels":{"Gazole":{"p":1.938,"d":"2026-03-05"},"E10":{"p":1.792,"d":"2026-03-05"},"SP98":{"p":1.874,"d":"2026-03-05"}}},{"id":93600019,"lat":48.94482,"lng":2.49526,"addr":"32, RUE JACQUES DUCLOS","city":"Aulnay-sous-Bois","cp":"93600","fuels":{"Gazole":{"p":2.069,"d":"2026-03-05"},"E10":{"p":1.929,"d":"2026-03-05"},"SP98":{"p":2.019,"d":"2026-03-05"}}},{"id":93470002,"lat":48.915,"lng":2.589,"addr":"ZAC DES PRES CD N° 136","city":"COUBRON","cp":"93470","fuels":{"Gazole":{"p":1.988,"d":"2026-03-05"},"E85":{"p":0.758,"d":"2026-03-04"},"E10":{"p":1.759,"d":"2026-03-05"},"SP98":{"p":1.872,"d":"2026-03-05"}}},{"id":93230005,"lat":48.884,"lng":2.43,"addr":"22 AVENUE LENINE","city":"ROMAINVILLE","cp":"93230","fuels":{"Gazole":{"p":1.99,"d":"2026-03-05"},"E10":{"p":1.909,"d":"2026-03-05"},"SP98":{"p":1.99,"d":"2026-03-05"}}},{"id":93130006,"lat":48.902,"lng":2.462,"addr":"140 Rue de Paris","city":"NOISY-LE-SEC","cp":"93130","fuels":{"Gazole":{"p":1.796,"d":"2026-03-01"},"E10":{"p":1.789,"d":"2026-03-01"}}},{"id":93600020,"lat":48.924118694431996,"lng":2.4860290336071,"addr":"110 BD DE STRASBOURG","city":"AULNAY SOUS BOIS","cp":"93600","fuels":{"Gazole":{"p":1.84,"d":"2025-10-24"},"E10":{"p":1.88,"d":"2025-10-24"},"SP98":{"p":1.94,"d":"2025-10-24"}}},{"id":93370001,"lat":48.899,"lng":2.549,"addr":"186, avenue jean-jaurès","city":"MONTFERMEIL","cp":"93370","fuels":{"Gazole":{"p":1.857,"d":"2026-03-04"},"SP95":{"p":1.769,"d":"2026-03-04"},"E10":{"p":1.709,"d":"2026-03-04"},"SP98":{"p":1.819,"d":"2026-03-04"}}}]