[{"id":95350002,"lat":49.00763,"lng":2.35163,"addr":"20 avenue robert schumann","city":"SAINT-BRICE-SOUS-FORêT","cp":"95350","fuels":{"Gazole":{"p":1.979,"d":"2026-03-05"},"SP95":{"p":1.738,"d":"2025-12-31"},"E85":{"p":0.689,"d":"2026-03-05"},"GPLc":{"p":0.877,"d":"2026-03-05"},"E10":{"p":1.759,"d":"2026-03-05"},"SP98":{"p":1.875,"d":"2026-03-05"}}},{"id":95100011,"lat":48.943,"lng":2.253,"addr":"2 Avenue Gabriel Péri","city":"Argenteuil","cp":"95100","fuels":{"Gazole":{"p":1.96,"d":"2026-03-04"},"E85":{"p":0.847,"d":"2026-03-04"},"E10":{"p":1.798,"d":"2026-03-04"},"SP98":{"p":1.888,"d":"2026-03-04"}}},{"id":95440001,"lat":49.027,"lng":2.369,"addr":"56 Rue de la Libération","city":"Écouen","cp":"95440","fuels":{"Gazole":{"p":1.924,"d":"2026-03-04"},"E85":{"p":0.699,"d":"2026-03-04"},"E10":{"p":1.752,"d":"2026-03-04"},"SP98":{"p":1.861,"d":"2026-03-04"}}},{"id":95100030,"lat":48.95763,"lng":2.27971,"addr":"RUE JACQUES BREL","city":"ARGENTEUIL","cp":"95100","fuels":{"Gazole":{"p":1.99,"d":"2026-03-05"},"E85":{"p":0.819,"d":"2026-03-05"},"E10":{"p":1.869,"d":"2026-03-05"},"SP98":{"p":1.979,"d":"2026-03-05"}}},{"id":95130001,"lat":48.986,"lng":2.238,"addr":"9 Boulevard du Bel Air","city":"Franconville","cp":"95130","fuels":{"Gazole":{"p":1.898,"d":"2026-03-04"},"E10":{"p":1.734,"d":"2026-03-04"},"SP98":{"p":1.854,"d":"2026-03-04"}}},{"id":95220003,"lat":49.006,"lng":2.172,"addr":"61 Boulevard DU HAVRE","city":"Herblay","cp":"95220","fuels":{"Gazole":{"p":1.936,"d":"2026-03-05"},"E10":{"p":1.778,"d":"2026-03-05"},"SP98":{"p":1.858,"d":"2026-03-05"}}},{"id":95400003,"lat":48.982,"lng":2.431,"addr":"100 Avenue de la République","city":"Arnouville-lès-Gonesse","cp":"95400","fuels":{"Gazole":{"p":1.946,"d":"2026-03-05"},"E10":{"p":1.788,"d":"2026-03-05"},"SP98":{"p":1.874,"d":"2026-03-05"}}},{"id":95350004,"lat":48.993,"lng":2.359,"addr":"47 AVENUE DU GENERAL DE GAULLE","city":"Saint-Brice-sous-Forêt","cp":"95350","fuels":{"Gazole":{"p":1.99,"d":"2026-03-05"},"E85":{"p":0.739,"d":"2026-03-05"},"E10":{"p":1.859,"d":"2026-03-05"},"SP98":{"p":1.969,"d":"2026-03-05"}}},{"id":95600002,"lat":48.994,"lng":2.28,"addr":"5 Avenue Voltaire","city":"Eaubonne","cp":"95600","fuels":{"Gazole":{"p":1.888,"d":"2026-03-04"},"E85":{"p":0.843,"d":"2026-03-04"},"E10":{"p":1.738,"d":"2026-03-04"},"SP98":{"p":1.858,"d":"2026-03-04"}}},{"id":95570007,"lat":49.041,"lng":2.343,"addr":"RN1","city":"Moisselles","cp":"95570","fuels":{"Gazole":{"p":1.972,"d":"2026-03-05"},"E10":{"p":1.752,"d":"2026-03-05"},"SP98":{"p":1.872,"d":"2026-03-05"}}},{"id":95800003,"lat":49.05,"lng":2.045,"addr":"Boulevard d'Osny","city":"Cergy","cp":"95800","fuels":{"Gazole":{"p":1.877,"d":"2026-03-04"},"E10":{"p":1.769,"d":"2026-03-04"},"SP98":{"p":1.866,"d":"2026-03-04"}}},{"id":95230010,"lat":48.990753655031,"lng":2.2892381272629,"addr":"63 AVENUE DE PARIS","city":"SOISY-SOUS-MONTMORENCY","cp":"95230","fuels":{"Gazole":{"p":1.99,"d":"2026-03-05"},"E10":{"p":1.859,"d":"2026-03-05"},"SP98":{"p":1.969,"d":"2026-03-05"}}},{"id":95570009,"lat":49.06,"lng":2.348,"addr":"9 RD 104","city":"ATTAINVILLE","cp":"95570","fuels":{"Gazole":{"p":2.079,"d":"2026-03-05"},"GPLc":{"p":1.089,"d":"2026-03-05"},"E10":{"p":1.929,"d":"2026-03-05"},"SP98":{"p":2.099,"d":"2026-03-05"}}},{"id":95310010,"lat":49.04,"lng":2.116,"addr":"52 RUE DE PARIS","city":"Saint-Ouen-l'Aumône","cp":"95310","fuels":{"Gazole":{"p":2.039,"d":"2026-03-05"},"E10":{"p":1.889,"d":"2026-03-05"},"SP98":{"p":2.009,"d":"2026-03-05"}}},{"id":95610007,"lat":49.026,"lng":2.103,"addr":"RN184, direction St germain","city":"ERAGNY-SUR-OISE","cp":"95610","fuels":{"Gazole":{"p":1.999,"d":"2026-03-05"},"E10":{"p":1.949,"d":"2026-03-05"},"SP98":{"p":2.059,"d":"2026-03-05"}}},{"id":95220006,"lat":49.00291,"lng":2.18698,"addr":"34, AV. DE LA LIBERATION","city":"HERBLAY","cp":"95220","fuels":{"Gazole":{"p":1.99,"d":"2026-03-05"},"E85":{"p":0.786,"d":"2026-03-05"},"E10":{"p":1.862,"d":"2026-03-05"},"SP98":{"p":1.972,"d":"2026-03-05"}}},{"id":95100035,"lat":48.952306479647,"lng":2.2130157579777,"addr":"8 R DES MARTYRS CHATEAUBRIANT","city":"ARGENTEUIL","cp":"95100","fuels":{"Gazole":{"p":1.951,"d":"2026-03-05"},"E85":{"p":0.769,"d":"2026-03-05"},"E10":{"p":1.795,"d":"2026-03-05"},"SP98":{"p":1.879,"d":"2026-03-05"}}},{"id":95420005,"lat":49.13514,"lng":1.78964,"addr":"RN 14","city":"CHARMONT","cp":"95420","fuels":{"Gazole":{"p":1.916,"d":"2026-03-05"},"E85":{"p":0.772,"d":"2026-03-05"},"E10":{"p":1.773,"d":"2026-03-05"}}},{"id":95230008,"lat":48.9869,"lng":2.29595,"addr":"20 AV.DE PARIS","city":"Soisy-sous-Montmorency","cp":"95230","fuels":{"Gazole":{"p":1.99,"d":"2026-03-05"},"SP98":{"p":1.965,"d":"2026-03-05"}}},{"id":95500010,"lat":48.967,"lng":2.465,"addr":"RN 370","city":"GONESSE","cp":"95500","fuels":{"Gazole":{"p":1.99,"d":"2026-03-05"},"E85":{"p":0.759,"d":"2026-03-05"},"E10":{"p":1.859,"d":"2026-03-05"},"SP98":{"p":1.969,"d":"2026-03-05"}}},{"id":95650002,"lat":49.082,"lng":2.069,"addr":"CD 916 - ROUTE DE GISORS","city":"GENICOURT","cp":"95650","fuels":{"Gazole":{"p":1.922,"d":"2026-03-05"},"GPLc":{"p":0.941,"d":"2026-03-05"},"E10":{"p":1.764,"d":"2026-03-05"},"SP98":{"p":1.859,"d":"2026-03-05"}}},{"id":95870009,"lat":48.935567999999996,"lng":2.2076279999999997,"addr":"151 Avenue Gabriel Péri","city":"BEZONS","cp":"95870","fuels":{"Gazole":{"p":1.951,"d":"2026-03-05"},"E10":{"p":1.799,"d":"2026-03-05"},"SP98":{"p":1.879,"d":"2026-03-05"}}},{"id":95160003,"lat":49.01,"lng":2.313,"addr":"Avenue de Domont","city":"MONTMORENCY","cp":"95160","fuels":{"Gazole":{"p":1.991,"d":"2026-03-05"},"E10":{"p":1.761,"d":"2026-03-05"},"SP98":{"p":1.875,"d":"2026-03-05"}}},{"id":95340004,"lat":49.146667120000004,"lng":2.2837288200000003,"addr":"5 A 11 Avenue JEAN-JAURES","city":"Persan","cp":"95340","fuels":{"Gazole":{"p":1.999,"d":"2026-03-05"},"E85":{"p":0.999,"d":"2026-03-05"},"E10":{"p":1.809,"d":"2026-03-05"},"SP98":{"p":1.959,"d":"2026-03-05"}}},{"id":95500012,"lat":48.99401,"lng":2.42407,"addr":"19 RUE GABRIEL PERI","city":"GONESSE","cp":"95500","fuels":{"Gazole":{"p":1.925,"d":"2026-03-05"},"E85":{"p":0.742,"d":"2026-03-05"},"E10":{"p":1.765,"d":"2026-03-05"},"SP98":{"p":1.865,"d":"2026-03-05"}}},{"id":95520004,"lat":49.068,"lng":2.088,"addr":"Chemin des Hayettes","city":"Osny","cp":"95520","fuels":{"Gazole":{"p":1.945,"d":"2026-03-05"},"E85":{"p":0.684,"d":"2026-03-05"},"E10":{"p":1.77,"d":"2026-03-05"},"SP98":{"p":1.891,"d":"2026-03-05"}}},{"id":95470008,"lat":49.071,"lng":2.551,"addr":"AUT A1 Aire de Vémars Ouest","city":"VEMARS","cp":"95470","fuels":{"Gazole":{"p":1.95,"d":"2026-03-05"},"E10":{"p":1.827,"d":"2026-03-05"},"SP98":{"p":1.967,"d":"2026-03-05"}}},{"id":95110007,"lat":48.96344,"lng":2.2604,"addr":"82 BLD GABRIEL PERI","city":"SANNOIS","cp":"95110","fuels":{"Gazole":{"p":1.951,"d":"2026-03-04"},"E85":{"p":0.824,"d":"2026-03-04"},"E10":{"p":1.789,"d":"2026-03-04"},"SP98":{"p":1.879,"d":"2026-03-04"}}},{"id":95120002,"lat":48.99,"lng":2.257,"addr":"16 Rue du 18 Juin","city":"Ermont","cp":"95120","fuels":{"Gazole":{"p":2.039,"d":"2026-03-04"},"E10":{"p":1.899,"d":"2026-03-04"},"SP98":{"p":2.069,"d":"2026-03-04"}}},{"id":95190006,"lat":49.038,"lng":2.455,"addr":"182, RUE ALBERT SARRAUT","city":"GOUSSAINVILLE","cp":"95190","fuels":{"Gazole":{"p":1.935,"d":"2026-03-05"},"E10":{"p":1.771,"d":"2026-03-05"},"SP98":{"p":1.861,"d":"2026-03-05"}}},{"id":95331002,"lat":49.028,"lng":2.347,"addr":"RN 1 - BP4","city":"Domont","cp":"95331","fuels":{"Gazole":{"p":1.999,"d":"2026-03-05"},"GPLc":{"p":1.099,"d":"2026-03-05"},"E10":{"p":1.819,"d":"2026-03-05"},"SP98":{"p":1.989,"d":"2026-03-05"}}},{"id":95100034,"lat":48.955,"lng":2.273,"addr":"176 AVE STALINGRAD","city":"ARGENTEUIL","cp":"95100","fuels":{"Gazole":{"p":1.925,"d":"2026-03-05"},"E10":{"p":1.773,"d":"2026-03-05"},"SP98":{"p":1.865,"d":"2026-03-05"}}},{"id":95190005,"lat":49.015625843572,"lng":2.4702620933139,"addr":"32/38 AV DE LA GARE","city":"GOUSSAINVILLE","cp":"95190","fuels":{"Gazole":{"p":1.99,"d":"2026-03-05"},"E85":{"p":0.789,"d":"2026-03-05"},"E10":{"p":1.859,"d":"2026-03-05"},"SP98":{"p":1.969,"d":"2026-03-05"}}},{"id":95170001,"lat":48.968,"lng":2.316,"addr":"28 Avenue de la Division Leclerc","city":"Deuil-la-Barre","cp":"95170","fuels":{"Gazole":{"p":2.129,"d":"2026-03-04"},"E10":{"p":1.979,"d":"2026-03-04"},"SP98":{"p":2.149,"d":"2026-03-04"}}},{"id":95610008,"lat":49.026,"lng":2.104,"addr":"ROUTE NATIONALE 184","city":"Eragny-sur-Oise","cp":"95610","fuels":{"Gazole":{"p":2.079,"d":"2026-03-05"},"E85":{"p":0.959,"d":"2026-03-05"},"GPLc":{"p":1.169,"d":"2026-03-05"},"E10":{"p":1.949,"d":"2026-03-05"},"SP98":{"p":2.099,"d":"2026-03-05"}}},{"id":95180001,"lat":49.02938,"lng":1.99173,"addr":"1 Côte des Auges","city":"MENUCOURT","cp":"95180","fuels":{"Gazole":{"p":1.91,"d":"2026-03-04"},"SP95":{"p":1.84,"d":"2026-03-04"},"SP98":{"p":1.91,"d":"2026-03-04"}}},{"id":95370001,"lat":48.993,"lng":2.198,"addr":"66 Boulevard Victor Bordier","city":"MONTIGNY-LèS-CORMEILLES","cp":"95370","fuels":{"Gazole":{"p":1.909,"d":"2026-03-04"},"SP95":{"p":1.825,"d":"2026-03-04"},"E85":{"p":0.759,"d":"2026-02-26"},"E10":{"p":1.745,"d":"2026-03-04"},"SP98":{"p":1.865,"d":"2026-03-04"}}},{"id":95100006,"lat":48.957,"lng":2.284,"addr":"239 Route d'Enghien","city":"Argenteuil","cp":"95100","fuels":{"Gazole":{"p":2.049,"d":"2026-03-04"},"E10":{"p":1.929,"d":"2026-03-04"},"SP98":{"p":2.099,"d":"2026-03-04"}}},{"id":95320005,"lat":49.008,"lng":2.242,"addr":"Boulevard André Brémond","city":"Saint-Leu-la-Forêt","cp":"95320","fuels":{"Gazole":{"p":1.999,"d":"2026-03-05"},"E10":{"p":1.839,"d":"2026-03-05"},"SP98":{"p":1.989,"d":"2026-03-05"}}},{"id":95370003,"lat":48.992,"lng":2.182,"addr":"211 Boulevard de Pontoise","city":"MONTIGNY-LES-CORMEILLES","cp":"95370","fuels":{"Gazole":{"p":2.119,"d":"2026-03-05"},"E10":{"p":1.939,"d":"2026-03-05"},"SP98":{"p":2.089,"d":"2026-03-05"}}},{"id":95280001,"lat":49,"lng":2.016,"addr":"Les versants de l'Hautil","city":"Jouy-le-Moutier","cp":"95280","fuels":{"Gazole":{"p":1.92,"d":"2026-03-05"},"SP95":{"p":1.845,"d":"2026-03-05"},"SP98":{"p":1.915,"d":"2026-03-05"}}},{"id":95310011,"lat":49.047756660000005,"lng":2.13195072,"addr":"RN 184 - ZI VERT GALANT","city":"Saint-Ouen-l'Aumône","cp":"95310","fuels":{"Gazole":{"p":1.99,"d":"2026-03-05"},"E85":{"p":0.784,"d":"2026-03-05"},"E10":{"p":1.859,"d":"2026-03-05"},"SP98":{"p":1.969,"d":"2026-03-05"}}},{"id":95400008,"lat":49.00053,"lng":2.39389,"addr":"AVENUE DES ERABLES","city":"Villiers-le-Bel","cp":"95400","fuels":{"Gazole":{"p":1.929,"d":"2026-03-05"},"E10":{"p":1.773,"d":"2026-03-05"},"SP98":{"p":1.861,"d":"2026-03-05"}}},{"id":95290003,"lat":49.110450964099996,"lng":2.22459192177,"addr":"44 AVENUE DE PARIS","city":"L'Isle-Adam","cp":"95290","fuels":{"Gazole":{"p":1.99,"d":"2026-03-05"},"E85":{"p":0.811,"d":"2026-03-05"},"E10":{"p":1.851,"d":"2026-03-05"},"SP98":{"p":1.961,"d":"2026-03-05"}}},{"id":95600001,"lat":48.978,"lng":2.291,"addr":"48 AVENUE KELLERMANN","city":"EAUBONNE","cp":"95600","fuels":{"Gazole":{"p":1.99,"d":"2026-03-03"},"E10":{"p":1.869,"d":"2026-03-03"},"SP98":{"p":1.979,"d":"2026-03-03"}}},{"id":95100021,"lat":48.94,"lng":2.233,"addr":"63 Avenue Jean Jaurès","city":"Argenteuil","cp":"95100","fuels":{"Gazole":{"p":1.999,"d":"2026-03-05"},"E85":{"p":0.929,"d":"2026-03-05"},"E10":{"p":1.899,"d":"2026-03-05"},"SP98":{"p":2.069,"d":"2026-03-05"}}},{"id":95870010,"lat":48.936888607759,"lng":2.2069830018219,"addr":"179 avenue Gabriel Péri","city":"Bezons","cp":"95870","fuels":{"Gazole":{"p":1.99,"d":"2026-03-03"},"E85":{"p":0.804,"d":"2026-02-25"},"E10":{"p":1.887,"d":"2026-03-04"},"SP98":{"p":1.99,"d":"2026-03-03"}}},{"id":95740005,"lat":49.048,"lng":2.201,"addr":"14 AVENUE DU GENERAL DE GAULLE","city":"FREPILLON","cp":"95740","fuels":{"Gazole":{"p":1.932,"d":"2026-03-05"},"E85":{"p":0.763,"d":"2026-03-05"},"E10":{"p":1.769,"d":"2026-03-05"},"SP98":{"p":1.859,"d":"2026-03-05"}}},{"id":95100032,"lat":48.94889,"lng":2.20959,"addr":"RUE DES GRIVES - ZAC FOSSE AUX L","city":"ARGENTEUIL","cp":"95100","fuels":{"Gazole":{"p":1.951,"d":"2026-03-05"},"E85":{"p":0.769,"d":"2026-03-05"},"E10":{"p":1.795,"d":"2026-03-05"},"SP98":{"p":1.879,"d":"2026-03-05"}}},{"id":95450006,"lat":49.064610342954,"lng":1.9789464314269,"addr":"RN 14 LIEUDIT LA MARLIERE","city":"SAGY","cp":"95450","fuels":{"Gazole":{"p":1.916,"d":"2026-03-05"},"E85":{"p":0.769,"d":"2026-03-05"},"E10":{"p":1.773,"d":"2026-03-05"},"SP98":{"p":1.859,"d":"2026-03-05"}}},{"id":95240003,"lat":48.971,"lng":2.192,"addr":"27, 29, 31, Boulevard Clemenceau","city":"CORMEILLES-EN-PARISIS","cp":"95240","fuels":{"Gazole":{"p":1.99,"d":"2026-03-05"},"E10":{"p":1.859,"d":"2026-03-05"},"SP98":{"p":1.969,"d":"2026-03-05"}}},{"id":95800001,"lat":49.05575,"lng":2.0188,"addr":"RUE NEUVE","city":"PUISEUX-PONTOISE","cp":"95650","fuels":{"Gazole":{"p":1.999,"d":"2026-03-05"},"SP95":{"p":1.909,"d":"2026-03-05"},"E85":{"p":0.779,"d":"2026-03-05"},"E10":{"p":1.859,"d":"2026-03-05"},"SP98":{"p":1.91,"d":"2026-03-04"}}},{"id":95380002,"lat":49.04806137,"lng":2.50257752,"addr":"145 Rue de Paris","city":"LOUVRES","cp":"95380","fuels":{"Gazole":{"p":2.076,"d":"2026-03-05"},"E10":{"p":1.916,"d":"2026-03-05"},"SP98":{"p":2.032,"d":"2026-03-05"}}},{"id":95540002,"lat":49.061,"lng":2.17,"addr":"Route de Pontoise","city":"MéRY-SUR-OISE","cp":"95540","fuels":{"Gazole":{"p":1.972,"d":"2026-03-05"},"E85":{"p":0.758,"d":"2026-03-05"},"E10":{"p":1.745,"d":"2026-03-05"},"SP98":{"p":1.877,"d":"2026-03-05"}}},{"id":95640002,"lat":49.146725,"lng":1.974442,"addr":"Boulevard Gambetta","city":"Marines","cp":"95640","fuels":{"Gazole":{"p":1.92,"d":"2026-03-04"},"E10":{"p":1.807,"d":"2026-03-04"},"SP98":{"p":1.917,"d":"2026-03-04"}}},{"id":95150001,"lat":49.0146669398,"lng":2.22190168155,"addr":"CENTRE COMMERCIAL LES PORTES DE TAVERNY","city":"TAVERNY","cp":"95150","fuels":{"Gazole":{"p":1.914,"d":"2026-03-05"},"E85":{"p":0.764,"d":"2026-03-05"},"GPLc":{"p":0.999,"d":"2026-03-05"},"E10":{"p":1.75,"d":"2026-03-05"},"SP98":{"p":1.87,"d":"2026-03-05"}}},{"id":95110006,"lat":48.967,"lng":2.262,"addr":"38-42 BOULEVARD GABRIEL PERI","city":"SANNOIS","cp":"95110","fuels":{"Gazole":{"p":1.937,"d":"2026-03-05"},"E10":{"p":1.779,"d":"2026-03-05"},"SP98":{"p":1.869,"d":"2026-03-05"}}},{"id":95370008,"lat":48.99694,"lng":2.18922,"addr":"177 BD VICTOR BORDIER","city":"Montigny-lès-Cormeilles","cp":"95370","fuels":{"Gazole":{"p":1.927,"d":"2026-03-05"},"GPLc":{"p":0.964,"d":"2026-03-05"},"E10":{"p":1.769,"d":"2026-03-05"}}},{"id":95400004,"lat":48.986,"lng":2.413,"addr":"59 Avenue Charles Vaillant","city":"ARNOUVILLE","cp":"95400","fuels":{"Gazole":{"p":1.95,"d":"2026-03-05"},"E85":{"p":0.69,"d":"2026-03-05"},"E10":{"p":1.78,"d":"2026-03-05"},"SP98":{"p":1.851,"d":"2026-03-05"}}},{"id":95290001,"lat":49.124,"lng":2.248,"addr":"BOULEVARD TILSIT","city":"L'ISLE-ADAM","cp":"95290","fuels":{"Gazole":{"p":1.946,"d":"2026-03-05"},"E85":{"p":0.855,"d":"2026-03-05"},"GPLc":{"p":0.877,"d":"2026-03-05"},"E10":{"p":1.769,"d":"2026-03-05"},"SP98":{"p":1.9,"d":"2026-03-05"}}},{"id":95570003,"lat":49.041177467467996,"lng":2.3422049553388,"addr":"Route Nationale 1","city":"MOISSELLES","cp":"95570","fuels":{"Gazole":{"p":1.979,"d":"2026-03-05"},"SP95":{"p":1.839,"d":"2026-03-05"},"E85":{"p":0.689,"d":"2026-02-23"},"E10":{"p":1.759,"d":"2026-03-05"},"SP98":{"p":1.875,"d":"2026-03-05"}}},{"id":95480003,"lat":49.01263,"lng":2.14895,"addr":"AUTOROUTE A15 - AIRE DE PIERRELAYE","city":"PIERRELAYE","cp":"95480","fuels":{"Gazole":{"p":1.99,"d":"2026-03-05"},"GPLc":{"p":0.956,"d":"2026-03-05"},"E10":{"p":1.859,"d":"2026-03-05"},"SP98":{"p":1.969,"d":"2026-03-05"}}},{"id":95520001,"lat":49.077,"lng":2.077,"addr":"chemin du Poirier Charles Guérin","city":"OSNY","cp":"95520","fuels":{"Gazole":{"p":1.945,"d":"2026-03-05"},"GPLc":{"p":0.941,"d":"2026-02-13"},"E10":{"p":1.77,"d":"2026-03-05"},"SP98":{"p":1.891,"d":"2026-03-05"}}},{"id":95300004,"lat":49.045,"lng":2.096,"addr":"11, AV DU GENERAL GABRIEL DELARUE","city":"PONTOISE","cp":"95300","fuels":{"Gazole":{"p":1.929,"d":"2026-03-05"},"E10":{"p":1.773,"d":"2026-03-05"},"SP98":{"p":1.859,"d":"2026-03-05"}}},{"id":95320006,"lat":49.013,"lng":2.249,"addr":"AV JEAN ROSTAND","city":"Saint-Leu-la-Forêt","cp":"95320","fuels":{"Gazole":{"p":1.929,"d":"2026-03-05"},"E85":{"p":0.799,"d":"2026-03-05"},"E10":{"p":1.765,"d":"2026-03-05"},"SP98":{"p":1.859,"d":"2026-03-05"}}},{"id":95470009,"lat":49.072,"lng":2.553,"addr":"Autoroute A1 - Aire de vémars Est","city":"VEMARS","cp":"95470","fuels":{"Gazole":{"p":1.99,"d":"2026-03-05"},"GPLc":{"p":0.963,"d":"2026-03-05"},"E10":{"p":1.889,"d":"2026-03-05"},"SP98":{"p":1.979,"d":"2026-03-05"}}},{"id":95100037,"lat":48.951634109562,"lng":2.2122929705522,"addr":"5-7 BLD DES MARTYRS DE CHATEAUBRIAND","city":"Argenteuil","cp":"95100","fuels":{"Gazole":{"p":1.951,"d":"2026-03-05"},"E10":{"p":1.795,"d":"2026-03-05"},"SP98":{"p":1.879,"d":"2026-03-05"}}},{"id":95270004,"lat":49.085,"lng":2.416,"addr":"RN 16","city":"ÉPINAY-CHAMPLâTREUX","cp":"95270","fuels":{"Gazole":{"p":2.159,"d":"2026-03-05"},"SP95":{"p":2.039,"d":"2026-03-05"},"SP98":{"p":2.069,"d":"2026-03-05"}}},{"id":95100007,"lat":48.945,"lng":2.263,"addr":"RN 311 QUAI ST DENIS","city":"Argenteuil","cp":"95100","fuels":{"Gazole":{"p":2.119,"d":"2026-03-04"},"E10":{"p":1.949,"d":"2026-03-04"},"SP98":{"p":2.099,"d":"2026-03-04"}}},{"id":95190003,"lat":49.022,"lng":2.456,"addr":"1 rue Jacques Anquetil","city":"GOUSSAINVILLE","cp":"95190","fuels":{"Gazole":{"p":1.975,"d":"2026-03-05"},"E10":{"p":1.781,"d":"2026-03-05"},"SP98":{"p":1.82,"d":"2026-03-05"}}},{"id":95550002,"lat":49.033,"lng":2.205,"addr":"ZAC DES MEUNIERS - 7 RUE STEPHANE HESSEL","city":"Bessancourt","cp":"95550","fuels":{"Gazole":{"p":1.999,"d":"2026-03-05"},"SP95":{"p":1.831,"d":"2026-03-05"},"E85":{"p":0.719,"d":"2026-03-05"},"E10":{"p":1.749,"d":"2026-03-05"},"SP98":{"p":1.869,"d":"2026-03-05"}}},{"id":95480002,"lat":49.015,"lng":2.146,"addr":"AUTOROUTE A 15","city":"Pierrelaye","cp":"95480","fuels":{"Gazole":{"p":1.98,"d":"2026-03-04"},"GPLc":{"p":0.963,"d":"2026-03-04"},"E10":{"p":1.859,"d":"2026-03-04"},"SP98":{"p":1.949,"d":"2026-03-04"}}},{"id":95000011,"lat":49.032,"lng":2.069,"addr":"ANGLE AV GROUETTES BLD L'HAUTIL","city":"Cergy","cp":"95000","fuels":{"Gazole":{"p":2.049,"d":"2026-03-05"},"E10":{"p":1.909,"d":"2026-03-05"},"SP98":{"p":2.059,"d":"2026-03-05"}}},{"id":95800007,"lat":49.053,"lng":2.038,"addr":"ROND POINT DES CHENES (BD DE LOISE)","city":"CERGY","cp":"95800","fuels":{"Gazole":{"p":1.999,"d":"2026-03-05"},"GPLc":{"p":0.999,"d":"2026-03-05"},"E10":{"p":1.869,"d":"2026-03-05"},"SP98":{"p":2.039,"d":"2026-03-05"}}},{"id":95540005,"lat":49.054,"lng":2.175,"addr":"LIEUDIT LES 4 CHEMINS-RN1","city":"MERY SUR OISE","cp":"95540","fuels":{"Gazole":{"p":2.029,"d":"2026-03-05"},"GPLc":{"p":0.989,"d":"2026-03-05"},"E10":{"p":1.879,"d":"2026-03-05"},"SP98":{"p":2.019,"d":"2026-03-05"}}},{"id":95520005,"lat":49.061,"lng":2.084,"addr":"LIEUDIT LE CHAMP POURRI CD 915","city":"OSNY","cp":"95520","fuels":{"Gazole":{"p":1.999,"d":"2026-03-05"},"E10":{"p":1.849,"d":"2026-03-05"},"SP98":{"p":1.989,"d":"2026-03-05"}}},{"id":95100033,"lat":48.933,"lng":2.233,"addr":"193 AVENUE HENRI BARBUSSE","city":"ARGENTEUIL","cp":"95100","fuels":{"Gazole":{"p":1.947,"d":"2026-03-05"},"E10":{"p":1.795,"d":"2026-03-05"},"SP98":{"p":1.875,"d":"2026-03-05"}}},{"id":95150005,"lat":49.018,"lng":2.22,"addr":"AVENUE DE LA DIVISION LECLERC","city":"TAVERNY","cp":"95150","fuels":{"Gazole":{"p":1.999,"d":"2026-03-05"},"E85":{"p":0.959,"d":"2026-03-05"},"GPLc":{"p":1.009,"d":"2026-03-05"},"E10":{"p":1.829,"d":"2026-03-05"},"SP98":{"p":1.919,"d":"2026-03-05"}}},{"id":95470006,"lat":49.10021,"lng":2.52395,"addr":"2 AVENUE HENRI BARBUSSE","city":"FOSSES","cp":"95470","fuels":{"Gazole":{"p":1.99,"d":"2026-03-05"},"E10":{"p":1.871,"d":"2026-03-05"},"SP98":{"p":1.981,"d":"2026-03-05"}}},{"id":95460003,"lat":49.028241057696,"lng":2.3655005925033,"addr":"ROUTE D'ECOUEN RN 370","city":"EZANVILLE","cp":"95460","fuels":{"Gazole":{"p":1.99,"d":"2026-03-05"},"E85":{"p":0.745,"d":"2026-03-05"},"E10":{"p":1.855,"d":"2026-03-05"},"SP98":{"p":1.965,"d":"2026-03-05"}}},{"id":95370007,"lat":48.985054207800005,"lng":2.18181283895,"addr":"175 BOULEVARD DE PONTOISE","city":"Montigny-lès-Cormeilles","cp":"95370","fuels":{"Gazole":{"p":1.926,"d":"2026-03-05"},"E10":{"p":1.769,"d":"2026-03-05"},"SP98":{"p":1.859,"d":"2026-03-05"}}},{"id":95712004,"lat":49.0091,"lng":2.53736,"addr":"1 RUE DE L'OR - BP.20212","city":"Roissy-en-France","cp":"95700","fuels":{"Gazole":{"p":1.99,"d":"2026-03-05"},"GPLc":{"p":0.963,"d":"2026-03-05"},"E10":{"p":1.859,"d":"2026-03-05"},"SP98":{"p":1.969,"d":"2026-03-05"}}},{"id":95500011,"lat":48.9811274725,"lng":2.4450748025399998,"addr":"RD 370 RUE NUNGESSER ET COLI","city":"GONESSE","cp":"95500","fuels":{"Gazole":{"p":1.937,"d":"2026-03-05"},"E85":{"p":0.749,"d":"2026-03-05"},"E10":{"p":1.779,"d":"2026-03-05"},"SP98":{"p":1.865,"d":"2026-03-05"}}},{"id":95440002,"lat":49.03,"lng":2.39,"addr":"Route Départementale 316","city":"ÉCOUEN","cp":"95440","fuels":{"Gazole":{"p":1.95,"d":"2026-03-02"},"E10":{"p":1.85,"d":"2026-03-02"}}},{"id":95220005,"lat":49.00469,"lng":2.12666,"addr":"421 Route de Conflans","city":"Herblay","cp":"95220","fuels":{"Gazole":{"p":1.879,"d":"2026-03-03"},"E10":{"p":1.769,"d":"2026-03-03"},"SP98":{"p":1.879,"d":"2026-03-03"}}},{"id":95140001,"lat":48.975,"lng":2.418,"addr":"Boulevard de la MUETTE","city":"GARGES-LèS-GONESSE","cp":"95140","fuels":{"Gazole":{"p":1.948,"d":"2026-03-05"},"GPLc":{"p":0.876,"d":"2026-03-05"},"E10":{"p":1.78,"d":"2026-03-05"},"SP98":{"p":1.851,"d":"2026-03-05"}}},{"id":95380001,"lat":49.049,"lng":2.498,"addr":"zi de la briquetterie","city":"LOUVRES","cp":"95380","fuels":{"Gazole":{"p":1.911,"d":"2026-03-05"},"E10":{"p":1.785,"d":"2026-03-05"},"SP98":{"p":1.841,"d":"2026-03-05"}}},{"id":95360001,"lat":48.963,"lng":2.339,"addr":"136 Rue Jules Ferry","city":"Montmagny","cp":"95360","fuels":{"Gazole":{"p":1.989,"d":"2026-03-05"},"SP95":{"p":1.977,"d":"2026-03-05"},"E85":{"p":0.759,"d":"2026-03-05"},"E10":{"p":1.857,"d":"2026-03-05"},"SP98":{"p":1.987,"d":"2026-03-05"}}},{"id":95100029,"lat":48.983615089971,"lng":2.36997124557,"addr":"141 Av. de la Division Leclerc","city":"SARCELLES","cp":"95200","fuels":{"Gazole":{"p":1.799,"d":"2026-03-04"},"E85":{"p":0.689,"d":"2026-02-25"},"GPLc":{"p":0.876,"d":"2026-03-04"},"E10":{"p":1.743,"d":"2026-03-04"},"SP98":{"p":1.863,"d":"2026-03-04"}}},{"id":95420002,"lat":49.157,"lng":1.784,"addr":"Route de rouen","city":"MAGNY-EN-VEXIN","cp":"95420","fuels":{"Gazole":{"p":1.926,"d":"2026-03-04"},"E85":{"p":0.769,"d":"2026-03-03"},"E10":{"p":1.783,"d":"2026-03-04"},"SP98":{"p":1.889,"d":"2026-03-03"}}},{"id":95137001,"lat":48.989285938081,"lng":2.2065467998684,"addr":"362 Rue du Général Leclerc","city":"FRANCONVILLE","cp":"95130","fuels":{"Gazole":{"p":1.999,"d":"2026-03-05"},"SP95":{"p":1.835,"d":"2026-03-05"},"E85":{"p":0.739,"d":"2026-03-05"},"E10":{"p":1.755,"d":"2026-03-05"},"SP98":{"p":1.875,"d":"2026-03-05"}}},{"id":95390001,"lat":49.003352,"lng":2.260898,"addr":"41 Avenue du Général Leclerc","city":"Saint-Prix","cp":"95390","fuels":{"Gazole":{"p":1.879,"d":"2026-03-04"},"E10":{"p":1.729,"d":"2026-03-03"}}},{"id":95500006,"lat":48.98940867009,"lng":2.433548852432,"addr":"1 Rue Georges Pompidou","city":"GONESSE","cp":"95500","fuels":{"Gazole":{"p":1.849,"d":"2026-03-05"},"SP95":{"p":1.809,"d":"2026-03-05"},"E85":{"p":0.69,"d":"2026-03-05"},"E10":{"p":1.749,"d":"2026-03-05"},"SP98":{"p":1.82,"d":"2026-03-05"}}},{"id":95340003,"lat":49.146,"lng":2.282,"addr":"Rue du 8 Mai 1945","city":"PERSAN","cp":"95340","fuels":{"Gazole":{"p":1.899,"d":"2026-03-04"},"E10":{"p":1.759,"d":"2026-03-04"},"SP98":{"p":1.848,"d":"2026-03-05"}}},{"id":95260003,"lat":49.138,"lng":2.275,"addr":"48 RUE DE L'ISLE ADAM - RN322","city":"Beaumont-sur-Oise","cp":"95260","fuels":{"Gazole":{"p":1.922,"d":"2026-03-05"},"E85":{"p":0.795,"d":"2026-03-05"},"E10":{"p":1.762,"d":"2026-03-05"},"SP98":{"p":1.849,"d":"2026-03-05"}}},{"id":95420003,"lat":49.147,"lng":1.787,"addr":"Route de Mantes","city":"Magny-en-Vexin","cp":"95420","fuels":{"Gazole":{"p":1.899,"d":"2026-03-04"},"GPLc":{"p":0.979,"d":"2026-01-15"},"E10":{"p":1.759,"d":"2026-03-03"},"SP98":{"p":1.869,"d":"2026-03-04"}}},{"id":95270001,"lat":49.118658474551005,"lng":2.4268962159043,"addr":"LE CLOS PONTCEL D 316","city":"LUZARCHES","cp":"95270","fuels":{"Gazole":{"p":1.989,"d":"2026-03-05"},"SP95":{"p":1.889,"d":"2026-03-04"},"SP98":{"p":1.919,"d":"2026-03-04"}}},{"id":95170002,"lat":48.961,"lng":2.326,"addr":"17 Route de Saint-Denis","city":"Deuil-la-Barre","cp":"95170","fuels":{"Gazole":{"p":1.942,"d":"2026-03-05"},"E10":{"p":1.793,"d":"2026-03-05"},"SP98":{"p":1.873,"d":"2026-03-05"}}},{"id":95310003,"lat":49.057,"lng":2.124,"addr":"27 Rue d'Épluches","city":"SAINT-OUEN-L'AUMONE","cp":"95310","fuels":{"Gazole":{"p":1.945,"d":"2026-03-05"},"E85":{"p":0.683,"d":"2026-03-05"},"E10":{"p":1.76,"d":"2026-03-05"},"SP98":{"p":1.875,"d":"2026-03-05"}}},{"id":95230006,"lat":48.978,"lng":2.292,"addr":"59 Avenue Kellermann","city":"Soisy-sous-Montmorency","cp":"95230","fuels":{"Gazole":{"p":2.029,"d":"2026-03-05"},"E85":{"p":0.999,"d":"2026-03-05"},"E10":{"p":1.869,"d":"2026-03-05"},"SP98":{"p":2.039,"d":"2026-03-05"}}},{"id":95712003,"lat":49,"lng":2.523,"addr":"VOIE P5 ET F2 BP 20212","city":"Roissy-en-France","cp":"95700","fuels":{"Gazole":{"p":1.99,"d":"2026-03-05"},"E85":{"p":0.799,"d":"2026-03-05"},"E10":{"p":1.859,"d":"2026-03-05"},"SP98":{"p":1.969,"d":"2026-03-05"}}},{"id":95120001,"lat":48.987,"lng":2.247,"addr":"Avenue du Président Georges Pompidou","city":"ERMONT","cp":"95120","fuels":{"Gazole":{"p":1.908,"d":"2026-03-05"},"GPLc":{"p":0.999,"d":"2026-01-29"},"E10":{"p":1.732,"d":"2026-03-05"},"SP98":{"p":1.839,"d":"2026-03-05"}}},{"id":95150002,"lat":49.016,"lng":2.207,"addr":"180 Rue d'Herblay","city":"TAVERNY","cp":"95150","fuels":{"SP95":{"p":1.793,"d":"2026-03-05"},"SP98":{"p":1.853,"d":"2026-03-05"}}},{"id":95270006,"lat":49.123,"lng":2.427,"addr":"RN 16","city":"CHAUMONTEL","cp":"95270","fuels":{"Gazole":{"p":1.919,"d":"2026-03-05"},"E85":{"p":0.754,"d":"2026-03-05"},"GPLc":{"p":0.929,"d":"2026-03-05"},"E10":{"p":1.763,"d":"2026-03-05"},"SP98":{"p":1.849,"d":"2026-03-05"}}},{"id":95330010,"lat":49.028,"lng":2.339,"addr":"2 avenue du lycée","city":"Domont","cp":"95330","fuels":{"Gazole":{"p":1.969,"d":"2026-03-04"},"E10":{"p":1.869,"d":"2026-03-04"},"SP98":{"p":1.979,"d":"2026-03-04"}}}]